{
  "headsign": "81 | Rennes Villejean-Université",
  "stopTimes": [
    {
      "stop": {
        "id": "2_6000",
        "lat": 48.21870667,
        "lon": -1.8933469,
        "name": "Romillé Collège",
        "code": 6000
      },
      "arrival": 25500,
      "departure": 25500
    },
    {
      "stop": {
        "id": "2_6002",
        "lat": 48.21672827,
        "lon": -1.89094337,
        "name": "Frères Aubert",
        "code": 6002
      },
      "arrival": 25560,
      "departure": 25560
    },
    {
      "stop": {
        "id": "2_6004",
        "lat": 48.21538709,
        "lon": -1.89228554,
        "name": "Romillé Mairie",
        "code": 6004
      },
      "arrival": 25680,
      "departure": 25680
    },
    {
      "stop": {
        "id": "2_6006",
        "lat": 48.21234128,
        "lon": -1.89087642,
        "name": "Mettrie Templiers",
        "code": 6006
      },
      "arrival": 25800,
      "departure": 25800
    },
    {
      "stop": {
        "id": "2_4452",
        "lat": 48.18138008,
        "lon": -1.85347313,
        "name": "Croix Simon",
        "code": 4452
      },
      "arrival": 26160,
      "departure": 26160
    },
    {
      "stop": {
        "id": "2_4460",
        "lat": 48.17807468,
        "lon": -1.85281718,
        "name": "La Cour aux Pages",
        "code": 4460
      },
      "arrival": 26280,
      "departure": 26280
    },
    {
      "stop": {
        "id": "2_4453",
        "lat": 48.17601811,
        "lon": -1.85254844,
        "name": "Clayes Centre",
        "code": 4453
      },
      "arrival": 26340,
      "departure": 26340
    },
    {
      "stop": {
        "id": "2_1517",
        "lat": 48.11854026,
        "lon": -1.71363649,
        "name": "Berry",
        "code": 1517
      },
      "arrival": 27300,
      "departure": 27300
    },
    {
      "stop": {
        "id": "2_1520",
        "lat": 48.12050245,
        "lon": -1.70973991,
        "name": "Bourbonnais",
        "code": 1520
      },
      "arrival": 27420,
      "departure": 27420
    },
    {
      "stop": {
        "id": "2_1497",
        "lat": 48.12102411,
        "lon": -1.70300103,
        "name": "Villejean-Université",
        "code": 1497
      },
      "arrival": 27600,
      "departure": 27600
    }
  ],
  "route": {
    "id": "2_0081",
    "textColor": "FFFFFF",
    "color": "0081C6",
    "description": "Métropolitaine",
    "longName": "Rennes (Villejean-Université) \u003c\u003e Clayes / Romillé",
    "shortName": "81",
    "type": 3,
    "agencyId": "2"
  }
}