{
  "headsign": "226 | Pacé Collège Saint-Gabriel",
  "stopTimes": [
    {
      "stop": {
        "id": "2_4055",
        "lat": 48.174111,
        "lon": -1.735204,
        "name": "Viennais",
        "code": 4055
      },
      "arrival": 32340,
      "departure": 32340
    },
    {
      "stop": {
        "id": "2_4056",
        "lat": 48.17016,
        "lon": -1.736188,
        "name": "Sénestrais",
        "code": 4056
      },
      "arrival": 32400,
      "departure": 32400
    },
    {
      "stop": {
        "id": "2_3500",
        "lat": 48.163969,
        "lon": -1.731752,
        "name": "Silandière",
        "code": 3500
      },
      "arrival": 32460,
      "departure": 32460
    },
    {
      "stop": {
        "id": "2_3514",
        "lat": 48.157221,
        "lon": -1.723306,
        "name": "Fougerolle",
        "code": 3514
      },
      "arrival": 32520,
      "departure": 32520
    },
    {
      "stop": {
        "id": "2_3502",
        "lat": 48.155655,
        "lon": -1.720614,
        "name": "Pierre Texier",
        "code": 3502
      },
      "arrival": 32580,
      "departure": 32580
    },
    {
      "stop": {
        "id": "2_3503",
        "lat": 48.15574,
        "lon": -1.71654,
        "name": "Montgermont Mairie",
        "code": 3503
      },
      "arrival": 32640,
      "departure": 32640
    },
    {
      "stop": {
        "id": "2_3504",
        "lat": 48.157226,
        "lon": -1.714447,
        "name": "Courtines",
        "code": 3504
      },
      "arrival": 32700,
      "departure": 32700
    },
    {
      "stop": {
        "id": "2_3505",
        "lat": 48.155304,
        "lon": -1.710895,
        "name": "Belle Epine",
        "code": 3505
      },
      "arrival": 32820,
      "departure": 32820
    },
    {
      "stop": {
        "id": "2_3162",
        "lat": 48.152582,
        "lon": -1.771502,
        "name": "Centre scolaire Pacé",
        "code": 3162
      },
      "arrival": 33600,
      "departure": 33600
    }
  ],
  "route": {
    "id": "2_0226",
    "textColor": "FFFFFF",
    "color": "4465AD",
    "description": "Complémentaire",
    "longName": "Gévezé (Cheval Blanc) \u003c\u003e Pacé (Collège Saint-Gabriel)",
    "shortName": "226",
    "type": 3,
    "agencyId": "2"
  }
}