{
  "headsign": "81 | Clayes Romillé",
  "stopTimes": [
    {
      "stop": {
        "id": "2_1497",
        "lat": 48.12102411,
        "lon": -1.70300103,
        "name": "Villejean-Université",
        "code": 1497
      },
      "arrival": 68400,
      "departure": 68400
    },
    {
      "stop": {
        "id": "2_1518",
        "lat": 48.12062672,
        "lon": -1.71046453,
        "name": "Bourbonnais",
        "code": 1518
      },
      "arrival": 68580,
      "departure": 68580
    },
    {
      "stop": {
        "id": "2_1521",
        "lat": 48.11845974,
        "lon": -1.71376004,
        "name": "Berry",
        "code": 1521
      },
      "arrival": 68700,
      "departure": 68700
    },
    {
      "stop": {
        "id": "2_4457",
        "lat": 48.17625101,
        "lon": -1.85250541,
        "name": "Clayes Centre",
        "code": 4457
      },
      "arrival": 69420,
      "departure": 69420
    },
    {
      "stop": {
        "id": "2_4459",
        "lat": 48.17812546,
        "lon": -1.85279449,
        "name": "La Cour aux Pages",
        "code": 4459
      },
      "arrival": 69480,
      "departure": 69480
    },
    {
      "stop": {
        "id": "2_4458",
        "lat": 48.18236273,
        "lon": -1.85310164,
        "name": "Croix Simon",
        "code": 4458
      },
      "arrival": 69540,
      "departure": 69540
    },
    {
      "stop": {
        "id": "2_6005",
        "lat": 48.21248705,
        "lon": -1.89091828,
        "name": "Mettrie Templiers",
        "code": 6005
      },
      "arrival": 69840,
      "departure": 69840
    },
    {
      "stop": {
        "id": "2_6003",
        "lat": 48.21491243,
        "lon": -1.89244054,
        "name": "Romillé Mairie",
        "code": 6003
      },
      "arrival": 69900,
      "departure": 69900
    },
    {
      "stop": {
        "id": "2_6001",
        "lat": 48.2169016,
        "lon": -1.89044066,
        "name": "Frères Aubert",
        "code": 6001
      },
      "arrival": 70020,
      "departure": 70020
    },
    {
      "stop": {
        "id": "2_6000",
        "lat": 48.21870667,
        "lon": -1.8933469,
        "name": "Romillé Collège",
        "code": 6000
      },
      "arrival": 70200,
      "departure": 70200
    }
  ],
  "route": {
    "id": "2_0081",
    "textColor": "FFFFFF",
    "color": "0081C6",
    "description": "Métropolitaine",
    "longName": "Rennes (Villejean-Université) \u003c\u003e Clayes / Romillé",
    "shortName": "81",
    "type": 3,
    "agencyId": "2"
  }
}