{
  "headsign": "157 | Rennes République",
  "stopTimes": [
    {
      "stop": {
        "id": "2_2361",
        "lat": 48.02442778,
        "lon": -1.7448362,
        "name": "Bruz Centre",
        "code": 2361
      },
      "arrival": 26100,
      "departure": 26100
    },
    {
      "stop": {
        "id": "2_2302",
        "lat": 48.02485673,
        "lon": -1.7507341,
        "name": "Herverie",
        "code": 2302
      },
      "arrival": 26220,
      "departure": 26220
    },
    {
      "stop": {
        "id": "2_2303",
        "lat": 48.02466598,
        "lon": -1.75723493,
        "name": "Haut Launay",
        "code": 2303
      },
      "arrival": 26340,
      "departure": 26340
    },
    {
      "stop": {
        "id": "2_2304",
        "lat": 48.02572872,
        "lon": -1.76082474,
        "name": "Rabine",
        "code": 2304
      },
      "arrival": 26400,
      "departure": 26400
    },
    {
      "stop": {
        "id": "2_2322",
        "lat": 48.02941268,
        "lon": -1.75801123,
        "name": "Vert Buisson",
        "code": 2322
      },
      "arrival": 26520,
      "departure": 26520
    },
    {
      "stop": {
        "id": "2_2307",
        "lat": 48.03128037,
        "lon": -1.75948748,
        "name": "Gavrinis",
        "code": 2307
      },
      "arrival": 26580,
      "departure": 26580
    },
    {
      "stop": {
        "id": "2_1022",
        "lat": 48.10622878,
        "lon": -1.68080951,
        "name": "Plélo Colombier",
        "code": 1022
      },
      "arrival": 27900,
      "departure": 27900
    },
    {
      "stop": {
        "id": "2_1615",
        "lat": 48.1098028,
        "lon": -1.67828335,
        "name": "République",
        "code": 1615
      },
      "arrival": 28080,
      "departure": 28080
    }
  ],
  "route": {
    "id": "2_0157",
    "textColor": "A57223",
    "color": "FCE000",
    "description": "Express métropolitaine",
    "longName": "Rennes (République) \u003c\u003e Bruz (Centre)",
    "shortName": "157",
    "type": 3,
    "agencyId": "2"
  }
}