{
  "headsign": "77 | Rennes Villejean-Université",
  "stopTimes": [
    {
      "stop": {
        "id": "2_3125",
        "lat": 48.16049,
        "lon": -1.768011,
        "name": "Pâtis Roussel",
        "code": 3125
      },
      "arrival": 67500,
      "departure": 67500
    },
    {
      "stop": {
        "id": "2_3126",
        "lat": 48.15725,
        "lon": -1.765795,
        "name": "Ouessant",
        "code": 3126
      },
      "arrival": 67560,
      "departure": 67560
    },
    {
      "stop": {
        "id": "2_3127",
        "lat": 48.155532,
        "lon": -1.764696,
        "name": "Champalaune",
        "code": 3127
      },
      "arrival": 67620,
      "departure": 67620
    },
    {
      "stop": {
        "id": "2_3128",
        "lat": 48.154019,
        "lon": -1.771157,
        "name": "Pacé Collèges",
        "code": 3128
      },
      "arrival": 67740,
      "departure": 67740
    },
    {
      "stop": {
        "id": "2_3129",
        "lat": 48.150694,
        "lon": -1.770839,
        "name": "Le Brix",
        "code": 3129
      },
      "arrival": 67800,
      "departure": 67800
    },
    {
      "stop": {
        "id": "2_3109",
        "lat": 48.148142,
        "lon": -1.769909,
        "name": "Pacé Cimetière",
        "code": 3109
      },
      "arrival": 67860,
      "departure": 67860
    },
    {
      "stop": {
        "id": "2_3110",
        "lat": 48.145758,
        "lon": -1.770753,
        "name": "Carré Dumaine",
        "code": 3110
      },
      "arrival": 67920,
      "departure": 67920
    },
    {
      "stop": {
        "id": "2_3111",
        "lat": 48.142756,
        "lon": -1.770101,
        "name": "Le Ponant",
        "code": 3111
      },
      "arrival": 67980,
      "departure": 67980
    },
    {
      "stop": {
        "id": "2_3112",
        "lat": 48.141059,
        "lon": -1.767294,
        "name": "Opéra",
        "code": 3112
      },
      "arrival": 68160,
      "departure": 68160
    },
    {
      "stop": {
        "id": "2_3139",
        "lat": 48.140153,
        "lon": -1.763318,
        "name": "Rive Ouest",
        "code": 3139
      },
      "arrival": 68160,
      "departure": 68160
    },
    {
      "stop": {
        "id": "2_3144",
        "lat": 48.141054,
        "lon": -1.766273,
        "name": "Opéra",
        "code": 3144
      },
      "arrival": 68220,
      "departure": 68220
    },
    {
      "stop": {
        "id": "2_1517",
        "lat": 48.118565,
        "lon": -1.713574,
        "name": "Berry",
        "code": 1517
      },
      "arrival": 68760,
      "departure": 68760
    },
    {
      "stop": {
        "id": "2_1520",
        "lat": 48.120473,
        "lon": -1.709574,
        "name": "Bourbonnais",
        "code": 1520
      },
      "arrival": 68820,
      "departure": 68820
    },
    {
      "stop": {
        "id": "2_1519",
        "lat": 48.121064,
        "lon": -1.702976,
        "name": "Villejean-Université",
        "code": 1519
      },
      "arrival": 69000,
      "departure": 69000
    }
  ],
  "route": {
    "id": "2_0077",
    "textColor": "1A171B",
    "color": "FCC000",
    "description": "Métropolitaine",
    "longName": "Rennes (Villejean-Université) \u003c\u003e Pacé",
    "shortName": "77",
    "type": 3,
    "agencyId": "2"
  }
}