{
  "headsign": "224 | Montgermont Chapelle Gévezé",
  "stopTimes": [
    {
      "stop": {
        "id": "2_2841",
        "lat": 48.16048,
        "lon": -1.676774,
        "name": "Jean-Paul II",
        "code": 2841
      },
      "arrival": 63300,
      "departure": 63300
    },
    {
      "stop": {
        "id": "2_3509",
        "lat": 48.153005,
        "lon": -1.708878,
        "name": "Métrie",
        "code": 3509
      },
      "arrival": 63660,
      "departure": 63660
    },
    {
      "stop": {
        "id": "2_3510",
        "lat": 48.155558,
        "lon": -1.710743,
        "name": "Belle Epine",
        "code": 3510
      },
      "arrival": 63720,
      "departure": 63720
    },
    {
      "stop": {
        "id": "2_3511",
        "lat": 48.157373,
        "lon": -1.714588,
        "name": "Courtines",
        "code": 3511
      },
      "arrival": 63780,
      "departure": 63780
    },
    {
      "stop": {
        "id": "2_3512",
        "lat": 48.155644,
        "lon": -1.716708,
        "name": "Montgermont Mairie",
        "code": 3512
      },
      "arrival": 63840,
      "departure": 63840
    },
    {
      "stop": {
        "id": "2_3513",
        "lat": 48.155723,
        "lon": -1.720748,
        "name": "Pierre Texier",
        "code": 3513
      },
      "arrival": 63900,
      "departure": 63900
    },
    {
      "stop": {
        "id": "2_3501",
        "lat": 48.157089,
        "lon": -1.723308,
        "name": "Fougerolle",
        "code": 3501
      },
      "arrival": 63960,
      "departure": 63960
    },
    {
      "stop": {
        "id": "2_3515",
        "lat": 48.162759,
        "lon": -1.730576,
        "name": "Silandière",
        "code": 3515
      },
      "arrival": 64020,
      "departure": 64020
    },
    {
      "stop": {
        "id": "2_4057",
        "lat": 48.170401,
        "lon": -1.736205,
        "name": "Sénestrais",
        "code": 4057
      },
      "arrival": 64080,
      "departure": 64080
    },
    {
      "stop": {
        "id": "2_4058",
        "lat": 48.173991,
        "lon": -1.735178,
        "name": "Viennais",
        "code": 4058
      },
      "arrival": 64200,
      "departure": 64200
    },
    {
      "stop": {
        "id": "2_4059",
        "lat": 48.17669,
        "lon": -1.732757,
        "name": "Mairie",
        "code": 4059
      },
      "arrival": 64260,
      "departure": 64260
    },
    {
      "stop": {
        "id": "2_4060",
        "lat": 48.179388,
        "lon": -1.729057,
        "name": "Métairie",
        "code": 4060
      },
      "arrival": 64380,
      "departure": 64380
    },
    {
      "stop": {
        "id": "2_4069",
        "lat": 48.183129,
        "lon": -1.726001,
        "name": "Besneraie",
        "code": 4069
      },
      "arrival": 64500,
      "departure": 64500
    },
    {
      "stop": {
        "id": "2_4503",
        "lat": 48.218704,
        "lon": -1.784055,
        "name": "Flume",
        "code": 4503
      },
      "arrival": 65040,
      "departure": 65040
    },
    {
      "stop": {
        "id": "2_4505",
        "lat": 48.221027,
        "lon": -1.7882,
        "name": "Gévezé Mairie",
        "code": 4505
      },
      "arrival": 65160,
      "departure": 65160
    },
    {
      "stop": {
        "id": "2_4511",
        "lat": 48.223978,
        "lon": -1.793771,
        "name": "Prés Verts",
        "code": 4511
      },
      "arrival": 65280,
      "departure": 65280
    },
    {
      "stop": {
        "id": "2_4509",
        "lat": 48.224645,
        "lon": -1.800449,
        "name": "Coualeuc",
        "code": 4509
      },
      "arrival": 65340,
      "departure": 65340
    },
    {
      "stop": {
        "id": "2_4507",
        "lat": 48.221783,
        "lon": -1.802327,
        "name": "Cheval Blanc",
        "code": 4507
      },
      "arrival": 65460,
      "departure": 65460
    }
  ],
  "route": {
    "id": "2_0224",
    "textColor": "FFFFFF",
    "color": "009FE3",
    "description": "Complémentaire",
    "longName": "Gévezé (Cheval Blanc) \u003c\u003e Saint-Grégoire (Lycée Jean-Paul II)",
    "shortName": "224",
    "type": 3,
    "agencyId": "2"
  }
}