{
  "headsign": "C4 | Beauregard",
  "stopTimes": [
    {
      "stop": {
        "id": "2_1630",
        "lat": 48.13266219,
        "lon": -1.63618724,
        "name": "ZA Saint-Sulpice",
        "code": 1630
      },
      "arrival": 54360,
      "departure": 54360
    },
    {
      "stop": {
        "id": "2_1617",
        "lat": 48.12914499,
        "lon": -1.63014755,
        "name": "Longs Champs Est",
        "code": 1617
      },
      "arrival": 54480,
      "departure": 54480
    },
    {
      "stop": {
        "id": "2_1536",
        "lat": 48.12680571,
        "lon": -1.6300959,
        "name": "Clos Courtel",
        "code": 1536
      },
      "arrival": 54540,
      "departure": 54540
    },
    {
      "stop": {
        "id": "2_1291",
        "lat": 48.12475494,
        "lon": -1.63388413,
        "name": "IUT",
        "code": 1291
      },
      "arrival": 54600,
      "departure": 54600
    },
    {
      "stop": {
        "id": "2_1292",
        "lat": 48.12145018,
        "lon": -1.63814809,
        "name": "Beaulieu Restau U",
        "code": 1292
      },
      "arrival": 54720,
      "departure": 54720
    },
    {
      "stop": {
        "id": "2_1176",
        "lat": 48.11901733,
        "lon": -1.63514782,
        "name": "Beaulieu INSA",
        "code": 1176
      },
      "arrival": 54780,
      "departure": 54780
    },
    {
      "stop": {
        "id": "2_1312",
        "lat": 48.1166495,
        "lon": -1.63393042,
        "name": "Beaulieu Chimie",
        "code": 1312
      },
      "arrival": 54840,
      "departure": 54840
    },
    {
      "stop": {
        "id": "2_1160",
        "lat": 48.11406413,
        "lon": -1.63761839,
        "name": "Tournebride",
        "code": 1160
      },
      "arrival": 54900,
      "departure": 54900
    },
    {
      "stop": {
        "id": "2_1603",
        "lat": 48.1132511,
        "lon": -1.64125976,
        "name": "Les Préales",
        "code": 1603
      },
      "arrival": 54960,
      "departure": 54960
    },
    {
      "stop": {
        "id": "2_1161",
        "lat": 48.11219183,
        "lon": -1.64423633,
        "name": "Plaine de Baud",
        "code": 1161
      },
      "arrival": 55020,
      "departure": 55020
    },
    {
      "stop": {
        "id": "2_1605",
        "lat": 48.11011386,
        "lon": -1.65647985,
        "name": "Pont de Strasbourg",
        "code": 1605
      },
      "arrival": 55140,
      "departure": 55140
    },
    {
      "stop": {
        "id": "2_1163",
        "lat": 48.1101066,
        "lon": -1.66054614,
        "name": "Robidou",
        "code": 1163
      },
      "arrival": 55200,
      "departure": 55200
    },
    {
      "stop": {
        "id": "2_1164",
        "lat": 48.11009515,
        "lon": -1.66397755,
        "name": "Pont de Châteaudun",
        "code": 1164
      },
      "arrival": 55260,
      "departure": 55260
    },
    {
      "stop": {
        "id": "2_1165",
        "lat": 48.11006169,
        "lon": -1.67017835,
        "name": "Paul Bert",
        "code": 1165
      },
      "arrival": 55320,
      "departure": 55320
    },
    {
      "stop": {
        "id": "2_1166",
        "lat": 48.10988328,
        "lon": -1.67512929,
        "name": "Musée Beaux Arts",
        "code": 1166
      },
      "arrival": 55380,
      "departure": 55380
    },
    {
      "stop": {
        "id": "2_1052",
        "lat": 48.10989306,
        "lon": -1.67887428,
        "name": "République",
        "code": 1052
      },
      "arrival": 55500,
      "departure": 55500
    },
    {
      "stop": {
        "id": "2_1051",
        "lat": 48.10985855,
        "lon": -1.68327915,
        "name": "Place de Bretagne",
        "code": 1051
      },
      "arrival": 55560,
      "departure": 55560
    },
    {
      "stop": {
        "id": "2_1216",
        "lat": 48.10918893,
        "lon": -1.69030518,
        "name": "Le Mail",
        "code": 1216
      },
      "arrival": 55680,
      "departure": 55680
    },
    {
      "stop": {
        "id": "2_1217",
        "lat": 48.10823293,
        "lon": -1.69450077,
        "name": "Chèques Postaux",
        "code": 1217
      },
      "arrival": 55740,
      "departure": 55740
    },
    {
      "stop": {
        "id": "2_1293",
        "lat": 48.10992139,
        "lon": -1.69863394,
        "name": "Guilloux",
        "code": 1293
      },
      "arrival": 55800,
      "departure": 55800
    },
    {
      "stop": {
        "id": "2_1310",
        "lat": 48.11122281,
        "lon": -1.70080917,
        "name": "Marbeuf",
        "code": 1310
      },
      "arrival": 55860,
      "departure": 55860
    },
    {
      "stop": {
        "id": "2_1192",
        "lat": 48.11489023,
        "lon": -1.70129713,
        "name": "La Salle",
        "code": 1192
      },
      "arrival": 55980,
      "departure": 55980
    },
    {
      "stop": {
        "id": "2_1295",
        "lat": 48.11673996,
        "lon": -1.70463882,
        "name": "Berger",
        "code": 1295
      },
      "arrival": 56040,
      "departure": 56040
    },
    {
      "stop": {
        "id": "2_1296",
        "lat": 48.11928534,
        "lon": -1.70455594,
        "name": "Université",
        "code": 1296
      },
      "arrival": 56100,
      "departure": 56100
    },
    {
      "stop": {
        "id": "2_1297",
        "lat": 48.12180414,
        "lon": -1.70378405,
        "name": "Villejean-Université",
        "code": 1297
      },
      "arrival": 56160,
      "departure": 56160
    },
    {
      "stop": {
        "id": "2_1298",
        "lat": 48.12559159,
        "lon": -1.70307124,
        "name": "Bois Labbé",
        "code": 1298
      },
      "arrival": 56220,
      "departure": 56220
    },
    {
      "stop": {
        "id": "2_1299",
        "lat": 48.12785166,
        "lon": -1.70290899,
        "name": "Olympe de Gouges",
        "code": 1299
      },
      "arrival": 56280,
      "departure": 56280
    },
    {
      "stop": {
        "id": "2_1304",
        "lat": 48.12850845,
        "lon": -1.69887415,
        "name": "Cucillé",
        "code": 1304
      },
      "arrival": 56340,
      "departure": 56340
    },
    {
      "stop": {
        "id": "2_1301",
        "lat": 48.12819455,
        "lon": -1.69396394,
        "name": "Préfecture",
        "code": 1301
      },
      "arrival": 56400,
      "departure": 56400
    },
    {
      "stop": {
        "id": "2_1302",
        "lat": 48.13149428,
        "lon": -1.69172852,
        "name": "Léonard",
        "code": 1302
      },
      "arrival": 56460,
      "departure": 56460
    },
    {
      "stop": {
        "id": "2_1586",
        "lat": 48.13154131,
        "lon": -1.69451902,
        "name": "Beauregard",
        "code": 1586
      },
      "arrival": 56520,
      "departure": 56520
    }
  ],
  "route": {
    "id": "2_0004",
    "textColor": "FFFFFF",
    "color": "6D1F80",
    "description": "Chronostar",
    "longName": "Beauregard \u003c\u003e ZA Saint-Sulpice",
    "shortName": "C4",
    "type": 3,
    "agencyId": "2"
  }
}