{
  "headsign": "31 | Villejean Churchill",
  "stopTimes": [
    {
      "stop": {
        "id": "2_2088",
        "lat": 48.124676,
        "lon": -1.590653,
        "name": "Base de Loisirs",
        "code": 2088
      },
      "arrival": 73800,
      "departure": 73800
    },
    {
      "stop": {
        "id": "2_2005",
        "lat": 48.12453,
        "lon": -1.594171,
        "name": "Grand Domaine",
        "code": 2005
      },
      "arrival": 73860,
      "departure": 73860
    },
    {
      "stop": {
        "id": "2_2006",
        "lat": 48.125255,
        "lon": -1.596592,
        "name": "Petits Champs",
        "code": 2006
      },
      "arrival": 73920,
      "departure": 73920
    },
    {
      "stop": {
        "id": "2_2007",
        "lat": 48.123121,
        "lon": -1.600517,
        "name": "Bourgchevreuil",
        "code": 2007
      },
      "arrival": 73980,
      "departure": 73980
    },
    {
      "stop": {
        "id": "2_2054",
        "lat": 48.123129,
        "lon": -1.601975,
        "name": "Métairies Chalotais",
        "code": 2054
      },
      "arrival": 74040,
      "departure": 74040
    },
    {
      "stop": {
        "id": "2_2055",
        "lat": 48.119961,
        "lon": -1.602179,
        "name": "Cesson Piscine",
        "code": 2055
      },
      "arrival": 74100,
      "departure": 74100
    },
    {
      "stop": {
        "id": "2_2056",
        "lat": 48.118557,
        "lon": -1.604529,
        "name": "Cesson Mairie",
        "code": 2056
      },
      "arrival": 74160,
      "departure": 74160
    },
    {
      "stop": {
        "id": "2_2013",
        "lat": 48.116419,
        "lon": -1.607397,
        "name": "Vilaine",
        "code": 2013
      },
      "arrival": 74220,
      "departure": 74220
    },
    {
      "stop": {
        "id": "2_2014",
        "lat": 48.114721,
        "lon": -1.609708,
        "name": "Place Sévigné",
        "code": 2014
      },
      "arrival": 74280,
      "departure": 74280
    },
    {
      "stop": {
        "id": "2_2015",
        "lat": 48.114253,
        "lon": -1.616314,
        "name": "Hublais",
        "code": 2015
      },
      "arrival": 74340,
      "departure": 74340
    },
    {
      "stop": {
        "id": "2_2016",
        "lat": 48.114224,
        "lon": -1.621951,
        "name": "Taillis",
        "code": 2016
      },
      "arrival": 74400,
      "departure": 74400
    },
    {
      "stop": {
        "id": "2_2017",
        "lat": 48.114121,
        "lon": -1.630367,
        "name": "Champs Péans",
        "code": 2017
      },
      "arrival": 74520,
      "departure": 74520
    },
    {
      "stop": {
        "id": "2_1175",
        "lat": 48.117101,
        "lon": -1.633896,
        "name": "Beaulieu Chimie",
        "code": 1175
      },
      "arrival": 74580,
      "departure": 74580
    },
    {
      "stop": {
        "id": "2_1204",
        "lat": 48.119511,
        "lon": -1.635317,
        "name": "Beaulieu INSA",
        "code": 1204
      },
      "arrival": 74640,
      "departure": 74640
    },
    {
      "stop": {
        "id": "2_1177",
        "lat": 48.12191,
        "lon": -1.640321,
        "name": "Beaulieu Restau U",
        "code": 1177
      },
      "arrival": 74700,
      "departure": 74700
    },
    {
      "stop": {
        "id": "2_1178",
        "lat": 48.120832,
        "lon": -1.643865,
        "name": "Beaulieu Cité U",
        "code": 1178
      },
      "arrival": 74760,
      "departure": 74760
    },
    {
      "stop": {
        "id": "2_1112",
        "lat": 48.11893,
        "lon": -1.651063,
        "name": "Vitré Danton",
        "code": 1112
      },
      "arrival": 74820,
      "departure": 74820
    },
    {
      "stop": {
        "id": "2_1179",
        "lat": 48.117043,
        "lon": -1.655802,
        "name": "Jeanne d\u0027Arc",
        "code": 1179
      },
      "arrival": 74940,
      "departure": 74940
    },
    {
      "stop": {
        "id": "2_1180",
        "lat": 48.116193,
        "lon": -1.659373,
        "name": "Balzac",
        "code": 1180
      },
      "arrival": 74940,
      "departure": 74940
    },
    {
      "stop": {
        "id": "2_1199",
        "lat": 48.116147,
        "lon": -1.662569,
        "name": "Musset Cité U",
        "code": 1199
      },
      "arrival": 75000,
      "departure": 75000
    },
    {
      "stop": {
        "id": "2_1182",
        "lat": 48.116298,
        "lon": -1.664773,
        "name": "George Sand",
        "code": 1182
      },
      "arrival": 75060,
      "departure": 75060
    },
    {
      "stop": {
        "id": "2_1010",
        "lat": 48.119241,
        "lon": -1.667693,
        "name": "Guéhenno",
        "code": 1010
      },
      "arrival": 75180,
      "departure": 75180
    },
    {
      "stop": {
        "id": "2_1011",
        "lat": 48.118312,
        "lon": -1.671315,
        "name": "Fac de Droit",
        "code": 1011
      },
      "arrival": 75240,
      "departure": 75240
    },
    {
      "stop": {
        "id": "2_1572",
        "lat": 48.118015,
        "lon": -1.675219,
        "name": "Vincennes",
        "code": 1572
      },
      "arrival": 75360,
      "departure": 75360
    },
    {
      "stop": {
        "id": "2_1183",
        "lat": 48.117342,
        "lon": -1.678809,
        "name": "Hôtel Dieu",
        "code": 1183
      },
      "arrival": 75420,
      "departure": 75420
    },
    {
      "stop": {
        "id": "2_1184",
        "lat": 48.117227,
        "lon": -1.681484,
        "name": "Dinan",
        "code": 1184
      },
      "arrival": 75480,
      "departure": 75480
    },
    {
      "stop": {
        "id": "2_1185",
        "lat": 48.117663,
        "lon": -1.684863,
        "name": "Legraverend",
        "code": 1185
      },
      "arrival": 75540,
      "departure": 75540
    },
    {
      "stop": {
        "id": "2_1186",
        "lat": 48.118577,
        "lon": -1.688167,
        "name": "Anatole France",
        "code": 1186
      },
      "arrival": 75600,
      "departure": 75600
    },
    {
      "stop": {
        "id": "2_1047",
        "lat": 48.11612,
        "lon": -1.691288,
        "name": "La Touche",
        "code": 1047
      },
      "arrival": 75660,
      "departure": 75660
    },
    {
      "stop": {
        "id": "2_1048",
        "lat": 48.113357,
        "lon": -1.693476,
        "name": "Brest Verdun",
        "code": 1048
      },
      "arrival": 75780,
      "departure": 75780
    },
    {
      "stop": {
        "id": "2_1187",
        "lat": 48.114035,
        "lon": -1.698235,
        "name": "Maison Diocésaine",
        "code": 1187
      },
      "arrival": 75840,
      "departure": 75840
    },
    {
      "stop": {
        "id": "2_1192",
        "lat": 48.114999,
        "lon": -1.701423,
        "name": "La Salle",
        "code": 1192
      },
      "arrival": 75900,
      "departure": 75900
    },
    {
      "stop": {
        "id": "2_1189",
        "lat": 48.116068,
        "lon": -1.705584,
        "name": "Languedoc",
        "code": 1189
      },
      "arrival": 75960,
      "departure": 75960
    },
    {
      "stop": {
        "id": "2_1190",
        "lat": 48.11739,
        "lon": -1.70835,
        "name": "Villejean-Churchill",
        "code": 1190
      },
      "arrival": 76080,
      "departure": 76080
    }
  ],
  "route": {
    "id": "2_0031",
    "textColor": "E2001A",
    "color": "FFF164",
    "description": "Inter-quartiers",
    "longName": "Villejean-Churchill \u003c\u003e Cesson-Sévigné (Base de Loisirs)",
    "shortName": "31",
    "type": 3,
    "agencyId": "2"
  }
}