{
  "headsign": "221 | Cesson-Sévigné Château de Vaux",
  "stopTimes": [
    {
      "stop": {
        "id": "2_2091",
        "lat": 48.119072,
        "lon": -1.597622,
        "name": "Lycée Sévigné",
        "code": 2091
      },
      "arrival": 61200,
      "departure": 61200
    },
    {
      "stop": {
        "id": "2_2050",
        "lat": 48.120244,
        "lon": -1.599275,
        "name": "Cesson Collège",
        "code": 2050
      },
      "arrival": 61320,
      "departure": 61320
    },
    {
      "stop": {
        "id": "2_3316",
        "lat": 48.13216,
        "lon": -1.596367,
        "name": "Saint-Etienne",
        "code": 3316
      },
      "arrival": 61500,
      "departure": 61500
    },
    {
      "stop": {
        "id": "2_3320",
        "lat": 48.141857,
        "lon": -1.577397,
        "name": "Pâtis du Moulinet",
        "code": 3320
      },
      "arrival": 61680,
      "departure": 61680
    },
    {
      "stop": {
        "id": "2_3323",
        "lat": 48.149262,
        "lon": -1.577059,
        "name": "Curien",
        "code": 3323
      },
      "arrival": 61800,
      "departure": 61800
    },
    {
      "stop": {
        "id": "2_3301",
        "lat": 48.155188,
        "lon": -1.573107,
        "name": "Landelles",
        "code": 3301
      },
      "arrival": 61920,
      "departure": 61920
    },
    {
      "stop": {
        "id": "2_3315",
        "lat": 48.153606,
        "lon": -1.579768,
        "name": "Thorigné Mairie",
        "code": 3315
      },
      "arrival": 62160,
      "departure": 62160
    },
    {
      "stop": {
        "id": "2_3314",
        "lat": 48.156034,
        "lon": -1.580608,
        "name": "Anne de Bretagne",
        "code": 3314
      },
      "arrival": 62220,
      "departure": 62220
    },
    {
      "stop": {
        "id": "2_3305",
        "lat": 48.158973,
        "lon": -1.579631,
        "name": "Bocage",
        "code": 3305
      },
      "arrival": 62280,
      "departure": 62280
    },
    {
      "stop": {
        "id": "2_3306",
        "lat": 48.164176,
        "lon": -1.579265,
        "name": "Juteauderies",
        "code": 3306
      },
      "arrival": 62400,
      "departure": 62400
    },
    {
      "stop": {
        "id": "2_3307",
        "lat": 48.160412,
        "lon": -1.586021,
        "name": "Fouillard",
        "code": 3307
      },
      "arrival": 62520,
      "departure": 62520
    },
    {
      "stop": {
        "id": "2_3309",
        "lat": 48.156271,
        "lon": -1.592376,
        "name": "Portail",
        "code": 3309
      },
      "arrival": 62640,
      "departure": 62640
    },
    {
      "stop": {
        "id": "2_2070",
        "lat": 48.145148,
        "lon": -1.608661,
        "name": "Victoire",
        "code": 2070
      },
      "arrival": 62760,
      "departure": 62760
    },
    {
      "stop": {
        "id": "2_2071",
        "lat": 48.140415,
        "lon": -1.616907,
        "name": "Calendrou",
        "code": 2071
      },
      "arrival": 62880,
      "departure": 62880
    },
    {
      "stop": {
        "id": "2_2114",
        "lat": 48.137351,
        "lon": -1.62275,
        "name": "Château de Vaux",
        "code": 2114
      },
      "arrival": 62940,
      "departure": 62940
    }
  ],
  "route": {
    "id": "2_0221",
    "textColor": "FFFFFF",
    "color": "F39200",
    "description": "Complémentaire",
    "longName": "Cesson-Sévigné (Château de Vaux) \u003c\u003e Cesson-Sévigné (Lycée Saint-Etienne)",
    "shortName": "221",
    "type": 3,
    "agencyId": "2"
  }
}