{
  "headsign": "94 | Saint-Sulpice-la-Forêt",
  "stopTimes": [
    {
      "stop": {
        "id": "2_2417",
        "lat": 48.18170386,
        "lon": -1.63855109,
        "name": "Betton Centre",
        "code": 2417
      },
      "arrival": 73080,
      "departure": 73080
    },
    {
      "stop": {
        "id": "2_2435",
        "lat": 48.18305974,
        "lon": -1.63721735,
        "name": "Mozart",
        "code": 2435
      },
      "arrival": 73080,
      "departure": 73080
    },
    {
      "stop": {
        "id": "2_2434",
        "lat": 48.18635458,
        "lon": -1.63319375,
        "name": "J.-Sébastien Bach",
        "code": 2434
      },
      "arrival": 73200,
      "departure": 73200
    },
    {
      "stop": {
        "id": "2_2450",
        "lat": 48.18980379,
        "lon": -1.62615025,
        "name": "Gentilhommière",
        "code": 2450
      },
      "arrival": 73260,
      "departure": 73260
    },
    {
      "stop": {
        "id": "2_4610",
        "lat": 48.19918212,
        "lon": -1.62764716,
        "name": "Chopinais",
        "code": 4610
      },
      "arrival": 73380,
      "departure": 73380
    },
    {
      "stop": {
        "id": "2_4608",
        "lat": 48.20787045,
        "lon": -1.63064822,
        "name": "Chevaigné Gare",
        "code": 4608
      },
      "arrival": 73500,
      "departure": 73500
    },
    {
      "stop": {
        "id": "2_4601",
        "lat": 48.21171751,
        "lon": -1.63046022,
        "name": "Chevaigné Mairie",
        "code": 4601
      },
      "arrival": 73560,
      "departure": 73560
    },
    {
      "stop": {
        "id": "2_4602",
        "lat": 48.21431434,
        "lon": -1.62905651,
        "name": "Fonderies",
        "code": 4602
      },
      "arrival": 73620,
      "departure": 73620
    },
    {
      "stop": {
        "id": "2_4603",
        "lat": 48.21095412,
        "lon": -1.62602395,
        "name": "Pommiers",
        "code": 4603
      },
      "arrival": 73680,
      "departure": 73680
    },
    {
      "stop": {
        "id": "2_3959",
        "lat": 48.21179703,
        "lon": -1.59059123,
        "name": "Tronchay",
        "code": 3959
      },
      "arrival": 73980,
      "departure": 73980
    },
    {
      "stop": {
        "id": "2_3954",
        "lat": 48.21479222,
        "lon": -1.58657706,
        "name": "Terrain des Sports",
        "code": 3954
      },
      "arrival": 74040,
      "departure": 74040
    },
    {
      "stop": {
        "id": "2_3961",
        "lat": 48.21773209,
        "lon": -1.58139746,
        "name": "Bourg",
        "code": 3961
      },
      "arrival": 74100,
      "departure": 74100
    },
    {
      "stop": {
        "id": "2_3962",
        "lat": 48.22315211,
        "lon": -1.57693236,
        "name": "Chesnais",
        "code": 3962
      },
      "arrival": 74160,
      "departure": 74160
    },
    {
      "stop": {
        "id": "2_3951",
        "lat": 48.22528095,
        "lon": -1.57037306,
        "name": "Cropy",
        "code": 3951
      },
      "arrival": 74220,
      "departure": 74220
    }
  ],
  "route": {
    "id": "2_0094",
    "textColor": "DF171C",
    "color": "8FC255",
    "description": "Intercommunale",
    "longName": "Saint-Sulpice-la-Forêt / Chevaigné \u003c\u003e Betton (Centre)",
    "shortName": "94",
    "type": 3,
    "agencyId": "2"
  }
}