{
  "headsign": "73 | Saint-Armel Corps-Nuds",
  "stopTimes": [
    {
      "stop": {
        "id": "2_1511",
        "lat": 48.087572,
        "lon": -1.643466,
        "name": "La Poterie",
        "code": 1511
      },
      "arrival": 62700,
      "departure": 62700
    },
    {
      "stop": {
        "id": "2_2619",
        "lat": 48.044566,
        "lon": -1.603907,
        "name": "La Poste",
        "code": 2619
      },
      "arrival": 63120,
      "departure": 63120
    },
    {
      "stop": {
        "id": "2_2620",
        "lat": 48.043558,
        "lon": -1.601784,
        "name": "Bel Air",
        "code": 2620
      },
      "arrival": 63180,
      "departure": 63180
    },
    {
      "stop": {
        "id": "2_2621",
        "lat": 48.040905,
        "lon": -1.602366,
        "name": "Vern La Touche",
        "code": 2621
      },
      "arrival": 63180,
      "departure": 63180
    },
    {
      "stop": {
        "id": "2_2640",
        "lat": 48.038405,
        "lon": -1.60232,
        "name": "Croix Malinge",
        "code": 2640
      },
      "arrival": 63240,
      "departure": 63240
    },
    {
      "stop": {
        "id": "2_2628",
        "lat": 48.031253,
        "lon": -1.599505,
        "name": "Vaugon",
        "code": 2628
      },
      "arrival": 63300,
      "departure": 63300
    },
    {
      "stop": {
        "id": "2_4553",
        "lat": 48.01463,
        "lon": -1.598304,
        "name": "Lande du Jardin",
        "code": 4553
      },
      "arrival": 63480,
      "departure": 63480
    },
    {
      "stop": {
        "id": "2_4552",
        "lat": 48.013906,
        "lon": -1.594286,
        "name": "Saint-Armel Gare",
        "code": 4552
      },
      "arrival": 63540,
      "departure": 63540
    },
    {
      "stop": {
        "id": "2_4551",
        "lat": 48.013468,
        "lon": -1.590988,
        "name": "Saint-Armel Eglise",
        "code": 4551
      },
      "arrival": 63660,
      "departure": 63660
    },
    {
      "stop": {
        "id": "2_3817",
        "lat": 48.000912,
        "lon": -1.594744,
        "name": "Launay Garnier",
        "code": 3817
      },
      "arrival": 63900,
      "departure": 63900
    },
    {
      "stop": {
        "id": "2_4108",
        "lat": 47.981897,
        "lon": -1.588461,
        "name": "Chêne Hervé",
        "code": 4108
      },
      "arrival": 64140,
      "departure": 64140
    },
    {
      "stop": {
        "id": "2_4109",
        "lat": 47.97901,
        "lon": -1.587893,
        "name": "Corps-Nuds Mairie",
        "code": 4109
      },
      "arrival": 64140,
      "departure": 64140
    },
    {
      "stop": {
        "id": "2_4110",
        "lat": 47.977719,
        "lon": -1.585507,
        "name": "Place de Kildare",
        "code": 4110
      },
      "arrival": 64200,
      "departure": 64200
    },
    {
      "stop": {
        "id": "2_4111",
        "lat": 47.982567,
        "lon": -1.580278,
        "name": "Huberdières",
        "code": 4111
      },
      "arrival": 64320,
      "departure": 64320
    },
    {
      "stop": {
        "id": "2_4112",
        "lat": 47.985302,
        "lon": -1.576027,
        "name": "Corps-Nuds Gare",
        "code": 4112
      },
      "arrival": 64380,
      "departure": 64380
    }
  ],
  "route": {
    "id": "2_0073",
    "textColor": "FFFFFF",
    "color": "008436",
    "description": "Métropolitaine",
    "longName": "Rennes (La Poterie) \u003c\u003e Vern-sur-Seiche / Saint-Armel / Corps-Nuds",
    "shortName": "73",
    "type": 3,
    "agencyId": "2"
  }
}