{
  "headsign": "STN | République",
  "stopTimes": [
    {
      "stop": {
        "id": "2_1568",
        "lat": 48.1210724,
        "lon": -1.71352003,
        "name": "Kennedy Guyenne",
        "code": 1568
      },
      "arrival": 7800,
      "departure": 7800
    },
    {
      "stop": {
        "id": "2_1520",
        "lat": 48.12050245,
        "lon": -1.70973991,
        "name": "Bourbonnais",
        "code": 1520
      },
      "arrival": 7860,
      "departure": 7860
    },
    {
      "stop": {
        "id": "2_1305",
        "lat": 48.12765808,
        "lon": -1.70324184,
        "name": "Olympe de Gouges",
        "code": 1305
      },
      "arrival": 8160,
      "departure": 8160
    },
    {
      "stop": {
        "id": "2_1306",
        "lat": 48.12533687,
        "lon": -1.70312933,
        "name": "IRTS",
        "code": 1306
      },
      "arrival": 8220,
      "departure": 8220
    },
    {
      "stop": {
        "id": "2_1307",
        "lat": 48.12192614,
        "lon": -1.70388916,
        "name": "Villejean-Université",
        "code": 1307
      },
      "arrival": 8280,
      "departure": 8280
    },
    {
      "stop": {
        "id": "2_1308",
        "lat": 48.11892068,
        "lon": -1.70465808,
        "name": "Université",
        "code": 1308
      },
      "arrival": 8340,
      "departure": 8340
    },
    {
      "stop": {
        "id": "2_1309",
        "lat": 48.1167346,
        "lon": -1.70477296,
        "name": "Berger",
        "code": 1309
      },
      "arrival": 8400,
      "departure": 8400
    },
    {
      "stop": {
        "id": "2_1188",
        "lat": 48.11498492,
        "lon": -1.70208633,
        "name": "La Salle",
        "code": 1188
      },
      "arrival": 8460,
      "departure": 8460
    },
    {
      "stop": {
        "id": "2_1294",
        "lat": 48.11140799,
        "lon": -1.70136408,
        "name": "Marbeuf",
        "code": 1294
      },
      "arrival": 8580,
      "departure": 8580
    },
    {
      "stop": {
        "id": "2_1311",
        "lat": 48.10966101,
        "lon": -1.69838195,
        "name": "Guilloux",
        "code": 1311
      },
      "arrival": 8640,
      "departure": 8640
    },
    {
      "stop": {
        "id": "2_1239",
        "lat": 48.10814248,
        "lon": -1.6948685,
        "name": "Chèques Postaux",
        "code": 1239
      },
      "arrival": 8700,
      "departure": 8700
    },
    {
      "stop": {
        "id": "2_1240",
        "lat": 48.10927186,
        "lon": -1.68970708,
        "name": "Le Mail",
        "code": 1240
      },
      "arrival": 8760,
      "departure": 8760
    },
    {
      "stop": {
        "id": "2_1091",
        "lat": 48.10977885,
        "lon": -1.68388248,
        "name": "Place de Bretagne",
        "code": 1091
      },
      "arrival": 8880,
      "departure": 8880
    },
    {
      "stop": {
        "id": "2_1168",
        "lat": 48.10980866,
        "lon": -1.67882417,
        "name": "République",
        "code": 1168
      },
      "arrival": 8940,
      "departure": 8940
    }
  ],
  "route": {
    "id": "2_0805",
    "textColor": "FFFFFF",
    "color": "004B96",
    "description": "Spéciale",
    "longName": "STAR de Nuit - Beaulieu Atalante \u003c\u003e J.F. Kennedy",
    "shortName": "STN",
    "type": 3,
    "agencyId": "2"
  }
}