{
  "headsign": "77 | Rennes Villejean-Université",
  "stopTimes": [
    {
      "stop": {
        "id": "2_3125",
        "lat": 48.16046527,
        "lon": -1.7679822,
        "name": "Pâtis Roussel",
        "code": 3125
      },
      "arrival": 27600,
      "departure": 27600
    },
    {
      "stop": {
        "id": "2_3126",
        "lat": 48.15732007,
        "lon": -1.76573096,
        "name": "Ouessant",
        "code": 3126
      },
      "arrival": 27720,
      "departure": 27720
    },
    {
      "stop": {
        "id": "2_3127",
        "lat": 48.1554893,
        "lon": -1.76463602,
        "name": "Champalaune",
        "code": 3127
      },
      "arrival": 27780,
      "departure": 27780
    },
    {
      "stop": {
        "id": "2_3128",
        "lat": 48.15407302,
        "lon": -1.77112297,
        "name": "Pacé Collèges",
        "code": 3128
      },
      "arrival": 27900,
      "departure": 27900
    },
    {
      "stop": {
        "id": "2_3129",
        "lat": 48.15071817,
        "lon": -1.77071191,
        "name": "Le Brix",
        "code": 3129
      },
      "arrival": 28020,
      "departure": 28020
    },
    {
      "stop": {
        "id": "2_3109",
        "lat": 48.14815857,
        "lon": -1.76980701,
        "name": "Pacé Cimetière",
        "code": 3109
      },
      "arrival": 28080,
      "departure": 28080
    },
    {
      "stop": {
        "id": "2_3110",
        "lat": 48.1457978,
        "lon": -1.77067127,
        "name": "Carré Dumaine",
        "code": 3110
      },
      "arrival": 28140,
      "departure": 28140
    },
    {
      "stop": {
        "id": "2_3111",
        "lat": 48.14284412,
        "lon": -1.77014839,
        "name": "Le Ponant",
        "code": 3111
      },
      "arrival": 28200,
      "departure": 28200
    },
    {
      "stop": {
        "id": "2_1517",
        "lat": 48.11854026,
        "lon": -1.71363649,
        "name": "Berry",
        "code": 1517
      },
      "arrival": 28680,
      "departure": 28680
    },
    {
      "stop": {
        "id": "2_1520",
        "lat": 48.12050245,
        "lon": -1.70973991,
        "name": "Bourbonnais",
        "code": 1520
      },
      "arrival": 28740,
      "departure": 28740
    },
    {
      "stop": {
        "id": "2_1519",
        "lat": 48.12110069,
        "lon": -1.70297631,
        "name": "Villejean-Université",
        "code": 1519
      },
      "arrival": 28920,
      "departure": 28920
    }
  ],
  "route": {
    "id": "2_0077",
    "textColor": "1A171B",
    "color": "FCC000",
    "description": "Métropolitaine",
    "longName": "Rennes (Villejean-Université) \u003c\u003e Pacé",
    "shortName": "77",
    "type": 3,
    "agencyId": "2"
  }
}