{
  "headsign": "226 | Montgermont Chapelle Gévezé",
  "stopTimes": [
    {
      "stop": {
        "id": "2_3162",
        "lat": 48.152582,
        "lon": -1.771502,
        "name": "Centre scolaire Pacé",
        "code": 3162
      },
      "arrival": 57900,
      "departure": 57900
    },
    {
      "stop": {
        "id": "2_3509",
        "lat": 48.153005,
        "lon": -1.708878,
        "name": "Métrie",
        "code": 3509
      },
      "arrival": 58440,
      "departure": 58440
    },
    {
      "stop": {
        "id": "2_3510",
        "lat": 48.155558,
        "lon": -1.710743,
        "name": "Belle Epine",
        "code": 3510
      },
      "arrival": 58500,
      "departure": 58500
    },
    {
      "stop": {
        "id": "2_3511",
        "lat": 48.157373,
        "lon": -1.714588,
        "name": "Courtines",
        "code": 3511
      },
      "arrival": 58560,
      "departure": 58560
    },
    {
      "stop": {
        "id": "2_3512",
        "lat": 48.155644,
        "lon": -1.716708,
        "name": "Montgermont Mairie",
        "code": 3512
      },
      "arrival": 58620,
      "departure": 58620
    },
    {
      "stop": {
        "id": "2_3513",
        "lat": 48.155723,
        "lon": -1.720748,
        "name": "Pierre Texier",
        "code": 3513
      },
      "arrival": 58680,
      "departure": 58680
    },
    {
      "stop": {
        "id": "2_3501",
        "lat": 48.157089,
        "lon": -1.723308,
        "name": "Fougerolle",
        "code": 3501
      },
      "arrival": 58740,
      "departure": 58740
    },
    {
      "stop": {
        "id": "2_3515",
        "lat": 48.162759,
        "lon": -1.730576,
        "name": "Silandière",
        "code": 3515
      },
      "arrival": 58800,
      "departure": 58800
    },
    {
      "stop": {
        "id": "2_4057",
        "lat": 48.170401,
        "lon": -1.736205,
        "name": "Sénestrais",
        "code": 4057
      },
      "arrival": 58860,
      "departure": 58860
    },
    {
      "stop": {
        "id": "2_4058",
        "lat": 48.173991,
        "lon": -1.735178,
        "name": "Viennais",
        "code": 4058
      },
      "arrival": 58920,
      "departure": 58920
    },
    {
      "stop": {
        "id": "2_4059",
        "lat": 48.17669,
        "lon": -1.732757,
        "name": "Mairie",
        "code": 4059
      },
      "arrival": 58980,
      "departure": 58980
    },
    {
      "stop": {
        "id": "2_4060",
        "lat": 48.179388,
        "lon": -1.729057,
        "name": "Métairie",
        "code": 4060
      },
      "arrival": 59040,
      "departure": 59040
    },
    {
      "stop": {
        "id": "2_4069",
        "lat": 48.183129,
        "lon": -1.726001,
        "name": "Besneraie",
        "code": 4069
      },
      "arrival": 59160,
      "departure": 59160
    },
    {
      "stop": {
        "id": "2_4503",
        "lat": 48.218704,
        "lon": -1.784055,
        "name": "Flume",
        "code": 4503
      },
      "arrival": 59640,
      "departure": 59640
    },
    {
      "stop": {
        "id": "2_4505",
        "lat": 48.221027,
        "lon": -1.7882,
        "name": "Gévezé Mairie",
        "code": 4505
      },
      "arrival": 59700,
      "departure": 59700
    },
    {
      "stop": {
        "id": "2_4511",
        "lat": 48.223978,
        "lon": -1.793771,
        "name": "Prés Verts",
        "code": 4511
      },
      "arrival": 59760,
      "departure": 59760
    },
    {
      "stop": {
        "id": "2_4509",
        "lat": 48.224645,
        "lon": -1.800449,
        "name": "Coualeuc",
        "code": 4509
      },
      "arrival": 59820,
      "departure": 59820
    },
    {
      "stop": {
        "id": "2_4507",
        "lat": 48.221783,
        "lon": -1.802327,
        "name": "Cheval Blanc",
        "code": 4507
      },
      "arrival": 59880,
      "departure": 59880
    }
  ],
  "route": {
    "id": "2_0226",
    "textColor": "FFFFFF",
    "color": "4465AD",
    "description": "Complémentaire",
    "longName": "Gévezé (Cheval Blanc) \u003c\u003e Pacé (Collège Saint-Gabriel)",
    "shortName": "226",
    "type": 3,
    "agencyId": "2"
  }
}