{
  "headsign": "44 | République",
  "stopTimes": [
    {
      "stop": {
        "id": "2_1618",
        "lat": 48.125139,
        "lon": -1.65309,
        "name": "Joliot-Curie",
        "code": 1618
      },
      "arrival": 43920,
      "departure": 43920
    },
    {
      "stop": {
        "id": "2_1637",
        "lat": 48.123062,
        "lon": -1.651491,
        "name": "Lycée Chateaubriand",
        "code": 1637
      },
      "arrival": 44040,
      "departure": 44040
    },
    {
      "stop": {
        "id": "2_1111",
        "lat": 48.120189,
        "lon": -1.65077,
        "name": "Docteur Quentin",
        "code": 1111
      },
      "arrival": 44100,
      "departure": 44100
    },
    {
      "stop": {
        "id": "2_1112",
        "lat": 48.11893,
        "lon": -1.651063,
        "name": "Vitré Danton",
        "code": 1112
      },
      "arrival": 44160,
      "departure": 44160
    },
    {
      "stop": {
        "id": "2_1113",
        "lat": 48.116369,
        "lon": -1.655681,
        "name": "Jeanne d\u0027Arc",
        "code": 1113
      },
      "arrival": 44280,
      "departure": 44280
    },
    {
      "stop": {
        "id": "2_1114",
        "lat": 48.114521,
        "lon": -1.658017,
        "name": "Durafour",
        "code": 1114
      },
      "arrival": 44400,
      "departure": 44400
    },
    {
      "stop": {
        "id": "2_1115",
        "lat": 48.113459,
        "lon": -1.661409,
        "name": "Oberthur",
        "code": 1115
      },
      "arrival": 44460,
      "departure": 44460
    },
    {
      "stop": {
        "id": "2_1116",
        "lat": 48.112746,
        "lon": -1.664452,
        "name": "Saint-Vincent",
        "code": 1116
      },
      "arrival": 44520,
      "departure": 44520
    },
    {
      "stop": {
        "id": "2_1118",
        "lat": 48.111816,
        "lon": -1.671244,
        "name": "Thabor",
        "code": 1118
      },
      "arrival": 44700,
      "departure": 44700
    },
    {
      "stop": {
        "id": "2_1644",
        "lat": 48.110714,
        "lon": -1.673658,
        "name": "Place Pasteur",
        "code": 1644
      },
      "arrival": 44760,
      "departure": 44760
    },
    {
      "stop": {
        "id": "2_1550",
        "lat": 48.109699,
        "lon": -1.677942,
        "name": "République",
        "code": 1550
      },
      "arrival": 45000,
      "departure": 45000
    }
  ],
  "route": {
    "id": "2_0044",
    "textColor": "3D3C3F",
    "color": "FFDD00",
    "description": "Express urbaine",
    "longName": "République \u003c\u003e Joliot-Curie",
    "shortName": "44",
    "type": 3,
    "agencyId": "2"
  }
}