{
  "headsign": "152 | Saint-Gilles",
  "stopTimes": [
    {
      "stop": {
        "id": "2_1566",
        "lat": 48.1253701,
        "lon": -1.69257643,
        "name": "Lycée Basch",
        "code": 1566
      },
      "arrival": 61800,
      "departure": 61800
    },
    {
      "stop": {
        "id": "2_1497",
        "lat": 48.12102411,
        "lon": -1.70300103,
        "name": "Villejean-Université",
        "code": 1497
      },
      "arrival": 62100,
      "departure": 62100
    },
    {
      "stop": {
        "id": "2_3711",
        "lat": 48.15413317,
        "lon": -1.81993908,
        "name": "Vigne",
        "code": 3711
      },
      "arrival": 63120,
      "departure": 63120
    },
    {
      "stop": {
        "id": "2_3712",
        "lat": 48.15067999,
        "lon": -1.82479689,
        "name": "Pont aux Moines",
        "code": 3712
      },
      "arrival": 63240,
      "departure": 63240
    },
    {
      "stop": {
        "id": "2_3714",
        "lat": 48.15249376,
        "lon": -1.82982513,
        "name": "Saint-Gilles Centre",
        "code": 3714
      },
      "arrival": 63300,
      "departure": 63300
    },
    {
      "stop": {
        "id": "2_3724",
        "lat": 48.15381862,
        "lon": -1.8340467,
        "name": "Clos des Cerisiers",
        "code": 3724
      },
      "arrival": 63360,
      "departure": 63360
    },
    {
      "stop": {
        "id": "2_3723",
        "lat": 48.15403633,
        "lon": -1.83780571,
        "name": "Maison Neuve",
        "code": 3723
      },
      "arrival": 63420,
      "departure": 63420
    },
    {
      "stop": {
        "id": "2_3732",
        "lat": 48.14932288,
        "lon": -1.83903709,
        "name": "Ile des Bois",
        "code": 3732
      },
      "arrival": 63540,
      "departure": 63540
    }
  ],
  "route": {
    "id": "2_0152",
    "textColor": "3D3C3F",
    "color": "FFDD00",
    "description": "Express métropolitaine",
    "longName": "Rennes (Lycée V. H. Basch) \u003c\u003e Saint-Gilles",
    "shortName": "152",
    "type": 3,
    "agencyId": "2"
  }
}