{
  "headsign": "65 | Pacé Cimetière",
  "stopTimes": [
    {
      "stop": {
        "id": "2_3617",
        "lat": 48.193762,
        "lon": -1.832214,
        "name": "Parthenay Fontaine",
        "code": 3617
      },
      "arrival": 57000,
      "departure": 57000
    },
    {
      "stop": {
        "id": "2_3602",
        "lat": 48.192003,
        "lon": -1.831209,
        "name": "Parthenay Mairie",
        "code": 3602
      },
      "arrival": 57060,
      "departure": 57060
    },
    {
      "stop": {
        "id": "2_3603",
        "lat": 48.191638,
        "lon": -1.827121,
        "name": "Clos des Tilleuls",
        "code": 3603
      },
      "arrival": 57060,
      "departure": 57060
    },
    {
      "stop": {
        "id": "2_3604",
        "lat": 48.191281,
        "lon": -1.824629,
        "name": "La Noë",
        "code": 3604
      },
      "arrival": 57120,
      "departure": 57120
    },
    {
      "stop": {
        "id": "2_3605",
        "lat": 48.189982,
        "lon": -1.820845,
        "name": "Placis de la Touche",
        "code": 3605
      },
      "arrival": 57120,
      "departure": 57120
    },
    {
      "stop": {
        "id": "2_3606",
        "lat": 48.186405,
        "lon": -1.816641,
        "name": "Le Reuvre",
        "code": 3606
      },
      "arrival": 57180,
      "departure": 57180
    },
    {
      "stop": {
        "id": "2_3145",
        "lat": 48.179959,
        "lon": -1.801675,
        "name": "Touche Champagne",
        "code": 3145
      },
      "arrival": 57300,
      "departure": 57300
    },
    {
      "stop": {
        "id": "2_3123",
        "lat": 48.174088,
        "lon": -1.789401,
        "name": "Chapitre",
        "code": 3123
      },
      "arrival": 57360,
      "departure": 57360
    },
    {
      "stop": {
        "id": "2_3142",
        "lat": 48.167342,
        "lon": -1.787109,
        "name": "Haute Rabine",
        "code": 3142
      },
      "arrival": 57420,
      "departure": 57420
    },
    {
      "stop": {
        "id": "2_3136",
        "lat": 48.15469,
        "lon": -1.784414,
        "name": "Pont Amelin",
        "code": 3136
      },
      "arrival": 57540,
      "departure": 57540
    },
    {
      "stop": {
        "id": "2_3107",
        "lat": 48.151185,
        "lon": -1.77754,
        "name": "Renan",
        "code": 3107
      },
      "arrival": 57600,
      "departure": 57600
    },
    {
      "stop": {
        "id": "2_3108",
        "lat": 48.151022,
        "lon": -1.772024,
        "name": "Duchesse Anne",
        "code": 3108
      },
      "arrival": 57660,
      "departure": 57660
    },
    {
      "stop": {
        "id": "2_3109",
        "lat": 48.148142,
        "lon": -1.769909,
        "name": "Pacé Cimetière",
        "code": 3109
      },
      "arrival": 57720,
      "departure": 57720
    }
  ],
  "route": {
    "id": "2_0065",
    "textColor": "FFFFFF",
    "color": "E36DA3",
    "description": "Métropolitaine",
    "longName": "Rennes (Villejean-Université) \u003c\u003e Pacé / Parthenay-de-Bretagne",
    "shortName": "65",
    "type": 3,
    "agencyId": "2"
  }
}