{
  "headsign": "65 | Pacé Parthenay-de-B.",
  "stopTimes": [
    {
      "stop": {
        "id": "2_1519",
        "lat": 48.121064,
        "lon": -1.702976,
        "name": "Villejean-Université",
        "code": 1519
      },
      "arrival": 60600,
      "departure": 60600
    },
    {
      "stop": {
        "id": "2_1518",
        "lat": 48.120593,
        "lon": -1.710572,
        "name": "Bourbonnais",
        "code": 1518
      },
      "arrival": 60780,
      "departure": 60780
    },
    {
      "stop": {
        "id": "2_1521",
        "lat": 48.118462,
        "lon": -1.713825,
        "name": "Berry",
        "code": 1521
      },
      "arrival": 60840,
      "departure": 60840
    },
    {
      "stop": {
        "id": "2_3113",
        "lat": 48.143401,
        "lon": -1.770386,
        "name": "Le Ponant",
        "code": 3113
      },
      "arrival": 61200,
      "departure": 61200
    },
    {
      "stop": {
        "id": "2_3114",
        "lat": 48.146022,
        "lon": -1.770492,
        "name": "Carré Dumaine",
        "code": 3114
      },
      "arrival": 61260,
      "departure": 61260
    },
    {
      "stop": {
        "id": "2_3115",
        "lat": 48.148099,
        "lon": -1.769731,
        "name": "Pacé Cimetière",
        "code": 3115
      },
      "arrival": 61320,
      "departure": 61320
    },
    {
      "stop": {
        "id": "2_3116",
        "lat": 48.150865,
        "lon": -1.772035,
        "name": "Duchesse Anne",
        "code": 3116
      },
      "arrival": 61380,
      "departure": 61380
    },
    {
      "stop": {
        "id": "2_3117",
        "lat": 48.151275,
        "lon": -1.777656,
        "name": "Renan",
        "code": 3117
      },
      "arrival": 61440,
      "departure": 61440
    },
    {
      "stop": {
        "id": "2_3141",
        "lat": 48.154821,
        "lon": -1.784386,
        "name": "Pont Amelin",
        "code": 3141
      },
      "arrival": 61500,
      "departure": 61500
    },
    {
      "stop": {
        "id": "2_3143",
        "lat": 48.169948,
        "lon": -1.787892,
        "name": "Haute Rabine",
        "code": 3143
      },
      "arrival": 61680,
      "departure": 61680
    },
    {
      "stop": {
        "id": "2_3124",
        "lat": 48.175366,
        "lon": -1.789981,
        "name": "Chapitre",
        "code": 3124
      },
      "arrival": 61740,
      "departure": 61740
    },
    {
      "stop": {
        "id": "2_3146",
        "lat": 48.18012,
        "lon": -1.801817,
        "name": "Touche Champagne",
        "code": 3146
      },
      "arrival": 61860,
      "departure": 61860
    },
    {
      "stop": {
        "id": "2_3611",
        "lat": 48.186413,
        "lon": -1.816451,
        "name": "Le Reuvre",
        "code": 3611
      },
      "arrival": 61980,
      "departure": 61980
    },
    {
      "stop": {
        "id": "2_3612",
        "lat": 48.189949,
        "lon": -1.820176,
        "name": "Placis de la Touche",
        "code": 3612
      },
      "arrival": 62040,
      "departure": 62040
    },
    {
      "stop": {
        "id": "2_3613",
        "lat": 48.191297,
        "lon": -1.8243,
        "name": "La Noë",
        "code": 3613
      },
      "arrival": 62040,
      "departure": 62040
    },
    {
      "stop": {
        "id": "2_3614",
        "lat": 48.191822,
        "lon": -1.82784,
        "name": "Clos des Tilleuls",
        "code": 3614
      },
      "arrival": 62100,
      "departure": 62100
    },
    {
      "stop": {
        "id": "2_3615",
        "lat": 48.192104,
        "lon": -1.831432,
        "name": "Parthenay Mairie",
        "code": 3615
      },
      "arrival": 62100,
      "departure": 62100
    },
    {
      "stop": {
        "id": "2_3617",
        "lat": 48.193762,
        "lon": -1.832214,
        "name": "Parthenay Fontaine",
        "code": 3617
      },
      "arrival": 62160,
      "departure": 62160
    }
  ],
  "route": {
    "id": "2_0065",
    "textColor": "FFFFFF",
    "color": "E36DA3",
    "description": "Métropolitaine",
    "longName": "Rennes (Villejean-Université) \u003c\u003e Pacé / Parthenay-de-Bretagne",
    "shortName": "65",
    "type": 3,
    "agencyId": "2"
  }
}