{
  "headsign": "65 | Pacé Cimetière",
  "stopTimes": [
    {
      "stop": {
        "id": "2_3617",
        "lat": 48.193762,
        "lon": -1.832214,
        "name": "Parthenay Fontaine",
        "code": 3617
      },
      "arrival": 49800,
      "departure": 49800
    },
    {
      "stop": {
        "id": "2_3602",
        "lat": 48.192003,
        "lon": -1.831209,
        "name": "Parthenay Mairie",
        "code": 3602
      },
      "arrival": 49860,
      "departure": 49860
    },
    {
      "stop": {
        "id": "2_3603",
        "lat": 48.191638,
        "lon": -1.827121,
        "name": "Clos des Tilleuls",
        "code": 3603
      },
      "arrival": 49860,
      "departure": 49860
    },
    {
      "stop": {
        "id": "2_3604",
        "lat": 48.191281,
        "lon": -1.824629,
        "name": "La Noë",
        "code": 3604
      },
      "arrival": 49920,
      "departure": 49920
    },
    {
      "stop": {
        "id": "2_3605",
        "lat": 48.189982,
        "lon": -1.820845,
        "name": "Placis de la Touche",
        "code": 3605
      },
      "arrival": 49920,
      "departure": 49920
    },
    {
      "stop": {
        "id": "2_3606",
        "lat": 48.186405,
        "lon": -1.816641,
        "name": "Le Reuvre",
        "code": 3606
      },
      "arrival": 49980,
      "departure": 49980
    },
    {
      "stop": {
        "id": "2_3145",
        "lat": 48.179959,
        "lon": -1.801675,
        "name": "Touche Champagne",
        "code": 3145
      },
      "arrival": 50100,
      "departure": 50100
    },
    {
      "stop": {
        "id": "2_3123",
        "lat": 48.174088,
        "lon": -1.789401,
        "name": "Chapitre",
        "code": 3123
      },
      "arrival": 50160,
      "departure": 50160
    },
    {
      "stop": {
        "id": "2_3142",
        "lat": 48.167342,
        "lon": -1.787109,
        "name": "Haute Rabine",
        "code": 3142
      },
      "arrival": 50220,
      "departure": 50220
    },
    {
      "stop": {
        "id": "2_3136",
        "lat": 48.15469,
        "lon": -1.784414,
        "name": "Pont Amelin",
        "code": 3136
      },
      "arrival": 50340,
      "departure": 50340
    },
    {
      "stop": {
        "id": "2_3107",
        "lat": 48.151185,
        "lon": -1.77754,
        "name": "Renan",
        "code": 3107
      },
      "arrival": 50400,
      "departure": 50400
    },
    {
      "stop": {
        "id": "2_3108",
        "lat": 48.151022,
        "lon": -1.772024,
        "name": "Duchesse Anne",
        "code": 3108
      },
      "arrival": 50460,
      "departure": 50460
    },
    {
      "stop": {
        "id": "2_3109",
        "lat": 48.148142,
        "lon": -1.769909,
        "name": "Pacé Cimetière",
        "code": 3109
      },
      "arrival": 50520,
      "departure": 50520
    }
  ],
  "route": {
    "id": "2_0065",
    "textColor": "FFFFFF",
    "color": "E36DA3",
    "description": "Métropolitaine",
    "longName": "Rennes (Villejean-Université) \u003c\u003e Pacé / Parthenay-de-Bretagne",
    "shortName": "65",
    "type": 3,
    "agencyId": "2"
  }
}