{
  "headsign": "96 | Romillé Chapelle-Ch.",
  "stopTimes": [
    {
      "stop": {
        "id": "2_4950",
        "lat": 48.28466552,
        "lon": -1.93073938,
        "name": "Miniac Eglise",
        "code": 4950
      },
      "arrival": 66900,
      "departure": 66900
    },
    {
      "stop": {
        "id": "2_4802",
        "lat": 48.29966875,
        "lon": -1.93943478,
        "name": "Sévignière",
        "code": 4802
      },
      "arrival": 67200,
      "departure": 67200
    },
    {
      "stop": {
        "id": "2_4800",
        "lat": 48.29624459,
        "lon": -1.94537339,
        "name": "Bécherel Centre",
        "code": 4800
      },
      "arrival": 67260,
      "departure": 67260
    },
    {
      "stop": {
        "id": "2_6000",
        "lat": 48.21870667,
        "lon": -1.8933469,
        "name": "Romillé Collège",
        "code": 6000
      },
      "arrival": 68100,
      "departure": 68280
    },
    {
      "stop": {
        "id": "2_6002",
        "lat": 48.21672827,
        "lon": -1.89094337,
        "name": "Frères Aubert",
        "code": 6002
      },
      "arrival": 68340,
      "departure": 68340
    },
    {
      "stop": {
        "id": "2_4900",
        "lat": 48.24539315,
        "lon": -1.85404086,
        "name": "Langan Bourg",
        "code": 4900
      },
      "arrival": 68760,
      "departure": 68760
    },
    {
      "stop": {
        "id": "2_4850",
        "lat": 48.27199077,
        "lon": -1.85689014,
        "name": "Chapelle-Chaussée",
        "code": 4850
      },
      "arrival": 69120,
      "departure": 69120
    }
  ],
  "route": {
    "id": "2_0096",
    "textColor": "1A171B",
    "color": "AECC52",
    "description": "Intercommunale",
    "longName": "Miniac-sous-Bécherel / Bécherel \u003c\u003e Romillé \u003c\u003e Langan / La-Chapelle-Chaussée",
    "shortName": "96",
    "type": 3,
    "agencyId": "2"
  }
}