{
  "headsign": "73 | Rennes La Poterie",
  "stopTimes": [
    {
      "stop": {
        "id": "2_4101",
        "lat": 47.984989,
        "lon": -1.576252,
        "name": "Corps-Nuds Gare",
        "code": 4101
      },
      "arrival": 66660,
      "departure": 66660
    },
    {
      "stop": {
        "id": "2_4102",
        "lat": 47.982393,
        "lon": -1.580817,
        "name": "Huberdières",
        "code": 4102
      },
      "arrival": 66720,
      "departure": 66720
    },
    {
      "stop": {
        "id": "2_4103",
        "lat": 47.977794,
        "lon": -1.585033,
        "name": "Place de Kildare",
        "code": 4103
      },
      "arrival": 66840,
      "departure": 66840
    },
    {
      "stop": {
        "id": "2_4104",
        "lat": 47.979393,
        "lon": -1.587834,
        "name": "Corps-Nuds Mairie",
        "code": 4104
      },
      "arrival": 66900,
      "departure": 66900
    },
    {
      "stop": {
        "id": "2_4105",
        "lat": 47.982053,
        "lon": -1.588248,
        "name": "Chêne Hervé",
        "code": 4105
      },
      "arrival": 66900,
      "departure": 66900
    },
    {
      "stop": {
        "id": "2_3816",
        "lat": 48.000758,
        "lon": -1.594361,
        "name": "Launay Garnier",
        "code": 3816
      },
      "arrival": 67140,
      "departure": 67140
    },
    {
      "stop": {
        "id": "2_4551",
        "lat": 48.013468,
        "lon": -1.590988,
        "name": "Saint-Armel Eglise",
        "code": 4551
      },
      "arrival": 67380,
      "departure": 67380
    },
    {
      "stop": {
        "id": "2_4555",
        "lat": 48.014056,
        "lon": -1.594394,
        "name": "Saint-Armel Gare",
        "code": 4555
      },
      "arrival": 67440,
      "departure": 67440
    },
    {
      "stop": {
        "id": "2_4554",
        "lat": 48.014788,
        "lon": -1.598383,
        "name": "Lande du Jardin",
        "code": 4554
      },
      "arrival": 67500,
      "departure": 67500
    },
    {
      "stop": {
        "id": "2_2627",
        "lat": 48.031385,
        "lon": -1.599562,
        "name": "Vaugon",
        "code": 2627
      },
      "arrival": 67680,
      "departure": 67680
    },
    {
      "stop": {
        "id": "2_2635",
        "lat": 48.038499,
        "lon": -1.602145,
        "name": "Croix Malinge",
        "code": 2635
      },
      "arrival": 67740,
      "departure": 67740
    },
    {
      "stop": {
        "id": "2_2602",
        "lat": 48.043401,
        "lon": -1.601647,
        "name": "Bel Air",
        "code": 2602
      },
      "arrival": 67800,
      "departure": 67800
    },
    {
      "stop": {
        "id": "2_2603",
        "lat": 48.044735,
        "lon": -1.603959,
        "name": "La Poste",
        "code": 2603
      },
      "arrival": 67860,
      "departure": 67860
    },
    {
      "stop": {
        "id": "2_1511",
        "lat": 48.087572,
        "lon": -1.643466,
        "name": "La Poterie",
        "code": 1511
      },
      "arrival": 68340,
      "departure": 68340
    }
  ],
  "route": {
    "id": "2_0073",
    "textColor": "FFFFFF",
    "color": "008436",
    "description": "Métropolitaine",
    "longName": "Rennes (La Poterie) \u003c\u003e Vern-sur-Seiche / Saint-Armel / Corps-Nuds",
    "shortName": "73",
    "type": 3,
    "agencyId": "2"
  }
}