{
  "headsign": "225 | Pacé Pie Neuve",
  "stopTimes": [
    {
      "stop": {
        "id": "2_2841",
        "lat": 48.16048,
        "lon": -1.676774,
        "name": "Parking scolaire Jean-Paul II",
        "code": 2841
      },
      "arrival": 63300,
      "departure": 63300
    },
    {
      "stop": {
        "id": "2_3115",
        "lat": 48.148099,
        "lon": -1.769731,
        "name": "Pacé Cimetière",
        "code": 3115
      },
      "arrival": 63900,
      "departure": 63900
    },
    {
      "stop": {
        "id": "2_3130",
        "lat": 48.151605,
        "lon": -1.770461,
        "name": "Le Brix",
        "code": 3130
      },
      "arrival": 63960,
      "departure": 63960
    },
    {
      "stop": {
        "id": "2_3131",
        "lat": 48.154401,
        "lon": -1.770358,
        "name": "Pacé Collèges",
        "code": 3131
      },
      "arrival": 64020,
      "departure": 64020
    },
    {
      "stop": {
        "id": "2_3132",
        "lat": 48.155458,
        "lon": -1.764526,
        "name": "Champalaune",
        "code": 3132
      },
      "arrival": 64080,
      "departure": 64080
    },
    {
      "stop": {
        "id": "2_3133",
        "lat": 48.157383,
        "lon": -1.765666,
        "name": "Ouessant",
        "code": 3133
      },
      "arrival": 64140,
      "departure": 64140
    },
    {
      "stop": {
        "id": "2_3125",
        "lat": 48.16049,
        "lon": -1.768011,
        "name": "Pâtis Roussel",
        "code": 3125
      },
      "arrival": 64200,
      "departure": 64200
    },
    {
      "stop": {
        "id": "2_3117",
        "lat": 48.151275,
        "lon": -1.777656,
        "name": "Renan",
        "code": 3117
      },
      "arrival": 64380,
      "departure": 64380
    },
    {
      "stop": {
        "id": "2_3120",
        "lat": 48.1486,
        "lon": -1.785006,
        "name": "Touche Milon",
        "code": 3120
      },
      "arrival": 64440,
      "departure": 64440
    },
    {
      "stop": {
        "id": "2_3121",
        "lat": 48.149381,
        "lon": -1.789012,
        "name": "Docteur Léon",
        "code": 3121
      },
      "arrival": 64500,
      "departure": 64500
    },
    {
      "stop": {
        "id": "2_3122",
        "lat": 48.151278,
        "lon": -1.792357,
        "name": "Pie Neuve",
        "code": 3122
      },
      "arrival": 64620,
      "departure": 64620
    }
  ],
  "route": {
    "id": "2_0225",
    "textColor": "FFFFFF",
    "color": "E30613",
    "description": "Complémentaire",
    "longName": "Pacé (Pie Neuve) \u003c\u003e Saint-Grégoire (Lycée Jean-Paul II)",
    "shortName": "225",
    "type": 3,
    "agencyId": "2"
  }
}