{
  "headsign": "68 | Gévezé",
  "stopTimes": [
    {
      "stop": {
        "id": "2_1529",
        "lat": 48.121156,
        "lon": -1.702973,
        "name": "Villejean-Université",
        "code": 1529
      },
      "arrival": 49800,
      "departure": 49800
    },
    {
      "stop": {
        "id": "2_1495",
        "lat": 48.126607,
        "lon": -1.693012,
        "name": "Lycée Basch",
        "code": 1495
      },
      "arrival": 50040,
      "departure": 50040
    },
    {
      "stop": {
        "id": "2_1537",
        "lat": 48.131596,
        "lon": -1.69166,
        "name": "Léonard",
        "code": 1537
      },
      "arrival": 50160,
      "departure": 50160
    },
    {
      "stop": {
        "id": "2_2830",
        "lat": 48.134376,
        "lon": -1.694471,
        "name": "Grand Quartier",
        "code": 2830
      },
      "arrival": 50220,
      "departure": 50220
    },
    {
      "stop": {
        "id": "2_3516",
        "lat": 48.154387,
        "lon": -1.707216,
        "name": "Décoparc",
        "code": 3516
      },
      "arrival": 50460,
      "departure": 50460
    },
    {
      "stop": {
        "id": "2_2837",
        "lat": 48.17698,
        "lon": -1.721962,
        "name": "La Brosse",
        "code": 2837
      },
      "arrival": 50700,
      "departure": 50700
    },
    {
      "stop": {
        "id": "2_4503",
        "lat": 48.218704,
        "lon": -1.784055,
        "name": "Flume",
        "code": 4503
      },
      "arrival": 51240,
      "departure": 51240
    },
    {
      "stop": {
        "id": "2_4505",
        "lat": 48.221027,
        "lon": -1.7882,
        "name": "Gévezé Mairie",
        "code": 4505
      },
      "arrival": 51240,
      "departure": 51240
    },
    {
      "stop": {
        "id": "2_4511",
        "lat": 48.223978,
        "lon": -1.793771,
        "name": "Prés Verts",
        "code": 4511
      },
      "arrival": 51300,
      "departure": 51300
    },
    {
      "stop": {
        "id": "2_4509",
        "lat": 48.224645,
        "lon": -1.800449,
        "name": "Coualeuc",
        "code": 4509
      },
      "arrival": 51420,
      "departure": 51420
    },
    {
      "stop": {
        "id": "2_4507",
        "lat": 48.221783,
        "lon": -1.802327,
        "name": "Cheval Blanc",
        "code": 4507
      },
      "arrival": 51480,
      "departure": 51480
    }
  ],
  "route": {
    "id": "2_0068",
    "textColor": "1A171B",
    "color": "DDC500",
    "description": "Métropolitaine",
    "longName": "Rennes (Villejean-Université) \u003c\u003e Gévezé",
    "shortName": "68",
    "type": 3,
    "agencyId": "2"
  }
}