{
  "headsign": "2 | Haut Sancé",
  "stopTimes": [
    {
      "stop": {
        "id": "2_2801",
        "lat": 48.13580524,
        "lon": -1.69311343,
        "name": "Grand Quartier",
        "code": 2801
      },
      "arrival": 60420,
      "departure": 60420
    },
    {
      "stop": {
        "id": "2_2815",
        "lat": 48.13721048,
        "lon": -1.68638899,
        "name": "La Plesse",
        "code": 2815
      },
      "arrival": 60540,
      "departure": 60540
    },
    {
      "stop": {
        "id": "2_1328",
        "lat": 48.1332141,
        "lon": -1.68528827,
        "name": "Lycée Mendès France",
        "code": 1328
      },
      "arrival": 60600,
      "departure": 60600
    },
    {
      "stop": {
        "id": "2_1040",
        "lat": 48.13006097,
        "lon": -1.6843352,
        "name": "Donelière",
        "code": 1040
      },
      "arrival": 60660,
      "departure": 60660
    },
    {
      "stop": {
        "id": "2_1101",
        "lat": 48.1272746,
        "lon": -1.68322628,
        "name": "Trois Croix",
        "code": 1101
      },
      "arrival": 60720,
      "departure": 60720
    },
    {
      "stop": {
        "id": "2_1042",
        "lat": 48.12442016,
        "lon": -1.68178832,
        "name": "Cimetière Nord",
        "code": 1042
      },
      "arrival": 60780,
      "departure": 60780
    },
    {
      "stop": {
        "id": "2_1043",
        "lat": 48.12359497,
        "lon": -1.68417898,
        "name": "Saint-Martin",
        "code": 1043
      },
      "arrival": 60840,
      "departure": 60840
    },
    {
      "stop": {
        "id": "2_1044",
        "lat": 48.12224848,
        "lon": -1.68585015,
        "name": "IUFM (futur ESPE)",
        "code": 1044
      },
      "arrival": 60900,
      "departure": 60900
    },
    {
      "stop": {
        "id": "2_1046",
        "lat": 48.11822289,
        "lon": -1.6893522,
        "name": "Anatole France",
        "code": 1046
      },
      "arrival": 61020,
      "departure": 61020
    },
    {
      "stop": {
        "id": "2_1047",
        "lat": 48.11617754,
        "lon": -1.69116733,
        "name": "La Touche",
        "code": 1047
      },
      "arrival": 61080,
      "departure": 61080
    },
    {
      "stop": {
        "id": "2_1048",
        "lat": 48.11334584,
        "lon": -1.69345994,
        "name": "Brest Verdun",
        "code": 1048
      },
      "arrival": 61140,
      "departure": 61140
    },
    {
      "stop": {
        "id": "2_1049",
        "lat": 48.11168311,
        "lon": -1.68948939,
        "name": "Horizons",
        "code": 1049
      },
      "arrival": 61260,
      "departure": 61260
    },
    {
      "stop": {
        "id": "2_1050",
        "lat": 48.11173644,
        "lon": -1.68701739,
        "name": "Les Lices",
        "code": 1050
      },
      "arrival": 61320,
      "departure": 61320
    },
    {
      "stop": {
        "id": "2_1091",
        "lat": 48.10977885,
        "lon": -1.68388248,
        "name": "Place de Bretagne",
        "code": 1091
      },
      "arrival": 61440,
      "departure": 61440
    },
    {
      "stop": {
        "id": "2_1090",
        "lat": 48.10952605,
        "lon": -1.6779074,
        "name": "République",
        "code": 1090
      },
      "arrival": 61620,
      "departure": 61620
    },
    {
      "stop": {
        "id": "2_1088",
        "lat": 48.10744897,
        "lon": -1.67491383,
        "name": "Liberté TNB",
        "code": 1088
      },
      "arrival": 61740,
      "departure": 61740
    },
    {
      "stop": {
        "id": "2_1087",
        "lat": 48.1060299,
        "lon": -1.67410184,
        "name": "Champs Libres",
        "code": 1087
      },
      "arrival": 61860,
      "departure": 61860
    },
    {
      "stop": {
        "id": "2_1086",
        "lat": 48.10400351,
        "lon": -1.67201145,
        "name": "Gares",
        "code": 1086
      },
      "arrival": 61920,
      "departure": 61920
    },
    {
      "stop": {
        "id": "2_1085",
        "lat": 48.10473324,
        "lon": -1.66565625,
        "name": "Laënnec",
        "code": 1085
      },
      "arrival": 62040,
      "departure": 62040
    },
    {
      "stop": {
        "id": "2_1243",
        "lat": 48.10254897,
        "lon": -1.66111869,
        "name": "Croix Saint-Hélier",
        "code": 1243
      },
      "arrival": 62160,
      "departure": 62160
    },
    {
      "stop": {
        "id": "2_1060",
        "lat": 48.09952833,
        "lon": -1.65755292,
        "name": "Piré",
        "code": 1060
      },
      "arrival": 62220,
      "departure": 62220
    },
    {
      "stop": {
        "id": "2_1061",
        "lat": 48.09733006,
        "lon": -1.65433141,
        "name": "Bourgeois",
        "code": 1061
      },
      "arrival": 62280,
      "departure": 62280
    },
    {
      "stop": {
        "id": "2_1062",
        "lat": 48.09512646,
        "lon": -1.65055801,
        "name": "Calmette",
        "code": 1062
      },
      "arrival": 62400,
      "departure": 62400
    },
    {
      "stop": {
        "id": "2_1063",
        "lat": 48.0927684,
        "lon": -1.64749794,
        "name": "Monsieur Vincent",
        "code": 1063
      },
      "arrival": 62460,
      "departure": 62460
    },
    {
      "stop": {
        "id": "2_1064",
        "lat": 48.09035104,
        "lon": -1.64502494,
        "name": "Lycée Descartes",
        "code": 1064
      },
      "arrival": 62520,
      "departure": 62520
    },
    {
      "stop": {
        "id": "2_1077",
        "lat": 48.08744064,
        "lon": -1.64342249,
        "name": "La Poterie",
        "code": 1077
      },
      "arrival": 62580,
      "departure": 62580
    },
    {
      "stop": {
        "id": "2_1066",
        "lat": 48.08780025,
        "lon": -1.63864028,
        "name": "Monnet",
        "code": 1066
      },
      "arrival": 62640,
      "departure": 62640
    },
    {
      "stop": {
        "id": "2_1067",
        "lat": 48.08943166,
        "lon": -1.63541842,
        "name": "Bourgueil",
        "code": 1067
      },
      "arrival": 62700,
      "departure": 62700
    },
    {
      "stop": {
        "id": "2_1068",
        "lat": 48.09201511,
        "lon": -1.63642544,
        "name": "Gohier",
        "code": 1068
      },
      "arrival": 62820,
      "departure": 62820
    },
    {
      "stop": {
        "id": "2_1069",
        "lat": 48.09270737,
        "lon": -1.63967507,
        "name": "Ronceray",
        "code": 1069
      },
      "arrival": 62820,
      "departure": 62820
    },
    {
      "stop": {
        "id": "2_1070",
        "lat": 48.09445007,
        "lon": -1.63799813,
        "name": "CARSAT",
        "code": 1070
      },
      "arrival": 62880,
      "departure": 62880
    },
    {
      "stop": {
        "id": "2_1071",
        "lat": 48.09618325,
        "lon": -1.63701996,
        "name": "Haut Sancé",
        "code": 1071
      },
      "arrival": 62940,
      "departure": 62940
    }
  ],
  "route": {
    "id": "2_0002",
    "textColor": "FFFFFF",
    "color": "0083CD",
    "description": "Majeure",
    "longName": "Grand Quartier \u003c\u003e La Poterie / Haut Sancé",
    "shortName": "2",
    "type": 3,
    "agencyId": "2"
  }
}