{
  "headsign": "35 | Cesson-Sévigné Gare",
  "stopTimes": [
    {
      "stop": {
        "id": "2_2126",
        "lat": 48.13476313,
        "lon": -1.62183196,
        "name": "Champs Blancs",
        "code": 2126
      },
      "arrival": 66000,
      "departure": 66000
    },
    {
      "stop": {
        "id": "2_2124",
        "lat": 48.1315893,
        "lon": -1.62465329,
        "name": "Chêne Germain",
        "code": 2124
      },
      "arrival": 66120,
      "departure": 66120
    },
    {
      "stop": {
        "id": "2_2002",
        "lat": 48.13019422,
        "lon": -1.62766711,
        "name": "Cesson Hôpital Privé",
        "code": 2002
      },
      "arrival": 66180,
      "departure": 66180
    },
    {
      "stop": {
        "id": "2_1536",
        "lat": 48.12680571,
        "lon": -1.6300959,
        "name": "Clos Courtel",
        "code": 1536
      },
      "arrival": 66360,
      "departure": 66360
    },
    {
      "stop": {
        "id": "2_1291",
        "lat": 48.12475494,
        "lon": -1.63388413,
        "name": "IUT",
        "code": 1291
      },
      "arrival": 66420,
      "departure": 66420
    },
    {
      "stop": {
        "id": "2_1292",
        "lat": 48.12145018,
        "lon": -1.63814809,
        "name": "Beaulieu Restau U",
        "code": 1292
      },
      "arrival": 66480,
      "departure": 66480
    },
    {
      "stop": {
        "id": "2_1176",
        "lat": 48.11901733,
        "lon": -1.63514782,
        "name": "Beaulieu INSA",
        "code": 1176
      },
      "arrival": 66540,
      "departure": 66540
    },
    {
      "stop": {
        "id": "2_1312",
        "lat": 48.1166495,
        "lon": -1.63393042,
        "name": "Beaulieu Chimie",
        "code": 1312
      },
      "arrival": 66600,
      "departure": 66600
    },
    {
      "stop": {
        "id": "2_2019",
        "lat": 48.1140789,
        "lon": -1.62801107,
        "name": "Champs Péans",
        "code": 2019
      },
      "arrival": 66720,
      "departure": 66720
    },
    {
      "stop": {
        "id": "2_2020",
        "lat": 48.11415,
        "lon": -1.62183892,
        "name": "Taillis",
        "code": 2020
      },
      "arrival": 66780,
      "departure": 66780
    },
    {
      "stop": {
        "id": "2_2021",
        "lat": 48.11421457,
        "lon": -1.61375483,
        "name": "Hublais",
        "code": 2021
      },
      "arrival": 66900,
      "departure": 66900
    },
    {
      "stop": {
        "id": "2_2057",
        "lat": 48.11388631,
        "lon": -1.60325405,
        "name": "Cesson Gare",
        "code": 2057
      },
      "arrival": 67080,
      "departure": 67080
    }
  ],
  "route": {
    "id": "2_0035",
    "textColor": "E2001A",
    "color": "FFF164",
    "description": "Inter-quartiers",
    "longName": "Cesson-Sévigné (Champs Blancs) \u003c\u003e Cesson-Sévigné (Gare)",
    "shortName": "35",
    "type": 3,
    "agencyId": "2"
  }
}