{
  "headsign": "224 | Saint-Grégoire Lycée Jean-Paul II",
  "stopTimes": [
    {
      "stop": {
        "id": "2_4507",
        "lat": 48.221783,
        "lon": -1.802327,
        "name": "Cheval Blanc",
        "code": 4507
      },
      "arrival": 27000,
      "departure": 27000
    },
    {
      "stop": {
        "id": "2_4508",
        "lat": 48.224482,
        "lon": -1.800785,
        "name": "Coualeuc",
        "code": 4508
      },
      "arrival": 27060,
      "departure": 27060
    },
    {
      "stop": {
        "id": "2_4510",
        "lat": 48.223615,
        "lon": -1.79363,
        "name": "Prés Verts",
        "code": 4510
      },
      "arrival": 27120,
      "departure": 27120
    },
    {
      "stop": {
        "id": "2_4502",
        "lat": 48.220986,
        "lon": -1.788723,
        "name": "Gévezé Mairie",
        "code": 4502
      },
      "arrival": 27240,
      "departure": 27240
    },
    {
      "stop": {
        "id": "2_4504",
        "lat": 48.21819,
        "lon": -1.78315,
        "name": "Flume",
        "code": 4504
      },
      "arrival": 27360,
      "departure": 27360
    },
    {
      "stop": {
        "id": "2_4070",
        "lat": 48.183016,
        "lon": -1.726386,
        "name": "Besneraie",
        "code": 4070
      },
      "arrival": 27900,
      "departure": 27900
    },
    {
      "stop": {
        "id": "2_4053",
        "lat": 48.17951,
        "lon": -1.729201,
        "name": "Métairie",
        "code": 4053
      },
      "arrival": 27960,
      "departure": 27960
    },
    {
      "stop": {
        "id": "2_4054",
        "lat": 48.177108,
        "lon": -1.732207,
        "name": "Mairie",
        "code": 4054
      },
      "arrival": 28020,
      "departure": 28020
    },
    {
      "stop": {
        "id": "2_4055",
        "lat": 48.174111,
        "lon": -1.735204,
        "name": "Viennais",
        "code": 4055
      },
      "arrival": 28140,
      "departure": 28140
    },
    {
      "stop": {
        "id": "2_4056",
        "lat": 48.17016,
        "lon": -1.736188,
        "name": "Sénestrais",
        "code": 4056
      },
      "arrival": 28200,
      "departure": 28200
    },
    {
      "stop": {
        "id": "2_3500",
        "lat": 48.163969,
        "lon": -1.731752,
        "name": "Silandière",
        "code": 3500
      },
      "arrival": 28260,
      "departure": 28260
    },
    {
      "stop": {
        "id": "2_3514",
        "lat": 48.157221,
        "lon": -1.723306,
        "name": "Fougerolle",
        "code": 3514
      },
      "arrival": 28380,
      "departure": 28380
    },
    {
      "stop": {
        "id": "2_3502",
        "lat": 48.155655,
        "lon": -1.720614,
        "name": "Pierre Texier",
        "code": 3502
      },
      "arrival": 28440,
      "departure": 28440
    },
    {
      "stop": {
        "id": "2_3503",
        "lat": 48.15574,
        "lon": -1.71654,
        "name": "Montgermont Mairie",
        "code": 3503
      },
      "arrival": 28500,
      "departure": 28500
    },
    {
      "stop": {
        "id": "2_3504",
        "lat": 48.157226,
        "lon": -1.714447,
        "name": "Courtines",
        "code": 3504
      },
      "arrival": 28620,
      "departure": 28620
    },
    {
      "stop": {
        "id": "2_3505",
        "lat": 48.155304,
        "lon": -1.710895,
        "name": "Belle Epine",
        "code": 3505
      },
      "arrival": 28680,
      "departure": 28680
    },
    {
      "stop": {
        "id": "2_3506",
        "lat": 48.152987,
        "lon": -1.706581,
        "name": "Décoparc",
        "code": 3506
      },
      "arrival": 28740,
      "departure": 28740
    },
    {
      "stop": {
        "id": "2_2841",
        "lat": 48.16048,
        "lon": -1.676774,
        "name": "Parking scolaire Jean-Paul II",
        "code": 2841
      },
      "arrival": 29100,
      "departure": 29100
    }
  ],
  "route": {
    "id": "2_0224",
    "textColor": "FFFFFF",
    "color": "009FE3",
    "description": "Complémentaire",
    "longName": "Gévezé (Cheval Blanc) \u003c\u003e Saint-Grégoire (Lycée Jean-Paul II)",
    "shortName": "224",
    "type": 3,
    "agencyId": "2"
  }
}