{
  "headsign": "67 | Rennes République",
  "stopTimes": [
    {
      "stop": {
        "id": "2_2089",
        "lat": 48.113572,
        "lon": -1.59052,
        "name": "Rigourdière",
        "code": 2089
      },
      "arrival": 53100,
      "departure": 53100
    },
    {
      "stop": {
        "id": "2_2039",
        "lat": 48.114462,
        "lon": -1.600472,
        "name": "Bordage",
        "code": 2039
      },
      "arrival": 53280,
      "departure": 53280
    },
    {
      "stop": {
        "id": "2_2057",
        "lat": 48.113861,
        "lon": -1.603295,
        "name": "Cesson Gare",
        "code": 2057
      },
      "arrival": 53340,
      "departure": 53340
    },
    {
      "stop": {
        "id": "2_2058",
        "lat": 48.112638,
        "lon": -1.607261,
        "name": "Peupliers",
        "code": 2058
      },
      "arrival": 53340,
      "departure": 53340
    },
    {
      "stop": {
        "id": "2_2059",
        "lat": 48.109302,
        "lon": -1.609073,
        "name": "Monniais",
        "code": 2059
      },
      "arrival": 53460,
      "departure": 53460
    },
    {
      "stop": {
        "id": "2_2060",
        "lat": 48.10784,
        "lon": -1.614683,
        "name": "Rond Point de Bray",
        "code": 2060
      },
      "arrival": 53520,
      "departure": 53520
    },
    {
      "stop": {
        "id": "2_2016",
        "lat": 48.114224,
        "lon": -1.621951,
        "name": "Taillis",
        "code": 2016
      },
      "arrival": 53700,
      "departure": 53700
    },
    {
      "stop": {
        "id": "2_2017",
        "lat": 48.114121,
        "lon": -1.630367,
        "name": "Champs Péans",
        "code": 2017
      },
      "arrival": 53820,
      "departure": 53820
    },
    {
      "stop": {
        "id": "2_1609",
        "lat": 48.114194,
        "lon": -1.636482,
        "name": "Tournebride",
        "code": 1609
      },
      "arrival": 53880,
      "departure": 53880
    },
    {
      "stop": {
        "id": "2_1528",
        "lat": 48.113992,
        "lon": -1.64442,
        "name": "Piletière",
        "code": 1528
      },
      "arrival": 53940,
      "departure": 53940
    },
    {
      "stop": {
        "id": "2_1527",
        "lat": 48.114569,
        "lon": -1.649959,
        "name": "Moulin de Joué",
        "code": 1527
      },
      "arrival": 54000,
      "departure": 54000
    },
    {
      "stop": {
        "id": "2_1526",
        "lat": 48.114801,
        "lon": -1.65322,
        "name": "Hôpital Régnier",
        "code": 1526
      },
      "arrival": 54060,
      "departure": 54060
    },
    {
      "stop": {
        "id": "2_1474",
        "lat": 48.113474,
        "lon": -1.656747,
        "name": "Durafour Strasbourg",
        "code": 1474
      },
      "arrival": 54120,
      "departure": 54120
    },
    {
      "stop": {
        "id": "2_1163",
        "lat": 48.110164,
        "lon": -1.660479,
        "name": "Robidou",
        "code": 1163
      },
      "arrival": 54240,
      "departure": 54240
    },
    {
      "stop": {
        "id": "2_1556",
        "lat": 48.1094,
        "lon": -1.677626,
        "name": "République",
        "code": 1556
      },
      "arrival": 54480,
      "departure": 54480
    }
  ],
  "route": {
    "id": "2_0067",
    "textColor": "FFFFFF",
    "color": "E2003B",
    "description": "Métropolitaine",
    "longName": "Rennes (République) \u003c\u003e Cesson-Sévigné / Brécé",
    "shortName": "67",
    "type": 3,
    "agencyId": "2"
  }
}