{
  "headsign": "67 | Brécé",
  "stopTimes": [
    {
      "stop": {
        "id": "2_1556",
        "lat": 48.1094,
        "lon": -1.677626,
        "name": "République",
        "code": 1556
      },
      "arrival": 45000,
      "departure": 45000
    },
    {
      "stop": {
        "id": "2_4163",
        "lat": 48.108239,
        "lon": -1.507377,
        "name": "Turbanière",
        "code": 4163
      },
      "arrival": 46320,
      "departure": 46320
    },
    {
      "stop": {
        "id": "2_4157",
        "lat": 48.109265,
        "lon": -1.503198,
        "name": "Pâtis",
        "code": 4157
      },
      "arrival": 46380,
      "departure": 46380
    },
    {
      "stop": {
        "id": "2_4158",
        "lat": 48.107535,
        "lon": -1.486118,
        "name": "Destiers",
        "code": 4158
      },
      "arrival": 46500,
      "departure": 46500
    },
    {
      "stop": {
        "id": "2_4159",
        "lat": 48.107463,
        "lon": -1.482571,
        "name": "Provence",
        "code": 4159
      },
      "arrival": 46560,
      "departure": 46560
    },
    {
      "stop": {
        "id": "2_4160",
        "lat": 48.107291,
        "lon": -1.478381,
        "name": "Saules",
        "code": 4160
      },
      "arrival": 46620,
      "departure": 46620
    },
    {
      "stop": {
        "id": "2_4161",
        "lat": 48.109064,
        "lon": -1.478264,
        "name": "Mainguère",
        "code": 4161
      },
      "arrival": 46620,
      "departure": 46620
    },
    {
      "stop": {
        "id": "2_4151",
        "lat": 48.109864,
        "lon": -1.481103,
        "name": "Anjou",
        "code": 4151
      },
      "arrival": 46680,
      "departure": 46680
    }
  ],
  "route": {
    "id": "2_0067",
    "textColor": "FFFFFF",
    "color": "E2003B",
    "description": "Métropolitaine",
    "longName": "Rennes (République) \u003c\u003e Cesson-Sévigné / Brécé",
    "shortName": "67",
    "type": 3,
    "agencyId": "2"
  }
}