{
  "headsign": "59 | Rennes La Poterie",
  "stopTimes": [
    {
      "stop": {
        "id": "2_4101",
        "lat": 47.984989,
        "lon": -1.576252,
        "name": "Corps-Nuds Gare",
        "code": 4101
      },
      "arrival": 71700,
      "departure": 71700
    },
    {
      "stop": {
        "id": "2_4102",
        "lat": 47.982393,
        "lon": -1.580817,
        "name": "Huberdières",
        "code": 4102
      },
      "arrival": 71760,
      "departure": 71760
    },
    {
      "stop": {
        "id": "2_4103",
        "lat": 47.977794,
        "lon": -1.585033,
        "name": "Place de Kildare",
        "code": 4103
      },
      "arrival": 71820,
      "departure": 71820
    },
    {
      "stop": {
        "id": "2_4104",
        "lat": 47.979393,
        "lon": -1.587834,
        "name": "Corps-Nuds Mairie",
        "code": 4104
      },
      "arrival": 71880,
      "departure": 71880
    },
    {
      "stop": {
        "id": "2_4105",
        "lat": 47.982053,
        "lon": -1.588248,
        "name": "Chêne Hervé",
        "code": 4105
      },
      "arrival": 71880,
      "departure": 71880
    },
    {
      "stop": {
        "id": "2_3816",
        "lat": 48.000758,
        "lon": -1.594361,
        "name": "Launay Garnier",
        "code": 3816
      },
      "arrival": 72120,
      "departure": 72120
    },
    {
      "stop": {
        "id": "2_4551",
        "lat": 48.013468,
        "lon": -1.590988,
        "name": "Saint-Armel Eglise",
        "code": 4551
      },
      "arrival": 72360,
      "departure": 72360
    },
    {
      "stop": {
        "id": "2_4555",
        "lat": 48.014056,
        "lon": -1.594394,
        "name": "Saint-Armel Gare",
        "code": 4555
      },
      "arrival": 72420,
      "departure": 72420
    },
    {
      "stop": {
        "id": "2_4554",
        "lat": 48.014788,
        "lon": -1.598383,
        "name": "Lande du Jardin",
        "code": 4554
      },
      "arrival": 72480,
      "departure": 72480
    },
    {
      "stop": {
        "id": "2_2627",
        "lat": 48.031385,
        "lon": -1.599562,
        "name": "Vaugon",
        "code": 2627
      },
      "arrival": 72660,
      "departure": 72660
    },
    {
      "stop": {
        "id": "2_2601",
        "lat": 48.038508,
        "lon": -1.602504,
        "name": "Croix Malinge",
        "code": 2601
      },
      "arrival": 72720,
      "departure": 72720
    },
    {
      "stop": {
        "id": "2_2602",
        "lat": 48.043401,
        "lon": -1.601647,
        "name": "Bel Air",
        "code": 2602
      },
      "arrival": 72780,
      "departure": 72780
    },
    {
      "stop": {
        "id": "2_2629",
        "lat": 48.047187,
        "lon": -1.602518,
        "name": "Vern Eglise",
        "code": 2629
      },
      "arrival": 72840,
      "departure": 72840
    },
    {
      "stop": {
        "id": "2_2604",
        "lat": 48.049558,
        "lon": -1.606153,
        "name": "Croix Rouge",
        "code": 2604
      },
      "arrival": 72900,
      "departure": 72900
    },
    {
      "stop": {
        "id": "2_2617",
        "lat": 48.049484,
        "lon": -1.611106,
        "name": "Fosse Gauchère",
        "code": 2617
      },
      "arrival": 72960,
      "departure": 72960
    },
    {
      "stop": {
        "id": "2_2606",
        "lat": 48.050629,
        "lon": -1.614982,
        "name": "Solidor",
        "code": 2606
      },
      "arrival": 73020,
      "departure": 73020
    },
    {
      "stop": {
        "id": "2_2607",
        "lat": 48.052615,
        "lon": -1.613836,
        "name": "Haute Abbaye",
        "code": 2607
      },
      "arrival": 73080,
      "departure": 73080
    },
    {
      "stop": {
        "id": "2_2608",
        "lat": 48.059275,
        "lon": -1.616638,
        "name": "Bretonnière",
        "code": 2608
      },
      "arrival": 73200,
      "departure": 73200
    },
    {
      "stop": {
        "id": "2_2609",
        "lat": 48.064138,
        "lon": -1.623074,
        "name": "Val d\u0027Orson",
        "code": 2609
      },
      "arrival": 73260,
      "departure": 73260
    },
    {
      "stop": {
        "id": "2_2610",
        "lat": 48.067768,
        "lon": -1.625701,
        "name": "Garenne",
        "code": 2610
      },
      "arrival": 73320,
      "departure": 73320
    },
    {
      "stop": {
        "id": "2_2611",
        "lat": 48.072416,
        "lon": -1.628709,
        "name": "Hallerais",
        "code": 2611
      },
      "arrival": 73380,
      "departure": 73380
    },
    {
      "stop": {
        "id": "2_3024",
        "lat": 48.07696,
        "lon": -1.631808,
        "name": "Martinière",
        "code": 3024
      },
      "arrival": 73440,
      "departure": 73440
    },
    {
      "stop": {
        "id": "2_1533",
        "lat": 48.087637,
        "lon": -1.643479,
        "name": "La Poterie",
        "code": 1533
      },
      "arrival": 73620,
      "departure": 73620
    }
  ],
  "route": {
    "id": "2_0059",
    "textColor": "1A171B",
    "color": "F19FC1",
    "description": "Métropolitaine",
    "longName": "Vern-sur-Seiche \u003c\u003e Rennes (La Poterie) / Rennes (Henri Fréville) \u003c\u003e Bruz (Gare)",
    "shortName": "59",
    "type": 3,
    "agencyId": "2"
  }
}