{
  "headsign": "74 | Rennes Henri Fréville",
  "stopTimes": [
    {
      "stop": {
        "id": "2_3810",
        "lat": 47.95999343,
        "lon": -1.63242683,
        "name": "Moc Souris",
        "code": 3810
      },
      "arrival": 24900,
      "departure": 24900
    },
    {
      "stop": {
        "id": "2_3812",
        "lat": 47.95956133,
        "lon": -1.63697915,
        "name": "Sept Fours",
        "code": 3812
      },
      "arrival": 24960,
      "departure": 24960
    },
    {
      "stop": {
        "id": "2_3201",
        "lat": 47.96978577,
        "lon": -1.64606293,
        "name": "Fort Joual",
        "code": 3201
      },
      "arrival": 25140,
      "departure": 25140
    },
    {
      "stop": {
        "id": "2_3202",
        "lat": 47.97535633,
        "lon": -1.65131769,
        "name": "Frogerais",
        "code": 3202
      },
      "arrival": 25260,
      "departure": 25260
    },
    {
      "stop": {
        "id": "2_3203",
        "lat": 47.97625763,
        "lon": -1.65746531,
        "name": "Petite Rochelle",
        "code": 3203
      },
      "arrival": 25320,
      "departure": 25320
    },
    {
      "stop": {
        "id": "2_3204",
        "lat": 47.98326978,
        "lon": -1.66000223,
        "name": "Télégraphe",
        "code": 3204
      },
      "arrival": 25440,
      "departure": 25440
    },
    {
      "stop": {
        "id": "2_3208",
        "lat": 47.99395077,
        "lon": -1.66549531,
        "name": "Chateaubriand",
        "code": 3208
      },
      "arrival": 25680,
      "departure": 25680
    },
    {
      "stop": {
        "id": "2_3209",
        "lat": 47.99249678,
        "lon": -1.66873811,
        "name": "Surcouf",
        "code": 3209
      },
      "arrival": 25800,
      "departure": 25800
    },
    {
      "stop": {
        "id": "2_3210",
        "lat": 47.99502137,
        "lon": -1.67075631,
        "name": "Coteau",
        "code": 3210
      },
      "arrival": 25860,
      "departure": 25860
    },
    {
      "stop": {
        "id": "2_3211",
        "lat": 47.99730201,
        "lon": -1.66850378,
        "name": "Groupe Scolaire",
        "code": 3211
      },
      "arrival": 25920,
      "departure": 25920
    },
    {
      "stop": {
        "id": "2_3212",
        "lat": 48.00074048,
        "lon": -1.66681908,
        "name": "Levant",
        "code": 3212
      },
      "arrival": 26040,
      "departure": 26040
    },
    {
      "stop": {
        "id": "2_3213",
        "lat": 48.00909705,
        "lon": -1.66635235,
        "name": "Plardière",
        "code": 3213
      },
      "arrival": 26160,
      "departure": 26160
    },
    {
      "stop": {
        "id": "2_3250",
        "lat": 48.01492514,
        "lon": -1.66387719,
        "name": "Orgerblon",
        "code": 3250
      },
      "arrival": 26220,
      "departure": 26220
    },
    {
      "stop": {
        "id": "2_4356",
        "lat": 48.01707559,
        "lon": -1.66458634,
        "name": "Croix du Pigeonnet",
        "code": 4356
      },
      "arrival": 26220,
      "departure": 26220
    },
    {
      "stop": {
        "id": "2_1534",
        "lat": 48.08831454,
        "lon": -1.67444337,
        "name": "Henri Fréville",
        "code": 1534
      },
      "arrival": 26940,
      "departure": 26940
    }
  ],
  "route": {
    "id": "2_0074",
    "textColor": "1A171B",
    "color": "FCC000",
    "description": "Métropolitaine",
    "longName": "Rennes (Henri Fréville) \u003c\u003e Orgères / Bourgbarré",
    "shortName": "74",
    "type": 3,
    "agencyId": "2"
  }
}