{
  "headsign": "KL | Rennes République",
  "stopTimes": [
    {
      "stop": {
        "id": "2_2319",
        "lat": 48.04454124,
        "lon": -1.7463853,
        "name": "Schuman",
        "code": 2319
      },
      "arrival": 63000,
      "departure": 63000
    },
    {
      "stop": {
        "id": "2_2311",
        "lat": 48.04726387,
        "lon": -1.74200594,
        "name": "Coeur de Campus",
        "code": 2311
      },
      "arrival": 63120,
      "departure": 63120
    },
    {
      "stop": {
        "id": "2_2312",
        "lat": 48.04942067,
        "lon": -1.74051743,
        "name": "Etangs",
        "code": 2312
      },
      "arrival": 63180,
      "departure": 63180
    },
    {
      "stop": {
        "id": "2_2313",
        "lat": 48.05272866,
        "lon": -1.73833691,
        "name": "Lande du Pont",
        "code": 2313
      },
      "arrival": 63300,
      "departure": 63300
    },
    {
      "stop": {
        "id": "2_1022",
        "lat": 48.10622878,
        "lon": -1.68080951,
        "name": "Plélo Colombier",
        "code": 1022
      },
      "arrival": 64500,
      "departure": 64500
    },
    {
      "stop": {
        "id": "2_1615",
        "lat": 48.1098028,
        "lon": -1.67828335,
        "name": "République",
        "code": 1615
      },
      "arrival": 64680,
      "departure": 64680
    }
  ],
  "route": {
    "id": "2_0158",
    "textColor": "E10077",
    "color": "FCE000",
    "description": "Express métropolitaine",
    "longName": "Rennes (République) \u003c\u003e Campus de Ker-Lann",
    "shortName": "KL",
    "type": 3,
    "agencyId": "2"
  }
}