{
  "headsign": "225 | Saint-Grégoire Lycée Jean-Paul II",
  "stopTimes": [
    {
      "stop": {
        "id": "2_3102",
        "lat": 48.151381,
        "lon": -1.792259,
        "name": "Pie Neuve",
        "code": 3102
      },
      "arrival": 27300,
      "departure": 27300
    },
    {
      "stop": {
        "id": "2_3103",
        "lat": 48.149232,
        "lon": -1.788989,
        "name": "Docteur Léon",
        "code": 3103
      },
      "arrival": 27360,
      "departure": 27360
    },
    {
      "stop": {
        "id": "2_3104",
        "lat": 48.148463,
        "lon": -1.784791,
        "name": "Touche Milon",
        "code": 3104
      },
      "arrival": 27420,
      "departure": 27420
    },
    {
      "stop": {
        "id": "2_3107",
        "lat": 48.151185,
        "lon": -1.77754,
        "name": "Renan",
        "code": 3107
      },
      "arrival": 27480,
      "departure": 27480
    },
    {
      "stop": {
        "id": "2_3125",
        "lat": 48.16049,
        "lon": -1.768011,
        "name": "Pâtis Roussel",
        "code": 3125
      },
      "arrival": 27720,
      "departure": 27720
    },
    {
      "stop": {
        "id": "2_3126",
        "lat": 48.15725,
        "lon": -1.765795,
        "name": "Ouessant",
        "code": 3126
      },
      "arrival": 27780,
      "departure": 27780
    },
    {
      "stop": {
        "id": "2_3127",
        "lat": 48.155532,
        "lon": -1.764696,
        "name": "Champalaune",
        "code": 3127
      },
      "arrival": 27840,
      "departure": 27840
    },
    {
      "stop": {
        "id": "2_3128",
        "lat": 48.154019,
        "lon": -1.771157,
        "name": "Pacé Collèges",
        "code": 3128
      },
      "arrival": 27960,
      "departure": 27960
    },
    {
      "stop": {
        "id": "2_3129",
        "lat": 48.150694,
        "lon": -1.770839,
        "name": "Le Brix",
        "code": 3129
      },
      "arrival": 28020,
      "departure": 28020
    },
    {
      "stop": {
        "id": "2_3109",
        "lat": 48.148142,
        "lon": -1.769909,
        "name": "Pacé Cimetière",
        "code": 3109
      },
      "arrival": 28080,
      "departure": 28080
    },
    {
      "stop": {
        "id": "2_2841",
        "lat": 48.16048,
        "lon": -1.676774,
        "name": "Jean-Paul II",
        "code": 2841
      },
      "arrival": 29100,
      "departure": 29100
    }
  ],
  "route": {
    "id": "2_0225",
    "textColor": "FFFFFF",
    "color": "E30613",
    "description": "Complémentaire",
    "longName": "Pacé (Pie Neuve) \u003c\u003e Saint-Grégoire (Lycée Jean-Paul II)",
    "shortName": "225",
    "type": 3,
    "agencyId": "2"
  }
}