{
  "headsign": "67 | Rennes République",
  "stopTimes": [
    {
      "stop": {
        "id": "2_4151",
        "lat": 48.109864,
        "lon": -1.481103,
        "name": "Anjou",
        "code": 4151
      },
      "arrival": 53700,
      "departure": 53700
    },
    {
      "stop": {
        "id": "2_4152",
        "lat": 48.108998,
        "lon": -1.47848,
        "name": "Mainguère",
        "code": 4152
      },
      "arrival": 53820,
      "departure": 53820
    },
    {
      "stop": {
        "id": "2_4153",
        "lat": 48.107127,
        "lon": -1.479136,
        "name": "Saules",
        "code": 4153
      },
      "arrival": 53880,
      "departure": 53880
    },
    {
      "stop": {
        "id": "2_4154",
        "lat": 48.107516,
        "lon": -1.482935,
        "name": "Provence",
        "code": 4154
      },
      "arrival": 53940,
      "departure": 53940
    },
    {
      "stop": {
        "id": "2_4155",
        "lat": 48.107643,
        "lon": -1.486165,
        "name": "Destiers",
        "code": 4155
      },
      "arrival": 54000,
      "departure": 54000
    },
    {
      "stop": {
        "id": "2_4156",
        "lat": 48.109445,
        "lon": -1.503174,
        "name": "Pâtis",
        "code": 4156
      },
      "arrival": 54120,
      "departure": 54120
    },
    {
      "stop": {
        "id": "2_4162",
        "lat": 48.108409,
        "lon": -1.507807,
        "name": "Turbanière",
        "code": 4162
      },
      "arrival": 54180,
      "departure": 54180
    },
    {
      "stop": {
        "id": "2_2085",
        "lat": 48.116152,
        "lon": -1.582472,
        "name": "Champelé",
        "code": 2085
      },
      "arrival": 54720,
      "departure": 54720
    },
    {
      "stop": {
        "id": "2_2038",
        "lat": 48.114975,
        "lon": -1.590774,
        "name": "Haut Grippé",
        "code": 2038
      },
      "arrival": 54720,
      "departure": 54720
    },
    {
      "stop": {
        "id": "2_2089",
        "lat": 48.113572,
        "lon": -1.59052,
        "name": "Rigourdière",
        "code": 2089
      },
      "arrival": 54780,
      "departure": 54780
    },
    {
      "stop": {
        "id": "2_2039",
        "lat": 48.114462,
        "lon": -1.600472,
        "name": "Bordage",
        "code": 2039
      },
      "arrival": 54960,
      "departure": 54960
    },
    {
      "stop": {
        "id": "2_2057",
        "lat": 48.113861,
        "lon": -1.603295,
        "name": "Cesson Gare",
        "code": 2057
      },
      "arrival": 55020,
      "departure": 55020
    },
    {
      "stop": {
        "id": "2_2058",
        "lat": 48.112638,
        "lon": -1.607261,
        "name": "Peupliers",
        "code": 2058
      },
      "arrival": 55020,
      "departure": 55020
    },
    {
      "stop": {
        "id": "2_2059",
        "lat": 48.109302,
        "lon": -1.609073,
        "name": "Monniais",
        "code": 2059
      },
      "arrival": 55140,
      "departure": 55140
    },
    {
      "stop": {
        "id": "2_2060",
        "lat": 48.10784,
        "lon": -1.614683,
        "name": "Rond Point de Bray",
        "code": 2060
      },
      "arrival": 55200,
      "departure": 55200
    },
    {
      "stop": {
        "id": "2_2016",
        "lat": 48.114224,
        "lon": -1.621951,
        "name": "Taillis",
        "code": 2016
      },
      "arrival": 55380,
      "departure": 55380
    },
    {
      "stop": {
        "id": "2_2017",
        "lat": 48.114121,
        "lon": -1.630367,
        "name": "Champs Péans",
        "code": 2017
      },
      "arrival": 55500,
      "departure": 55500
    },
    {
      "stop": {
        "id": "2_1609",
        "lat": 48.114194,
        "lon": -1.636482,
        "name": "Tournebride",
        "code": 1609
      },
      "arrival": 55560,
      "departure": 55560
    },
    {
      "stop": {
        "id": "2_1528",
        "lat": 48.113992,
        "lon": -1.64442,
        "name": "Piletière",
        "code": 1528
      },
      "arrival": 55620,
      "departure": 55620
    },
    {
      "stop": {
        "id": "2_1527",
        "lat": 48.114569,
        "lon": -1.649959,
        "name": "Moulin de Joué",
        "code": 1527
      },
      "arrival": 55680,
      "departure": 55680
    },
    {
      "stop": {
        "id": "2_1526",
        "lat": 48.114801,
        "lon": -1.65322,
        "name": "Hôpital Régnier",
        "code": 1526
      },
      "arrival": 55740,
      "departure": 55740
    },
    {
      "stop": {
        "id": "2_1474",
        "lat": 48.113474,
        "lon": -1.656747,
        "name": "Durafour Strasbourg",
        "code": 1474
      },
      "arrival": 55800,
      "departure": 55800
    },
    {
      "stop": {
        "id": "2_1163",
        "lat": 48.110164,
        "lon": -1.660479,
        "name": "Robidou",
        "code": 1163
      },
      "arrival": 55920,
      "departure": 55920
    },
    {
      "stop": {
        "id": "2_1556",
        "lat": 48.1094,
        "lon": -1.677626,
        "name": "République",
        "code": 1556
      },
      "arrival": 56160,
      "departure": 56160
    }
  ],
  "route": {
    "id": "2_0067",
    "textColor": "FFFFFF",
    "color": "E2003B",
    "description": "Métropolitaine",
    "longName": "Rennes (République) \u003c\u003e Cesson-Sévigné / Brécé",
    "shortName": "67",
    "type": 3,
    "agencyId": "2"
  }
}