{
  "headsign": "52 | Pacé Saint-Gilles",
  "stopTimes": [
    {
      "stop": {
        "id": "2_4069",
        "lat": 48.18312865,
        "lon": -1.72600138,
        "name": "Besneraie",
        "code": 4069
      },
      "arrival": 53760,
      "departure": 53760
    },
    {
      "stop": {
        "id": "2_4053",
        "lat": 48.17949446,
        "lon": -1.72926703,
        "name": "Métairie",
        "code": 4053
      },
      "arrival": 53880,
      "departure": 53880
    },
    {
      "stop": {
        "id": "2_4054",
        "lat": 48.17710926,
        "lon": -1.73209913,
        "name": "Mairie",
        "code": 4054
      },
      "arrival": 53940,
      "departure": 53940
    },
    {
      "stop": {
        "id": "2_4055",
        "lat": 48.17409345,
        "lon": -1.73514392,
        "name": "Viennais",
        "code": 4055
      },
      "arrival": 54000,
      "departure": 54000
    },
    {
      "stop": {
        "id": "2_4056",
        "lat": 48.17016448,
        "lon": -1.73615498,
        "name": "Sénestrais",
        "code": 4056
      },
      "arrival": 54060,
      "departure": 54060
    },
    {
      "stop": {
        "id": "2_3500",
        "lat": 48.16399131,
        "lon": -1.73170413,
        "name": "Silandière",
        "code": 3500
      },
      "arrival": 54120,
      "departure": 54120
    },
    {
      "stop": {
        "id": "2_3514",
        "lat": 48.15717857,
        "lon": -1.7233011,
        "name": "Fougerolle",
        "code": 3514
      },
      "arrival": 54240,
      "departure": 54240
    },
    {
      "stop": {
        "id": "2_3502",
        "lat": 48.15565719,
        "lon": -1.72061072,
        "name": "Pierre Texier",
        "code": 3502
      },
      "arrival": 54300,
      "departure": 54300
    },
    {
      "stop": {
        "id": "2_3503",
        "lat": 48.15574059,
        "lon": -1.71658864,
        "name": "Montgermont Mairie",
        "code": 3503
      },
      "arrival": 54360,
      "departure": 54360
    },
    {
      "stop": {
        "id": "2_3504",
        "lat": 48.15726126,
        "lon": -1.71446656,
        "name": "Courtines",
        "code": 3504
      },
      "arrival": 54420,
      "departure": 54420
    },
    {
      "stop": {
        "id": "2_3505",
        "lat": 48.15531129,
        "lon": -1.7108321,
        "name": "Belle Epine",
        "code": 3505
      },
      "arrival": 54480,
      "departure": 54480
    },
    {
      "stop": {
        "id": "2_3506",
        "lat": 48.15311386,
        "lon": -1.706642,
        "name": "Décoparc",
        "code": 3506
      },
      "arrival": 54540,
      "departure": 54540
    },
    {
      "stop": {
        "id": "2_3507",
        "lat": 48.14897164,
        "lon": -1.70405003,
        "name": "Vizeule",
        "code": 3507
      },
      "arrival": 54600,
      "departure": 54600
    },
    {
      "stop": {
        "id": "2_1492",
        "lat": 48.13384612,
        "lon": -1.69386845,
        "name": "Grand Quartier",
        "code": 1492
      },
      "arrival": 54780,
      "departure": 54780
    },
    {
      "stop": {
        "id": "2_1537",
        "lat": 48.13157495,
        "lon": -1.69170144,
        "name": "Léonard",
        "code": 1537
      },
      "arrival": 54840,
      "departure": 54840
    },
    {
      "stop": {
        "id": "2_1493",
        "lat": 48.12716785,
        "lon": -1.69331906,
        "name": "Lycée Basch",
        "code": 1493
      },
      "arrival": 54900,
      "departure": 54900
    },
    {
      "stop": {
        "id": "2_1497",
        "lat": 48.12102411,
        "lon": -1.70300103,
        "name": "Villejean-Université",
        "code": 1497
      },
      "arrival": 55200,
      "departure": 55200
    },
    {
      "stop": {
        "id": "2_1518",
        "lat": 48.12062672,
        "lon": -1.71046453,
        "name": "Bourbonnais",
        "code": 1518
      },
      "arrival": 55440,
      "departure": 55440
    },
    {
      "stop": {
        "id": "2_1521",
        "lat": 48.11845974,
        "lon": -1.71376004,
        "name": "Berry",
        "code": 1521
      },
      "arrival": 55500,
      "departure": 55500
    },
    {
      "stop": {
        "id": "2_3135",
        "lat": 48.14172254,
        "lon": -1.77090905,
        "name": "Nominoë",
        "code": 3135
      },
      "arrival": 55860,
      "departure": 55860
    },
    {
      "stop": {
        "id": "2_3105",
        "lat": 48.14754061,
        "lon": -1.78105296,
        "name": "Pinault",
        "code": 3105
      },
      "arrival": 55980,
      "departure": 55980
    },
    {
      "stop": {
        "id": "2_3120",
        "lat": 48.1485353,
        "lon": -1.78475327,
        "name": "Touche Milon",
        "code": 3120
      },
      "arrival": 56040,
      "departure": 56040
    },
    {
      "stop": {
        "id": "2_3121",
        "lat": 48.1492868,
        "lon": -1.78888968,
        "name": "Docteur Léon",
        "code": 3121
      },
      "arrival": 56040,
      "departure": 56040
    },
    {
      "stop": {
        "id": "2_3122",
        "lat": 48.15128452,
        "lon": -1.79230415,
        "name": "Pie Neuve",
        "code": 3122
      },
      "arrival": 56100,
      "departure": 56100
    },
    {
      "stop": {
        "id": "2_3710",
        "lat": 48.15356445,
        "lon": -1.81046986,
        "name": "Fouaye",
        "code": 3710
      },
      "arrival": 56220,
      "departure": 56220
    },
    {
      "stop": {
        "id": "2_3711",
        "lat": 48.15413317,
        "lon": -1.81993908,
        "name": "Vigne",
        "code": 3711
      },
      "arrival": 56280,
      "departure": 56280
    },
    {
      "stop": {
        "id": "2_3712",
        "lat": 48.15067998,
        "lon": -1.82479689,
        "name": "Pont aux Moines",
        "code": 3712
      },
      "arrival": 56400,
      "departure": 56400
    },
    {
      "stop": {
        "id": "2_3714",
        "lat": 48.15249376,
        "lon": -1.82982513,
        "name": "Saint-Gilles Centre",
        "code": 3714
      },
      "arrival": 56460,
      "departure": 56460
    },
    {
      "stop": {
        "id": "2_3724",
        "lat": 48.15384342,
        "lon": -1.83404162,
        "name": "Clos des Cerisiers",
        "code": 3724
      },
      "arrival": 56460,
      "departure": 56460
    },
    {
      "stop": {
        "id": "2_3723",
        "lat": 48.15406034,
        "lon": -1.83781467,
        "name": "Maison Neuve",
        "code": 3723
      },
      "arrival": 56520,
      "departure": 56520
    },
    {
      "stop": {
        "id": "2_3732",
        "lat": 48.1493297,
        "lon": -1.83902413,
        "name": "Ile des Bois",
        "code": 3732
      },
      "arrival": 56640,
      "departure": 56640
    }
  ],
  "route": {
    "id": "2_0052",
    "textColor": "ffffff",
    "color": "007a76",
    "description": "Métropolitaine",
    "longName": "Saint-Gilles / Pacé \u003c\u003e Rennes (Villejean-Université) \u003c\u003e Montgermont / La Chapelle-des-Fougeretz",
    "shortName": "52",
    "type": 3,
    "agencyId": "2"
  }
}