{
  "headsign": "200 | Rennes Lycée Assomption",
  "stopTimes": [
    {
      "stop": {
        "id": "2_4001",
        "lat": 48.13701919,
        "lon": -1.52637517,
        "name": "Timonière",
        "code": 4001
      },
      "arrival": 27180,
      "departure": 27180
    },
    {
      "stop": {
        "id": "2_4002",
        "lat": 48.13696093,
        "lon": -1.53304901,
        "name": "Verdaudais",
        "code": 4002
      },
      "arrival": 27300,
      "departure": 27300
    },
    {
      "stop": {
        "id": "2_4003",
        "lat": 48.13419518,
        "lon": -1.53491257,
        "name": "Acigné Mairie",
        "code": 4003
      },
      "arrival": 27360,
      "departure": 27360
    },
    {
      "stop": {
        "id": "2_4004",
        "lat": 48.13391306,
        "lon": -1.53776926,
        "name": "Foyer",
        "code": 4004
      },
      "arrival": 27420,
      "departure": 27420
    },
    {
      "stop": {
        "id": "2_4018",
        "lat": 48.13398435,
        "lon": -1.54045772,
        "name": "Lande",
        "code": 4018
      },
      "arrival": 27480,
      "departure": 27480
    },
    {
      "stop": {
        "id": "2_4006",
        "lat": 48.13719872,
        "lon": -1.54956474,
        "name": "Pont d\u0027Ohin",
        "code": 4006
      },
      "arrival": 27600,
      "departure": 27600
    },
    {
      "stop": {
        "id": "2_4007",
        "lat": 48.13905954,
        "lon": -1.55878783,
        "name": "Boulais",
        "code": 4007
      },
      "arrival": 27660,
      "departure": 27660
    },
    {
      "stop": {
        "id": "2_3317",
        "lat": 48.14105238,
        "lon": -1.57365219,
        "name": "Pâtis du Moulinet",
        "code": 3317
      },
      "arrival": 27780,
      "departure": 27780
    },
    {
      "stop": {
        "id": "2_2101",
        "lat": 48.13172609,
        "lon": -1.59790196,
        "name": "Saint-Etienne",
        "code": 2101
      },
      "arrival": 28020,
      "departure": 28020
    },
    {
      "stop": {
        "id": "2_2079",
        "lat": 48.12879761,
        "lon": -1.60595425,
        "name": "Verger",
        "code": 2079
      },
      "arrival": 28080,
      "departure": 28080
    },
    {
      "stop": {
        "id": "2_2080",
        "lat": 48.12734995,
        "lon": -1.61277526,
        "name": "Gaudais",
        "code": 2080
      },
      "arrival": 28140,
      "departure": 28140
    },
    {
      "stop": {
        "id": "2_2082",
        "lat": 48.12693602,
        "lon": -1.61988832,
        "name": "Bouriande",
        "code": 2082
      },
      "arrival": 28260,
      "departure": 28260
    },
    {
      "stop": {
        "id": "2_2045",
        "lat": 48.12734821,
        "lon": -1.62821813,
        "name": "Clos Courtel",
        "code": 2045
      },
      "arrival": 28380,
      "departure": 28380
    },
    {
      "stop": {
        "id": "2_1177",
        "lat": 48.12187978,
        "lon": -1.640286,
        "name": "Beaulieu Restau U",
        "code": 1177
      },
      "arrival": 28500,
      "departure": 28500
    },
    {
      "stop": {
        "id": "2_1408",
        "lat": 48.11971485,
        "lon": -1.65129628,
        "name": "Vitré Péguy",
        "code": 1408
      },
      "arrival": 28680,
      "departure": 28680
    },
    {
      "stop": {
        "id": "2_1007",
        "lat": 48.12141888,
        "lon": -1.65505801,
        "name": "Assomption",
        "code": 1007
      },
      "arrival": 28800,
      "departure": 28800
    }
  ],
  "route": {
    "id": "2_0200",
    "textColor": "FFFFFF",
    "color": "BA67A6",
    "description": "Complémentaire",
    "longName": "Acigné (Timonière) \u003c\u003e Rennes (Lycée Assomption)",
    "shortName": "200",
    "type": 3,
    "agencyId": "2"
  }
}