{
  "headsign": "224 | Montgermont Chapelle Gévezé",
  "stopTimes": [
    {
      "stop": {
        "id": "2_2841",
        "lat": 48.16048,
        "lon": -1.676774,
        "name": "Parking scolaire Jean-Paul II",
        "code": 2841
      },
      "arrival": 44400,
      "departure": 44400
    },
    {
      "stop": {
        "id": "2_3509",
        "lat": 48.153005,
        "lon": -1.708878,
        "name": "Métrie",
        "code": 3509
      },
      "arrival": 44760,
      "departure": 44760
    },
    {
      "stop": {
        "id": "2_3510",
        "lat": 48.155558,
        "lon": -1.710743,
        "name": "Belle Epine",
        "code": 3510
      },
      "arrival": 44820,
      "departure": 44820
    },
    {
      "stop": {
        "id": "2_3511",
        "lat": 48.157373,
        "lon": -1.714588,
        "name": "Courtines",
        "code": 3511
      },
      "arrival": 44880,
      "departure": 44880
    },
    {
      "stop": {
        "id": "2_3512",
        "lat": 48.155644,
        "lon": -1.716708,
        "name": "Montgermont Mairie",
        "code": 3512
      },
      "arrival": 44940,
      "departure": 44940
    },
    {
      "stop": {
        "id": "2_3513",
        "lat": 48.155723,
        "lon": -1.720748,
        "name": "Pierre Texier",
        "code": 3513
      },
      "arrival": 45000,
      "departure": 45000
    },
    {
      "stop": {
        "id": "2_3501",
        "lat": 48.157089,
        "lon": -1.723308,
        "name": "Fougerolle",
        "code": 3501
      },
      "arrival": 45060,
      "departure": 45060
    },
    {
      "stop": {
        "id": "2_3515",
        "lat": 48.162759,
        "lon": -1.730576,
        "name": "Silandière",
        "code": 3515
      },
      "arrival": 45120,
      "departure": 45120
    },
    {
      "stop": {
        "id": "2_4057",
        "lat": 48.170401,
        "lon": -1.736205,
        "name": "Sénestrais",
        "code": 4057
      },
      "arrival": 45180,
      "departure": 45180
    },
    {
      "stop": {
        "id": "2_4058",
        "lat": 48.173991,
        "lon": -1.735178,
        "name": "Viennais",
        "code": 4058
      },
      "arrival": 45300,
      "departure": 45300
    },
    {
      "stop": {
        "id": "2_4059",
        "lat": 48.17669,
        "lon": -1.732757,
        "name": "Mairie",
        "code": 4059
      },
      "arrival": 45360,
      "departure": 45360
    },
    {
      "stop": {
        "id": "2_4060",
        "lat": 48.179388,
        "lon": -1.729057,
        "name": "Métairie",
        "code": 4060
      },
      "arrival": 45480,
      "departure": 45480
    },
    {
      "stop": {
        "id": "2_4069",
        "lat": 48.183129,
        "lon": -1.726001,
        "name": "Besneraie",
        "code": 4069
      },
      "arrival": 45600,
      "departure": 45600
    },
    {
      "stop": {
        "id": "2_4503",
        "lat": 48.218704,
        "lon": -1.784055,
        "name": "Flume",
        "code": 4503
      },
      "arrival": 46020,
      "departure": 46020
    },
    {
      "stop": {
        "id": "2_4505",
        "lat": 48.221027,
        "lon": -1.7882,
        "name": "Gévezé Mairie",
        "code": 4505
      },
      "arrival": 46140,
      "departure": 46140
    },
    {
      "stop": {
        "id": "2_4511",
        "lat": 48.223978,
        "lon": -1.793771,
        "name": "Prés Verts",
        "code": 4511
      },
      "arrival": 46260,
      "departure": 46260
    },
    {
      "stop": {
        "id": "2_4509",
        "lat": 48.224645,
        "lon": -1.800449,
        "name": "Coualeuc",
        "code": 4509
      },
      "arrival": 46320,
      "departure": 46320
    },
    {
      "stop": {
        "id": "2_4507",
        "lat": 48.221783,
        "lon": -1.802327,
        "name": "Cheval Blanc",
        "code": 4507
      },
      "arrival": 46440,
      "departure": 46440
    }
  ],
  "route": {
    "id": "2_0224",
    "textColor": "FFFFFF",
    "color": "009FE3",
    "description": "Complémentaire",
    "longName": "Gévezé (Cheval Blanc) \u003c\u003e Saint-Grégoire (Lycée Jean-Paul II)",
    "shortName": "224",
    "type": 3,
    "agencyId": "2"
  }
}