{
  "headsign": "91 | Bruz Centre",
  "stopTimes": [
    {
      "stop": {
        "id": "2_2327",
        "lat": 48.00482969,
        "lon": -1.77507929,
        "name": "Pont-Réan",
        "code": 2327
      },
      "arrival": 36780,
      "departure": 36780
    },
    {
      "stop": {
        "id": "2_2346",
        "lat": 48.00857085,
        "lon": -1.77378638,
        "name": "Croix Vaisserelle",
        "code": 2346
      },
      "arrival": 36840,
      "departure": 36840
    },
    {
      "stop": {
        "id": "2_2330",
        "lat": 48.02406274,
        "lon": -1.76166931,
        "name": "Rabine",
        "code": 2330
      },
      "arrival": 37080,
      "departure": 37080
    },
    {
      "stop": {
        "id": "2_2324",
        "lat": 48.02463005,
        "lon": -1.7572317,
        "name": "Haut Launay",
        "code": 2324
      },
      "arrival": 37140,
      "departure": 37140
    },
    {
      "stop": {
        "id": "2_2325",
        "lat": 48.02481885,
        "lon": -1.75055599,
        "name": "Herverie",
        "code": 2325
      },
      "arrival": 37200,
      "departure": 37200
    },
    {
      "stop": {
        "id": "2_2301",
        "lat": 48.02452888,
        "lon": -1.74523499,
        "name": "Bruz Centre",
        "code": 2301
      },
      "arrival": 37260,
      "departure": 37260
    }
  ],
  "route": {
    "id": "2_0091",
    "textColor": "df171c",
    "color": "8fc255",
    "description": "Intercommunale",
    "longName": "Bruz / Chartres \u003c\u003e Noyal-Châtillon-sur-Seiche",
    "shortName": "91",
    "type": 3,
    "agencyId": "2"
  }
}