{
  "headsign": "74 | Orgères Surcouf",
  "stopTimes": [
    {
      "stop": {
        "id": "2_3810",
        "lat": 47.95999343,
        "lon": -1.63242683,
        "name": "Moc Souris",
        "code": 3810
      },
      "arrival": 29100,
      "departure": 29100
    },
    {
      "stop": {
        "id": "2_3812",
        "lat": 47.95956133,
        "lon": -1.63697915,
        "name": "Sept Fours",
        "code": 3812
      },
      "arrival": 29160,
      "departure": 29160
    },
    {
      "stop": {
        "id": "2_3201",
        "lat": 47.96978577,
        "lon": -1.64606293,
        "name": "Fort Joual",
        "code": 3201
      },
      "arrival": 29340,
      "departure": 29340
    },
    {
      "stop": {
        "id": "2_3202",
        "lat": 47.97535633,
        "lon": -1.65131769,
        "name": "Frogerais",
        "code": 3202
      },
      "arrival": 29460,
      "departure": 29460
    },
    {
      "stop": {
        "id": "2_3203",
        "lat": 47.97625763,
        "lon": -1.65746531,
        "name": "Petite Rochelle",
        "code": 3203
      },
      "arrival": 29520,
      "departure": 29520
    },
    {
      "stop": {
        "id": "2_3204",
        "lat": 47.98326978,
        "lon": -1.66000223,
        "name": "Télégraphe",
        "code": 3204
      },
      "arrival": 29640,
      "departure": 29640
    },
    {
      "stop": {
        "id": "2_3209",
        "lat": 47.99249678,
        "lon": -1.66873811,
        "name": "Surcouf",
        "code": 3209
      },
      "arrival": 29940,
      "departure": 29940
    }
  ],
  "route": {
    "id": "2_0074",
    "textColor": "1A171B",
    "color": "FCC000",
    "description": "Métropolitaine",
    "longName": "Rennes (Henri Fréville) \u003c\u003e Orgères / Bourgbarré",
    "shortName": "74",
    "type": 3,
    "agencyId": "2"
  }
}