{
  "headsign": "236 | Pacé Collège Saint-Gabriel",
  "stopTimes": [
    {
      "stop": {
        "id": "2_3617",
        "lat": 48.193762,
        "lon": -1.832214,
        "name": "Parthenay Fontaine",
        "code": 3617
      },
      "arrival": 28800,
      "departure": 28800
    },
    {
      "stop": {
        "id": "2_3602",
        "lat": 48.192003,
        "lon": -1.831209,
        "name": "Parthenay Mairie",
        "code": 3602
      },
      "arrival": 28920,
      "departure": 28920
    },
    {
      "stop": {
        "id": "2_3603",
        "lat": 48.191638,
        "lon": -1.827121,
        "name": "Clos des Tilleuls",
        "code": 3603
      },
      "arrival": 28980,
      "departure": 28980
    },
    {
      "stop": {
        "id": "2_3604",
        "lat": 48.191281,
        "lon": -1.824629,
        "name": "La Noë",
        "code": 3604
      },
      "arrival": 29040,
      "departure": 29040
    },
    {
      "stop": {
        "id": "2_3605",
        "lat": 48.189982,
        "lon": -1.820845,
        "name": "Placis de la Touche",
        "code": 3605
      },
      "arrival": 29100,
      "departure": 29100
    },
    {
      "stop": {
        "id": "2_3606",
        "lat": 48.186405,
        "lon": -1.816641,
        "name": "Le Reuvre",
        "code": 3606
      },
      "arrival": 29220,
      "departure": 29220
    },
    {
      "stop": {
        "id": "2_3145",
        "lat": 48.179959,
        "lon": -1.801675,
        "name": "Touche Champagne",
        "code": 3145
      },
      "arrival": 29340,
      "departure": 29340
    },
    {
      "stop": {
        "id": "2_3123",
        "lat": 48.174088,
        "lon": -1.789401,
        "name": "Chapitre",
        "code": 3123
      },
      "arrival": 29460,
      "departure": 29460
    },
    {
      "stop": {
        "id": "2_3142",
        "lat": 48.167342,
        "lon": -1.787109,
        "name": "Haute Rabine",
        "code": 3142
      },
      "arrival": 29580,
      "departure": 29580
    },
    {
      "stop": {
        "id": "2_3136",
        "lat": 48.15469,
        "lon": -1.784414,
        "name": "Pont Amelin",
        "code": 3136
      },
      "arrival": 29700,
      "departure": 29700
    },
    {
      "stop": {
        "id": "2_3107",
        "lat": 48.151185,
        "lon": -1.77754,
        "name": "Renan",
        "code": 3107
      },
      "arrival": 29820,
      "departure": 29820
    },
    {
      "stop": {
        "id": "2_3108",
        "lat": 48.151022,
        "lon": -1.772024,
        "name": "Duchesse Anne",
        "code": 3108
      },
      "arrival": 29940,
      "departure": 29940
    },
    {
      "stop": {
        "id": "2_3162",
        "lat": 48.152582,
        "lon": -1.771502,
        "name": "Centre scolaire Pacé",
        "code": 3162
      },
      "arrival": 30000,
      "departure": 30000
    }
  ],
  "route": {
    "id": "2_0236",
    "textColor": "1A171B",
    "color": "F29FC5",
    "description": "Complémentaire",
    "longName": "Clayes (Clairville) \u003c\u003e Pacé (Collège Saint-Gabriel)",
    "shortName": "236",
    "type": 3,
    "agencyId": "2"
  }
}