{
  "headsign": "11 | Saint-Saëns Monniais Brécé",
  "stopTimes": [
    {
      "stop": {
        "id": "2_1242",
        "lat": 48.10980333,
        "lon": -1.6795219,
        "name": "République",
        "code": 1242
      },
      "arrival": 86400,
      "departure": 86460
    },
    {
      "stop": {
        "id": "2_1088",
        "lat": 48.10744897,
        "lon": -1.67491383,
        "name": "Liberté TNB",
        "code": 1088
      },
      "arrival": 86580,
      "departure": 86580
    },
    {
      "stop": {
        "id": "2_1087",
        "lat": 48.1060299,
        "lon": -1.67410184,
        "name": "Champs Libres",
        "code": 1087
      },
      "arrival": 86640,
      "departure": 86640
    },
    {
      "stop": {
        "id": "2_1086",
        "lat": 48.10400351,
        "lon": -1.67201145,
        "name": "Gares",
        "code": 1086
      },
      "arrival": 86700,
      "departure": 86700
    },
    {
      "stop": {
        "id": "2_1085",
        "lat": 48.10473324,
        "lon": -1.66565625,
        "name": "Laënnec",
        "code": 1085
      },
      "arrival": 86820,
      "departure": 86820
    },
    {
      "stop": {
        "id": "2_1243",
        "lat": 48.10254897,
        "lon": -1.66111869,
        "name": "Croix Saint-Hélier",
        "code": 1243
      },
      "arrival": 86880,
      "departure": 86880
    },
    {
      "stop": {
        "id": "2_1244",
        "lat": 48.10229227,
        "lon": -1.65513195,
        "name": "Mouézy",
        "code": 1244
      },
      "arrival": 86940,
      "departure": 86940
    },
    {
      "stop": {
        "id": "2_1211",
        "lat": 48.10317679,
        "lon": -1.65251241,
        "name": "Serpette",
        "code": 1211
      },
      "arrival": 86940,
      "departure": 86940
    },
    {
      "stop": {
        "id": "2_1246",
        "lat": 48.10439597,
        "lon": -1.64934184,
        "name": "Cimetière de l\u0027Est",
        "code": 1246
      },
      "arrival": 87000,
      "departure": 87000
    },
    {
      "stop": {
        "id": "2_1247",
        "lat": 48.10491097,
        "lon": -1.64382886,
        "name": "Pavie",
        "code": 1247
      },
      "arrival": 87060,
      "departure": 87060
    },
    {
      "stop": {
        "id": "2_1248",
        "lat": 48.10398522,
        "lon": -1.63598216,
        "name": "Saint-Saëns",
        "code": 1248
      },
      "arrival": 87180,
      "departure": 87180
    },
    {
      "stop": {
        "id": "2_2037",
        "lat": 48.1060664,
        "lon": -1.62569408,
        "name": "Erbonière",
        "code": 2037
      },
      "arrival": 87300,
      "departure": 87300
    },
    {
      "stop": {
        "id": "2_2062",
        "lat": 48.10782767,
        "lon": -1.61408468,
        "name": "Rond Point de Bray",
        "code": 2062
      },
      "arrival": 87420,
      "departure": 87420
    },
    {
      "stop": {
        "id": "2_2063",
        "lat": 48.1093024,
        "lon": -1.6089112,
        "name": "Monniais",
        "code": 2063
      },
      "arrival": 87480,
      "departure": 87480
    },
    {
      "stop": {
        "id": "2_2064",
        "lat": 48.11257019,
        "lon": -1.60740614,
        "name": "Peupliers",
        "code": 2064
      },
      "arrival": 87540,
      "departure": 87540
    },
    {
      "stop": {
        "id": "2_2065",
        "lat": 48.11382762,
        "lon": -1.60314125,
        "name": "Cesson Gare",
        "code": 2065
      },
      "arrival": 87600,
      "departure": 87600
    },
    {
      "stop": {
        "id": "2_2086",
        "lat": 48.11430452,
        "lon": -1.60048414,
        "name": "Bordage",
        "code": 2086
      },
      "arrival": 87660,
      "departure": 87660
    },
    {
      "stop": {
        "id": "2_2103",
        "lat": 48.11334833,
        "lon": -1.59001633,
        "name": "Rigourdière",
        "code": 2103
      },
      "arrival": 87780,
      "departure": 87780
    },
    {
      "stop": {
        "id": "2_4163",
        "lat": 48.10829229,
        "lon": -1.50738732,
        "name": "Turbanière",
        "code": 4163
      },
      "arrival": 88260,
      "departure": 88260
    },
    {
      "stop": {
        "id": "2_4157",
        "lat": 48.10929687,
        "lon": -1.50327411,
        "name": "Pâtis",
        "code": 4157
      },
      "arrival": 88320,
      "departure": 88320
    },
    {
      "stop": {
        "id": "2_4158",
        "lat": 48.10759324,
        "lon": -1.48603777,
        "name": "Destiers",
        "code": 4158
      },
      "arrival": 88380,
      "departure": 88380
    },
    {
      "stop": {
        "id": "2_4159",
        "lat": 48.10748041,
        "lon": -1.48261,
        "name": "Provence",
        "code": 4159
      },
      "arrival": 88440,
      "departure": 88440
    },
    {
      "stop": {
        "id": "2_4160",
        "lat": 48.10721432,
        "lon": -1.47846948,
        "name": "Saules",
        "code": 4160
      },
      "arrival": 88500,
      "departure": 88500
    },
    {
      "stop": {
        "id": "2_4161",
        "lat": 48.10901928,
        "lon": -1.47840717,
        "name": "Mainguère",
        "code": 4161
      },
      "arrival": 88500,
      "departure": 88500
    },
    {
      "stop": {
        "id": "2_4151",
        "lat": 48.10975091,
        "lon": -1.48097238,
        "name": "Anjou",
        "code": 4151
      },
      "arrival": 88560,
      "departure": 88560
    }
  ],
  "route": {
    "id": "2_0011",
    "textColor": "FFFFFF",
    "color": "DC81AE",
    "description": "Urbaine",
    "longName": "ZI Ouest / Stade Rennais \u003c\u003e Saint-Saëns / ZI Sud-Est",
    "shortName": "11",
    "type": 3,
    "agencyId": "2"
  }
}