{
  "headsign": "79 | Rennes Henri Fréville",
  "stopTimes": [
    {
      "stop": {
        "id": "2_4708",
        "lat": 47.98011176,
        "lon": -1.73091351,
        "name": "Gingouillère",
        "code": 4708
      },
      "arrival": 64980,
      "departure": 64980
    },
    {
      "stop": {
        "id": "2_4706",
        "lat": 47.97919538,
        "lon": -1.72431463,
        "name": "Châtaigneraie",
        "code": 4706
      },
      "arrival": 65040,
      "departure": 65040
    },
    {
      "stop": {
        "id": "2_4704",
        "lat": 47.97811777,
        "lon": -1.72042832,
        "name": "Laillé Eglise",
        "code": 4704
      },
      "arrival": 65100,
      "departure": 65100
    },
    {
      "stop": {
        "id": "2_4702",
        "lat": 47.97544241,
        "lon": -1.71712085,
        "name": "Orée du Bois",
        "code": 4702
      },
      "arrival": 65160,
      "departure": 65160
    },
    {
      "stop": {
        "id": "2_4700",
        "lat": 47.97844407,
        "lon": -1.71368953,
        "name": "Point du Jour",
        "code": 4700
      },
      "arrival": 65220,
      "departure": 65220
    },
    {
      "stop": {
        "id": "2_3903",
        "lat": 48.01062006,
        "lon": -1.70099518,
        "name": "Mouton Blanc",
        "code": 3903
      },
      "arrival": 65700,
      "departure": 65700
    },
    {
      "stop": {
        "id": "2_3913",
        "lat": 48.01296314,
        "lon": -1.703044,
        "name": "Chemin Vert",
        "code": 3913
      },
      "arrival": 65760,
      "departure": 65760
    },
    {
      "stop": {
        "id": "2_3905",
        "lat": 48.01057926,
        "lon": -1.70697013,
        "name": "Pont Péan Mairie",
        "code": 3905
      },
      "arrival": 65820,
      "departure": 65820
    },
    {
      "stop": {
        "id": "2_3906",
        "lat": 48.0136449,
        "lon": -1.70763245,
        "name": "Rivaudière",
        "code": 3906
      },
      "arrival": 65880,
      "departure": 65880
    },
    {
      "stop": {
        "id": "2_3907",
        "lat": 48.01629245,
        "lon": -1.70567784,
        "name": "Fontaine Blanche",
        "code": 3907
      },
      "arrival": 65940,
      "departure": 65940
    },
    {
      "stop": {
        "id": "2_1510",
        "lat": 48.08777948,
        "lon": -1.67446532,
        "name": "Henri Fréville",
        "code": 1510
      },
      "arrival": 66600,
      "departure": 66600
    }
  ],
  "route": {
    "id": "2_0079",
    "textColor": "26171B",
    "color": "62C3D5",
    "description": "Métropolitaine",
    "longName": "Rennes (Henri Fréville) \u003c\u003e Laillé",
    "shortName": "79",
    "type": 3,
    "agencyId": "2"
  }
}