{
  "headsign": "240 | L\u0027Hermitage Saint-Gilles",
  "stopTimes": [
    {
      "stop": {
        "id": "2_2534",
        "lat": 48.098948,
        "lon": -1.800305,
        "name": "Parking scolaire Brassens",
        "code": 2534
      },
      "arrival": 57600,
      "departure": 57600
    },
    {
      "stop": {
        "id": "2_2502",
        "lat": 48.100526,
        "lon": -1.806596,
        "name": "Lycée Monod",
        "code": 2502
      },
      "arrival": 57720,
      "departure": 57720
    },
    {
      "stop": {
        "id": "2_4307",
        "lat": 48.123516,
        "lon": -1.807448,
        "name": "Clairefontaine",
        "code": 4307
      },
      "arrival": 58260,
      "departure": 58260
    },
    {
      "stop": {
        "id": "2_4308",
        "lat": 48.125058,
        "lon": -1.813014,
        "name": "Village",
        "code": 4308
      },
      "arrival": 58320,
      "departure": 58320
    },
    {
      "stop": {
        "id": "2_4304",
        "lat": 48.125578,
        "lon": -1.815962,
        "name": "L\u0027Hermitage Centre",
        "code": 4304
      },
      "arrival": 58380,
      "departure": 58380
    },
    {
      "stop": {
        "id": "2_3714",
        "lat": 48.152522,
        "lon": -1.829773,
        "name": "Saint-Gilles Centre",
        "code": 3714
      },
      "arrival": 58740,
      "departure": 58740
    },
    {
      "stop": {
        "id": "2_3724",
        "lat": 48.153843,
        "lon": -1.834042,
        "name": "Clos des Cerisiers",
        "code": 3724
      },
      "arrival": 58860,
      "departure": 58860
    },
    {
      "stop": {
        "id": "2_3723",
        "lat": 48.15406,
        "lon": -1.837815,
        "name": "Maison Neuve",
        "code": 3723
      },
      "arrival": 58920,
      "departure": 58920
    },
    {
      "stop": {
        "id": "2_3732",
        "lat": 48.14933,
        "lon": -1.839024,
        "name": "Ile des Bois",
        "code": 3732
      },
      "arrival": 59040,
      "departure": 59040
    }
  ],
  "route": {
    "id": "2_0240",
    "textColor": "FFFFFF",
    "color": "005BAB",
    "description": "Complémentaire",
    "longName": "Saint-Gilles (Île des Bois) \u003c\u003e Le Rheu (Lycée Théodore Monod)",
    "shortName": "240",
    "type": 3,
    "agencyId": "2"
  }
}