{
  "headsign": "229 | Chavagne Croix Blanche",
  "stopTimes": [
    {
      "stop": {
        "id": "2_2367",
        "lat": 48.033353,
        "lon": -1.733602,
        "name": "Anita Conti",
        "code": 2367
      },
      "arrival": 65280,
      "departure": 65280
    },
    {
      "stop": {
        "id": "2_2306",
        "lat": 48.033686,
        "lon": -1.765896,
        "name": "Cicé Blossac",
        "code": 2306
      },
      "arrival": 65880,
      "departure": 65880
    },
    {
      "stop": {
        "id": "2_2308",
        "lat": 48.041413,
        "lon": -1.754424,
        "name": "Croix Madame",
        "code": 2308
      },
      "arrival": 66060,
      "departure": 66060
    },
    {
      "stop": {
        "id": "2_4209",
        "lat": 48.054115,
        "lon": -1.783746,
        "name": "Avenir",
        "code": 4209
      },
      "arrival": 66420,
      "departure": 66420
    },
    {
      "stop": {
        "id": "2_4203",
        "lat": 48.05512,
        "lon": -1.790086,
        "name": "Alfred de Musset",
        "code": 4203
      },
      "arrival": 66540,
      "departure": 66540
    },
    {
      "stop": {
        "id": "2_4211",
        "lat": 48.052438,
        "lon": -1.790592,
        "name": "Calvaire",
        "code": 4211
      },
      "arrival": 66600,
      "departure": 66600
    },
    {
      "stop": {
        "id": "2_4201",
        "lat": 48.051925,
        "lon": -1.797682,
        "name": "Croix Blanche",
        "code": 4201
      },
      "arrival": 66720,
      "departure": 66720
    }
  ],
  "route": {
    "id": "2_0229",
    "textColor": "1A171B",
    "color": "FECC00",
    "description": "Complémentaire",
    "longName": "Chavagne (Croix Blanche) \u003c\u003e Bruz (Lycée Anita Conti)",
    "shortName": "229",
    "type": 3,
    "agencyId": "2"
  }
}