{
  "headsign": "232 | Saint-Erblon Leuzières",
  "stopTimes": [
    {
      "stop": {
        "id": "2_3246",
        "lat": 48.002386,
        "lon": -1.668891,
        "name": "Collège Récipon",
        "code": 3246
      },
      "arrival": 61800,
      "departure": 61800
    },
    {
      "stop": {
        "id": "2_3213",
        "lat": 48.009507,
        "lon": -1.66592,
        "name": "Plardière",
        "code": 3213
      },
      "arrival": 62100,
      "departure": 62100
    },
    {
      "stop": {
        "id": "2_3250",
        "lat": 48.014928,
        "lon": -1.663838,
        "name": "Orgerblon",
        "code": 3250
      },
      "arrival": 62160,
      "departure": 62160
    },
    {
      "stop": {
        "id": "2_4356",
        "lat": 48.017076,
        "lon": -1.664587,
        "name": "Croix du Pigeonnet",
        "code": 4356
      },
      "arrival": 62160,
      "departure": 62160
    },
    {
      "stop": {
        "id": "2_4352",
        "lat": 48.018873,
        "lon": -1.657716,
        "name": "Champ Mulon",
        "code": 4352
      },
      "arrival": 62280,
      "departure": 62280
    },
    {
      "stop": {
        "id": "2_4353",
        "lat": 48.017654,
        "lon": -1.654585,
        "name": "Paul Féval",
        "code": 4353
      },
      "arrival": 62340,
      "departure": 62340
    },
    {
      "stop": {
        "id": "2_4362",
        "lat": 48.016196,
        "lon": -1.651517,
        "name": "Alexandre Gilois",
        "code": 4362
      },
      "arrival": 62400,
      "departure": 62400
    },
    {
      "stop": {
        "id": "2_4373",
        "lat": 48.014673,
        "lon": -1.646005,
        "name": "Le Plessix",
        "code": 4373
      },
      "arrival": 62520,
      "departure": 62520
    },
    {
      "stop": {
        "id": "2_4358",
        "lat": 48.017644,
        "lon": -1.649467,
        "name": "Croix Faucheux",
        "code": 4358
      },
      "arrival": 62640,
      "departure": 62640
    },
    {
      "stop": {
        "id": "2_4359",
        "lat": 48.021537,
        "lon": -1.653502,
        "name": "Leuzières",
        "code": 4359
      },
      "arrival": 62760,
      "departure": 62760
    }
  ],
  "route": {
    "id": "2_0232",
    "textColor": "FFFFFF",
    "color": "94C11F",
    "description": "Complémentaire",
    "longName": "Saint-Erblon (Leuzières) \u003c\u003e Orgères (Collège Andrée Récipon)",
    "shortName": "232",
    "type": 3,
    "agencyId": "2"
  }
}