{
  "headsign": "227 | Pacé Collège Saint-Gabriel",
  "stopTimes": [
    {
      "stop": {
        "id": "2_3732",
        "lat": 48.14933,
        "lon": -1.839024,
        "name": "Ile des Bois",
        "code": 3732
      },
      "arrival": 31920,
      "departure": 31920
    },
    {
      "stop": {
        "id": "2_3717",
        "lat": 48.153985,
        "lon": -1.8376,
        "name": "Maison Neuve",
        "code": 3717
      },
      "arrival": 32040,
      "departure": 32040
    },
    {
      "stop": {
        "id": "2_3715",
        "lat": 48.153745,
        "lon": -1.834034,
        "name": "Clos des Cerisiers",
        "code": 3715
      },
      "arrival": 32100,
      "departure": 32100
    },
    {
      "stop": {
        "id": "2_3705",
        "lat": 48.15298,
        "lon": -1.829806,
        "name": "Saint-Gilles Centre",
        "code": 3705
      },
      "arrival": 32160,
      "departure": 32160
    },
    {
      "stop": {
        "id": "2_3707",
        "lat": 48.150683,
        "lon": -1.825279,
        "name": "Pont aux Moines",
        "code": 3707
      },
      "arrival": 32280,
      "departure": 32280
    },
    {
      "stop": {
        "id": "2_3708",
        "lat": 48.152801,
        "lon": -1.820678,
        "name": "Vigne",
        "code": 3708
      },
      "arrival": 32340,
      "departure": 32340
    },
    {
      "stop": {
        "id": "2_3709",
        "lat": 48.152952,
        "lon": -1.809229,
        "name": "Fouaye",
        "code": 3709
      },
      "arrival": 32400,
      "departure": 32400
    },
    {
      "stop": {
        "id": "2_3754",
        "lat": 48.12091,
        "lon": -1.772466,
        "name": "Haie de Terre",
        "code": 3754
      },
      "arrival": 32820,
      "departure": 32820
    },
    {
      "stop": {
        "id": "2_3755",
        "lat": 48.120211,
        "lon": -1.765417,
        "name": "Vallée",
        "code": 3755
      },
      "arrival": 32820,
      "departure": 32820
    },
    {
      "stop": {
        "id": "2_3756",
        "lat": 48.119004,
        "lon": -1.760926,
        "name": "Lion d\u0027Or",
        "code": 3756
      },
      "arrival": 32880,
      "departure": 32880
    },
    {
      "stop": {
        "id": "2_3757",
        "lat": 48.11887,
        "lon": -1.756833,
        "name": "Vezin Centre",
        "code": 3757
      },
      "arrival": 32940,
      "departure": 32940
    },
    {
      "stop": {
        "id": "2_3767",
        "lat": 48.122951,
        "lon": -1.755366,
        "name": "Fresnot",
        "code": 3767
      },
      "arrival": 33000,
      "departure": 33000
    },
    {
      "stop": {
        "id": "2_3159",
        "lat": 48.152373,
        "lon": -1.771551,
        "name": "Centre scolaire Pacé",
        "code": 3159
      },
      "arrival": 33600,
      "departure": 33600
    }
  ],
  "route": {
    "id": "2_0227",
    "textColor": "FFFFFF",
    "color": "BCA3CE",
    "description": "Complémentaire",
    "longName": "Saint-Gilles (Île des Bois) \u003c\u003e Pacé (Collège Saint-Gabriel)",
    "shortName": "227",
    "type": 3,
    "agencyId": "2"
  }
}