{
  "headsign": "232 | Saint-Erblon Leuzières",
  "stopTimes": [
    {
      "stop": {
        "id": "2_3246",
        "lat": 48.002386,
        "lon": -1.668891,
        "name": "Parking scolaire Récipon",
        "code": 3246
      },
      "arrival": 45600,
      "departure": 45600
    },
    {
      "stop": {
        "id": "2_3213",
        "lat": 48.00908,
        "lon": -1.666351,
        "name": "Plardière",
        "code": 3213
      },
      "arrival": 45900,
      "departure": 45900
    },
    {
      "stop": {
        "id": "2_3250",
        "lat": 48.014928,
        "lon": -1.663838,
        "name": "Orgerblon",
        "code": 3250
      },
      "arrival": 45960,
      "departure": 45960
    },
    {
      "stop": {
        "id": "2_4356",
        "lat": 48.017076,
        "lon": -1.664587,
        "name": "Croix du Pigeonnet",
        "code": 4356
      },
      "arrival": 45960,
      "departure": 45960
    },
    {
      "stop": {
        "id": "2_4352",
        "lat": 48.018873,
        "lon": -1.657716,
        "name": "Champ Mulon",
        "code": 4352
      },
      "arrival": 46080,
      "departure": 46080
    },
    {
      "stop": {
        "id": "2_4353",
        "lat": 48.017654,
        "lon": -1.654585,
        "name": "Paul Féval",
        "code": 4353
      },
      "arrival": 46140,
      "departure": 46140
    },
    {
      "stop": {
        "id": "2_4362",
        "lat": 48.016196,
        "lon": -1.651517,
        "name": "Alexandre Gilois",
        "code": 4362
      },
      "arrival": 46200,
      "departure": 46200
    },
    {
      "stop": {
        "id": "2_4373",
        "lat": 48.014673,
        "lon": -1.646005,
        "name": "Le Plessix",
        "code": 4373
      },
      "arrival": 46320,
      "departure": 46320
    },
    {
      "stop": {
        "id": "2_4358",
        "lat": 48.017644,
        "lon": -1.649467,
        "name": "Croix Faucheux",
        "code": 4358
      },
      "arrival": 46440,
      "departure": 46440
    },
    {
      "stop": {
        "id": "2_4359",
        "lat": 48.021537,
        "lon": -1.653502,
        "name": "Leuzières",
        "code": 4359
      },
      "arrival": 46560,
      "departure": 46560
    }
  ],
  "route": {
    "id": "2_0232",
    "textColor": "FFFFFF",
    "color": "94C11F",
    "description": "Complémentaire",
    "longName": "Saint-Erblon (Leuzières) \u003c\u003e Orgères (Collège Andrée Récipon)",
    "shortName": "232",
    "type": 3,
    "agencyId": "2"
  }
}