{
  "headsign": "64 | Acigné",
  "stopTimes": [
    {
      "stop": {
        "id": "2_1167",
        "lat": 48.10936738,
        "lon": -1.678658,
        "name": "République Pré Botté",
        "code": 1167
      },
      "arrival": 46200,
      "departure": 46200
    },
    {
      "stop": {
        "id": "2_1169",
        "lat": 48.10985335,
        "lon": -1.67452094,
        "name": "Musée Beaux Arts",
        "code": 1169
      },
      "arrival": 46380,
      "departure": 46380
    },
    {
      "stop": {
        "id": "2_1172",
        "lat": 48.11007924,
        "lon": -1.65919453,
        "name": "Robidou",
        "code": 1172
      },
      "arrival": 46560,
      "departure": 46560
    },
    {
      "stop": {
        "id": "2_1515",
        "lat": 48.11350079,
        "lon": -1.64755396,
        "name": "Moulin de Joué",
        "code": 1515
      },
      "arrival": 46680,
      "departure": 46680
    },
    {
      "stop": {
        "id": "2_1516",
        "lat": 48.11607506,
        "lon": -1.64842117,
        "name": "Bois Perrin",
        "code": 1516
      },
      "arrival": 46740,
      "departure": 46740
    },
    {
      "stop": {
        "id": "2_1201",
        "lat": 48.11911266,
        "lon": -1.64919701,
        "name": "Vitré Foulon",
        "code": 1201
      },
      "arrival": 46800,
      "departure": 46800
    },
    {
      "stop": {
        "id": "2_1202",
        "lat": 48.1206205,
        "lon": -1.64433521,
        "name": "Beaulieu Cité U",
        "code": 1202
      },
      "arrival": 46860,
      "departure": 46860
    },
    {
      "stop": {
        "id": "2_1203",
        "lat": 48.12203302,
        "lon": -1.6395994,
        "name": "Beaulieu Restau U",
        "code": 1203
      },
      "arrival": 46860,
      "departure": 46860
    },
    {
      "stop": {
        "id": "2_2046",
        "lat": 48.12733271,
        "lon": -1.62783456,
        "name": "Clos Courtel",
        "code": 2046
      },
      "arrival": 46980,
      "departure": 46980
    },
    {
      "stop": {
        "id": "2_2047",
        "lat": 48.12725634,
        "lon": -1.62413052,
        "name": "Belle Fontaine",
        "code": 2047
      },
      "arrival": 46980,
      "departure": 46980
    },
    {
      "stop": {
        "id": "2_2081",
        "lat": 48.1268256,
        "lon": -1.61994598,
        "name": "Bouriande",
        "code": 2081
      },
      "arrival": 47040,
      "departure": 47040
    },
    {
      "stop": {
        "id": "2_2083",
        "lat": 48.12696193,
        "lon": -1.61439739,
        "name": "Gaudais",
        "code": 2083
      },
      "arrival": 47100,
      "departure": 47100
    },
    {
      "stop": {
        "id": "2_2084",
        "lat": 48.12903982,
        "lon": -1.60483093,
        "name": "Verger",
        "code": 2084
      },
      "arrival": 47160,
      "departure": 47160
    },
    {
      "stop": {
        "id": "2_3316",
        "lat": 48.13215304,
        "lon": -1.59643107,
        "name": "Saint-Etienne",
        "code": 3316
      },
      "arrival": 47220,
      "departure": 47220
    },
    {
      "stop": {
        "id": "2_3318",
        "lat": 48.14093339,
        "lon": -1.57346681,
        "name": "Pâtis du Moulinet",
        "code": 3318
      },
      "arrival": 47400,
      "departure": 47400
    },
    {
      "stop": {
        "id": "2_4008",
        "lat": 48.13908696,
        "lon": -1.55947698,
        "name": "Boulais",
        "code": 4008
      },
      "arrival": 47460,
      "departure": 47460
    },
    {
      "stop": {
        "id": "2_4009",
        "lat": 48.13686615,
        "lon": -1.54860696,
        "name": "Pont d\u0027Ohin",
        "code": 4009
      },
      "arrival": 47520,
      "departure": 47520
    },
    {
      "stop": {
        "id": "2_4010",
        "lat": 48.13448302,
        "lon": -1.54192503,
        "name": "Lande",
        "code": 4010
      },
      "arrival": 47580,
      "departure": 47580
    },
    {
      "stop": {
        "id": "2_4011",
        "lat": 48.13388288,
        "lon": -1.53762999,
        "name": "Foyer",
        "code": 4011
      },
      "arrival": 47640,
      "departure": 47640
    },
    {
      "stop": {
        "id": "2_4012",
        "lat": 48.13417021,
        "lon": -1.5347181,
        "name": "Acigné Mairie",
        "code": 4012
      },
      "arrival": 47700,
      "departure": 47700
    },
    {
      "stop": {
        "id": "2_4013",
        "lat": 48.13716322,
        "lon": -1.53294519,
        "name": "Verdaudais",
        "code": 4013
      },
      "arrival": 47760,
      "departure": 47760
    },
    {
      "stop": {
        "id": "2_4001",
        "lat": 48.13701919,
        "lon": -1.52637517,
        "name": "Timonière",
        "code": 4001
      },
      "arrival": 47880,
      "departure": 47880
    }
  ],
  "route": {
    "id": "2_0064",
    "textColor": "FFFFFF",
    "color": "0094D8",
    "description": "Métropolitaine",
    "longName": "Rennes (République) \u003c\u003e Acigné",
    "shortName": "64",
    "type": 3,
    "agencyId": "2"
  }
}