{
  "headsign": "78 | Saint-Grégoire Betton Centre",
  "stopTimes": [
    {
      "stop": {
        "id": "2_1497",
        "lat": 48.12102411,
        "lon": -1.70300103,
        "name": "Villejean-Université",
        "code": 1497
      },
      "arrival": 44100,
      "departure": 44100
    },
    {
      "stop": {
        "id": "2_1495",
        "lat": 48.12663856,
        "lon": -1.69309309,
        "name": "Lycée Basch",
        "code": 1495
      },
      "arrival": 44340,
      "departure": 44340
    },
    {
      "stop": {
        "id": "2_1543",
        "lat": 48.13134643,
        "lon": -1.69183512,
        "name": "Léonard",
        "code": 1543
      },
      "arrival": 44400,
      "departure": 44400
    },
    {
      "stop": {
        "id": "2_2826",
        "lat": 48.13558496,
        "lon": -1.69298612,
        "name": "Grand Quartier",
        "code": 2826
      },
      "arrival": 44520,
      "departure": 44520
    },
    {
      "stop": {
        "id": "2_2816",
        "lat": 48.13819857,
        "lon": -1.68643094,
        "name": "La Plesse",
        "code": 2816
      },
      "arrival": 44580,
      "departure": 44580
    },
    {
      "stop": {
        "id": "2_2814",
        "lat": 48.14290311,
        "lon": -1.68658457,
        "name": "CHP Saint-Grégoire",
        "code": 2814
      },
      "arrival": 44640,
      "departure": 44640
    },
    {
      "stop": {
        "id": "2_2839",
        "lat": 48.15439187,
        "lon": -1.69663974,
        "name": "Alphasis",
        "code": 2839
      },
      "arrival": 44880,
      "departure": 44880
    },
    {
      "stop": {
        "id": "2_2849",
        "lat": 48.15440619,
        "lon": -1.69248227,
        "name": "Paul-Emile Victor",
        "code": 2849
      },
      "arrival": 44940,
      "departure": 44940
    },
    {
      "stop": {
        "id": "2_2847",
        "lat": 48.15181495,
        "lon": -1.68451783,
        "name": "Forge",
        "code": 2847
      },
      "arrival": 45120,
      "departure": 45120
    },
    {
      "stop": {
        "id": "2_2832",
        "lat": 48.15462598,
        "lon": -1.67885041,
        "name": "Holywell",
        "code": 2832
      },
      "arrival": 45240,
      "departure": 45240
    },
    {
      "stop": {
        "id": "2_2834",
        "lat": 48.15986551,
        "lon": -1.67719977,
        "name": "Jean-Paul II",
        "code": 2834
      },
      "arrival": 45360,
      "departure": 45360
    },
    {
      "stop": {
        "id": "2_2453",
        "lat": 48.17546321,
        "lon": -1.66226843,
        "name": "Chaperonnais",
        "code": 2453
      },
      "arrival": 45540,
      "departure": 45540
    },
    {
      "stop": {
        "id": "2_2443",
        "lat": 48.17822808,
        "lon": -1.66061222,
        "name": "Pont Brand",
        "code": 2443
      },
      "arrival": 45600,
      "departure": 45600
    },
    {
      "stop": {
        "id": "2_2440",
        "lat": 48.17878617,
        "lon": -1.65554803,
        "name": "Renaudais",
        "code": 2440
      },
      "arrival": 45660,
      "departure": 45660
    },
    {
      "stop": {
        "id": "2_2403",
        "lat": 48.18066394,
        "lon": -1.65204781,
        "name": "Brocéliande",
        "code": 2403
      },
      "arrival": 45720,
      "departure": 45720
    },
    {
      "stop": {
        "id": "2_2441",
        "lat": 48.18495407,
        "lon": -1.65000002,
        "name": "Mézières",
        "code": 2441
      },
      "arrival": 45840,
      "departure": 45840
    },
    {
      "stop": {
        "id": "2_2449",
        "lat": 48.18368939,
        "lon": -1.64641107,
        "name": "Trégor",
        "code": 2449
      },
      "arrival": 45840,
      "departure": 45840
    },
    {
      "stop": {
        "id": "2_2405",
        "lat": 48.18191274,
        "lon": -1.64173916,
        "name": "Betton Mairie",
        "code": 2405
      },
      "arrival": 45900,
      "departure": 45900
    },
    {
      "stop": {
        "id": "2_2437",
        "lat": 48.18157224,
        "lon": -1.63928389,
        "name": "Betton Centre",
        "code": 2437
      },
      "arrival": 45960,
      "departure": 45960
    }
  ],
  "route": {
    "id": "2_0078",
    "textColor": "FFFFFF",
    "color": "E10068",
    "description": "Métropolitaine",
    "longName": "Rennes (Villejean-Université) \u003c\u003e Saint-Grégoire / Betton (Centre)",
    "shortName": "78",
    "type": 3,
    "agencyId": "2"
  }
}