{
  "headsign": "74 | Orgères Moc Souris",
  "stopTimes": [
    {
      "stop": {
        "id": "2_3220",
        "lat": 47.99225073,
        "lon": -1.66789719,
        "name": "Surcouf",
        "code": 3220
      },
      "arrival": 60300,
      "departure": 60300
    },
    {
      "stop": {
        "id": "2_3204",
        "lat": 47.98326978,
        "lon": -1.66000223,
        "name": "Télégraphe",
        "code": 3204
      },
      "arrival": 60540,
      "departure": 60540
    },
    {
      "stop": {
        "id": "2_3205",
        "lat": 47.97611711,
        "lon": -1.65714416,
        "name": "Petite Rochelle",
        "code": 3205
      },
      "arrival": 60660,
      "departure": 60660
    },
    {
      "stop": {
        "id": "2_3206",
        "lat": 47.97543073,
        "lon": -1.65239827,
        "name": "Frogerais",
        "code": 3206
      },
      "arrival": 60660,
      "departure": 60660
    },
    {
      "stop": {
        "id": "2_3207",
        "lat": 47.96965315,
        "lon": -1.6457694,
        "name": "Fort Joual",
        "code": 3207
      },
      "arrival": 60780,
      "departure": 60780
    },
    {
      "stop": {
        "id": "2_3811",
        "lat": 47.95954125,
        "lon": -1.63703108,
        "name": "Sept Fours",
        "code": 3811
      },
      "arrival": 60900,
      "departure": 60900
    }
  ],
  "route": {
    "id": "2_0074",
    "textColor": "1A171B",
    "color": "FCC000",
    "description": "Métropolitaine",
    "longName": "Rennes (Henri Fréville) \u003c\u003e Orgères / Bourgbarré",
    "shortName": "74",
    "type": 3,
    "agencyId": "2"
  }
}