{
  "headsign": "231 | Bruz Collège Saint-Joseph",
  "stopTimes": [
    {
      "stop": {
        "id": "2_3903",
        "lat": 48.010649,
        "lon": -1.700885,
        "name": "Mouton Blanc",
        "code": 3903
      },
      "arrival": 28680,
      "departure": 28680
    },
    {
      "stop": {
        "id": "2_3913",
        "lat": 48.013,
        "lon": -1.703093,
        "name": "Chemin Vert",
        "code": 3913
      },
      "arrival": 28800,
      "departure": 28800
    },
    {
      "stop": {
        "id": "2_3906",
        "lat": 48.013631,
        "lon": -1.707588,
        "name": "Rivaudière",
        "code": 3906
      },
      "arrival": 28920,
      "departure": 28920
    },
    {
      "stop": {
        "id": "2_3907",
        "lat": 48.016278,
        "lon": -1.705639,
        "name": "Fontaine Blanche",
        "code": 3907
      },
      "arrival": 29040,
      "departure": 29040
    },
    {
      "stop": {
        "id": "2_2365",
        "lat": 48.020489,
        "lon": -1.743438,
        "name": "Brossolette",
        "code": 2365
      },
      "arrival": 29400,
      "departure": 29400
    },
    {
      "stop": {
        "id": "2_2337",
        "lat": 48.032956,
        "lon": -1.733031,
        "name": "Lavoisier",
        "code": 2337
      },
      "arrival": 29700,
      "departure": 29700
    },
    {
      "stop": {
        "id": "2_2366",
        "lat": 48.026878,
        "lon": -1.745504,
        "name": "Aire du 8 Mai",
        "code": 2366
      },
      "arrival": 30000,
      "departure": 30000
    }
  ],
  "route": {
    "id": "2_0231",
    "textColor": "FFFFFF",
    "color": "E5006D",
    "description": "Complémentaire",
    "longName": "Laillé (Gingouillère) \u003c\u003e Bruz (Collège Saint-Joseph)",
    "shortName": "231",
    "type": 3,
    "agencyId": "2"
  }
}