{
  "headsign": "79 | Rennes Henri Fréville",
  "stopTimes": [
    {
      "stop": {
        "id": "2_4708",
        "lat": 47.98011176,
        "lon": -1.73091351,
        "name": "Gingouillère",
        "code": 4708
      },
      "arrival": 67200,
      "departure": 67200
    },
    {
      "stop": {
        "id": "2_4706",
        "lat": 47.97919538,
        "lon": -1.72431463,
        "name": "Châtaigneraie",
        "code": 4706
      },
      "arrival": 67260,
      "departure": 67260
    },
    {
      "stop": {
        "id": "2_4704",
        "lat": 47.97811777,
        "lon": -1.72042832,
        "name": "Laillé Eglise",
        "code": 4704
      },
      "arrival": 67320,
      "departure": 67320
    },
    {
      "stop": {
        "id": "2_4702",
        "lat": 47.97544241,
        "lon": -1.71712085,
        "name": "Orée du Bois",
        "code": 4702
      },
      "arrival": 67380,
      "departure": 67380
    },
    {
      "stop": {
        "id": "2_4700",
        "lat": 47.97844407,
        "lon": -1.71368953,
        "name": "Point du Jour",
        "code": 4700
      },
      "arrival": 67440,
      "departure": 67440
    },
    {
      "stop": {
        "id": "2_3903",
        "lat": 48.01062006,
        "lon": -1.70099518,
        "name": "Mouton Blanc",
        "code": 3903
      },
      "arrival": 67920,
      "departure": 67920
    },
    {
      "stop": {
        "id": "2_3913",
        "lat": 48.01296314,
        "lon": -1.703044,
        "name": "Chemin Vert",
        "code": 3913
      },
      "arrival": 67980,
      "departure": 67980
    },
    {
      "stop": {
        "id": "2_3905",
        "lat": 48.01057926,
        "lon": -1.70697013,
        "name": "Pont Péan Mairie",
        "code": 3905
      },
      "arrival": 68040,
      "departure": 68040
    },
    {
      "stop": {
        "id": "2_3906",
        "lat": 48.0136449,
        "lon": -1.70763245,
        "name": "Rivaudière",
        "code": 3906
      },
      "arrival": 68100,
      "departure": 68100
    },
    {
      "stop": {
        "id": "2_3907",
        "lat": 48.01629245,
        "lon": -1.70567784,
        "name": "Fontaine Blanche",
        "code": 3907
      },
      "arrival": 68160,
      "departure": 68160
    },
    {
      "stop": {
        "id": "2_1510",
        "lat": 48.08777948,
        "lon": -1.67446532,
        "name": "Henri Fréville",
        "code": 1510
      },
      "arrival": 68760,
      "departure": 68760
    }
  ],
  "route": {
    "id": "2_0079",
    "textColor": "26171B",
    "color": "62C3D5",
    "description": "Métropolitaine",
    "longName": "Rennes (Henri Fréville) \u003c\u003e Laillé",
    "shortName": "79",
    "type": 3,
    "agencyId": "2"
  }
}