{
  "headsign": "37 | Rennes Henri Fréville",
  "stopTimes": [
    {
      "stop": {
        "id": "2_2201",
        "lat": 48.07546226,
        "lon": -1.71635318,
        "name": "Morinais",
        "code": 2201
      },
      "arrival": 58200,
      "departure": 58200
    },
    {
      "stop": {
        "id": "2_2267",
        "lat": 48.07523823,
        "lon": -1.7289981,
        "name": "Auriol",
        "code": 2267
      },
      "arrival": 58320,
      "departure": 58320
    },
    {
      "stop": {
        "id": "2_2248",
        "lat": 48.07926184,
        "lon": -1.73304111,
        "name": "Bellevue",
        "code": 2248
      },
      "arrival": 58380,
      "departure": 58380
    },
    {
      "stop": {
        "id": "2_2249",
        "lat": 48.08296962,
        "lon": -1.73167413,
        "name": "Le Pâtis",
        "code": 2249
      },
      "arrival": 58440,
      "departure": 58440
    },
    {
      "stop": {
        "id": "2_2253",
        "lat": 48.08667716,
        "lon": -1.72218429,
        "name": "Reuzerais",
        "code": 2253
      },
      "arrival": 58560,
      "departure": 58560
    },
    {
      "stop": {
        "id": "2_2252",
        "lat": 48.08662142,
        "lon": -1.71300337,
        "name": "Maffeys",
        "code": 2252
      },
      "arrival": 58680,
      "departure": 58680
    },
    {
      "stop": {
        "id": "2_2225",
        "lat": 48.08685877,
        "lon": -1.70571878,
        "name": "Gaité",
        "code": 2225
      },
      "arrival": 58740,
      "departure": 58740
    },
    {
      "stop": {
        "id": "2_2271",
        "lat": 48.09053717,
        "lon": -1.69493887,
        "name": "25 Fusillés",
        "code": 2271
      },
      "arrival": 58980,
      "departure": 58980
    },
    {
      "stop": {
        "id": "2_1447",
        "lat": 48.08731589,
        "lon": -1.6750163,
        "name": "Henri Fréville",
        "code": 1447
      },
      "arrival": 59220,
      "departure": 59220
    }
  ],
  "route": {
    "id": "2_0037",
    "textColor": "E2001A",
    "color": "FFF164",
    "description": "Inter-quartiers",
    "longName": "Henri Fréville \u003c\u003e Saint-Jacques-de-la-Lande (Morinais)",
    "shortName": "37",
    "type": 3,
    "agencyId": "2"
  }
}