{
  "headsign": "223 | Betton Chevaigné",
  "stopTimes": [
    {
      "stop": {
        "id": "2_2841",
        "lat": 48.16048,
        "lon": -1.676774,
        "name": "Jean-Paul II",
        "code": 2841
      },
      "arrival": 63300,
      "departure": 63300
    },
    {
      "stop": {
        "id": "2_2829",
        "lat": 48.149378,
        "lon": -1.656411,
        "name": "Maison Blanche",
        "code": 2829
      },
      "arrival": 63780,
      "departure": 63780
    },
    {
      "stop": {
        "id": "2_2414",
        "lat": 48.172685,
        "lon": -1.637284,
        "name": "Housset",
        "code": 2414
      },
      "arrival": 64200,
      "departure": 64200
    },
    {
      "stop": {
        "id": "2_2415",
        "lat": 48.176867,
        "lon": -1.637055,
        "name": "Marronniers",
        "code": 2415
      },
      "arrival": 64260,
      "departure": 64260
    },
    {
      "stop": {
        "id": "2_2416",
        "lat": 48.180198,
        "lon": -1.634708,
        "name": "Haye Renaud Gare",
        "code": 2416
      },
      "arrival": 64380,
      "departure": 64380
    },
    {
      "stop": {
        "id": "2_2417",
        "lat": 48.181747,
        "lon": -1.638457,
        "name": "Betton Centre",
        "code": 2417
      },
      "arrival": 64500,
      "departure": 64500
    },
    {
      "stop": {
        "id": "2_2435",
        "lat": 48.18312,
        "lon": -1.637107,
        "name": "Mozart",
        "code": 2435
      },
      "arrival": 64560,
      "departure": 64560
    },
    {
      "stop": {
        "id": "2_2434",
        "lat": 48.186441,
        "lon": -1.633092,
        "name": "J. Sébastien Bach",
        "code": 2434
      },
      "arrival": 64620,
      "departure": 64620
    },
    {
      "stop": {
        "id": "2_2458",
        "lat": 48.190991,
        "lon": -1.628981,
        "name": "Gentilhommière",
        "code": 2458
      },
      "arrival": 64740,
      "departure": 64740
    },
    {
      "stop": {
        "id": "2_4610",
        "lat": 48.199223,
        "lon": -1.627788,
        "name": "Chopinais",
        "code": 4610
      },
      "arrival": 64920,
      "departure": 64920
    },
    {
      "stop": {
        "id": "2_4608",
        "lat": 48.207963,
        "lon": -1.630549,
        "name": "Chevaigné Gare",
        "code": 4608
      },
      "arrival": 65040,
      "departure": 65040
    },
    {
      "stop": {
        "id": "2_4601",
        "lat": 48.211782,
        "lon": -1.630337,
        "name": "Chevaigné Mairie",
        "code": 4601
      },
      "arrival": 65160,
      "departure": 65160
    },
    {
      "stop": {
        "id": "2_4602",
        "lat": 48.214316,
        "lon": -1.628818,
        "name": "Fonderies",
        "code": 4602
      },
      "arrival": 65220,
      "departure": 65220
    },
    {
      "stop": {
        "id": "2_4603",
        "lat": 48.210932,
        "lon": -1.626041,
        "name": "Pommiers",
        "code": 4603
      },
      "arrival": 65340,
      "departure": 65340
    }
  ],
  "route": {
    "id": "2_0223",
    "textColor": "FFFFFF",
    "color": "94C11F",
    "description": "Complémentaire",
    "longName": "Chevaigné (Pommiers) \u003c\u003e Saint-Grégoire (Lycée Jean-Paul II)",
    "shortName": "223",
    "type": 3,
    "agencyId": "2"
  }
}