{
  "headsign": "70 | Saint-Sulpice-la-Forêt",
  "stopTimes": [
    {
      "stop": {
        "id": "2_1606",
        "lat": 48.11563108,
        "lon": -1.67670645,
        "name": "Hoche",
        "code": 1606
      },
      "arrival": 64800,
      "departure": 64800
    },
    {
      "stop": {
        "id": "2_1027",
        "lat": 48.11723114,
        "lon": -1.67736823,
        "name": "Hôtel Dieu",
        "code": 1027
      },
      "arrival": 64920,
      "departure": 64920
    },
    {
      "stop": {
        "id": "2_1029",
        "lat": 48.11831975,
        "lon": -1.66969704,
        "name": "Fac de Droit",
        "code": 1029
      },
      "arrival": 65100,
      "departure": 65100
    },
    {
      "stop": {
        "id": "2_1031",
        "lat": 48.12200441,
        "lon": -1.66224129,
        "name": "Metz Volney",
        "code": 1031
      },
      "arrival": 65280,
      "departure": 65280
    },
    {
      "stop": {
        "id": "2_1430",
        "lat": 48.12365829,
        "lon": -1.65939845,
        "name": "Painlevé",
        "code": 1430
      },
      "arrival": 65340,
      "departure": 65340
    },
    {
      "stop": {
        "id": "2_1429",
        "lat": 48.1276684,
        "lon": -1.65098708,
        "name": "Joliot-Curie",
        "code": 1429
      },
      "arrival": 65520,
      "departure": 65520
    },
    {
      "stop": {
        "id": "2_1481",
        "lat": 48.12981846,
        "lon": -1.64241093,
        "name": "Pâtis Tatelin (ex ZAC Saint-Sulpice)",
        "code": 1481
      },
      "arrival": 65700,
      "departure": 65700
    },
    {
      "stop": {
        "id": "2_1480",
        "lat": 48.13202872,
        "lon": -1.63503782,
        "name": "ZA Saint-Sulpice (ex Gaudinais)",
        "code": 1480
      },
      "arrival": 65820,
      "departure": 65820
    },
    {
      "stop": {
        "id": "2_2077",
        "lat": 48.13420321,
        "lon": -1.62879212,
        "name": "Lande Bouhard",
        "code": 2077
      },
      "arrival": 65940,
      "departure": 65940
    },
    {
      "stop": {
        "id": "2_2426",
        "lat": 48.1641638,
        "lon": -1.62491276,
        "name": "Tihouït",
        "code": 2426
      },
      "arrival": 66300,
      "departure": 66300
    },
    {
      "stop": {
        "id": "2_2427",
        "lat": 48.17040578,
        "lon": -1.62203733,
        "name": "Champ Giron",
        "code": 2427
      },
      "arrival": 66360,
      "departure": 66360
    },
    {
      "stop": {
        "id": "2_2428",
        "lat": 48.17553811,
        "lon": -1.62286433,
        "name": "Cour Neuve",
        "code": 2428
      },
      "arrival": 66420,
      "departure": 66420
    },
    {
      "stop": {
        "id": "2_2429",
        "lat": 48.18209898,
        "lon": -1.61621525,
        "name": "Petite Hublais",
        "code": 2429
      },
      "arrival": 66480,
      "departure": 66480
    },
    {
      "stop": {
        "id": "2_3957",
        "lat": 48.19743651,
        "lon": -1.59945215,
        "name": "Oliverie",
        "code": 3957
      },
      "arrival": 66660,
      "departure": 66660
    },
    {
      "stop": {
        "id": "2_3958",
        "lat": 48.20320481,
        "lon": -1.59506102,
        "name": "Lande Saint Denis",
        "code": 3958
      },
      "arrival": 66720,
      "departure": 66720
    },
    {
      "stop": {
        "id": "2_3959",
        "lat": 48.21179703,
        "lon": -1.59059123,
        "name": "Tronchay",
        "code": 3959
      },
      "arrival": 66780,
      "departure": 66780
    },
    {
      "stop": {
        "id": "2_3954",
        "lat": 48.21479222,
        "lon": -1.58657706,
        "name": "Terrain des Sports",
        "code": 3954
      },
      "arrival": 66840,
      "departure": 66840
    },
    {
      "stop": {
        "id": "2_3961",
        "lat": 48.21773209,
        "lon": -1.58139746,
        "name": "Bourg",
        "code": 3961
      },
      "arrival": 66900,
      "departure": 66900
    },
    {
      "stop": {
        "id": "2_3962",
        "lat": 48.22315211,
        "lon": -1.57693236,
        "name": "Chesnais",
        "code": 3962
      },
      "arrival": 67020,
      "departure": 67020
    },
    {
      "stop": {
        "id": "2_3951",
        "lat": 48.22528095,
        "lon": -1.57037306,
        "name": "Cropy",
        "code": 3951
      },
      "arrival": 67080,
      "departure": 67080
    }
  ],
  "route": {
    "id": "2_0070",
    "textColor": "FFFFFF",
    "color": "EC748D",
    "description": "Métropolitaine",
    "longName": "Rennes (Hoche) \u003c\u003e Saint-Sulpice-la-Forêt",
    "shortName": "70",
    "type": 3,
    "agencyId": "2"
  }
}