{
  "headsign": "67 | Rennes République",
  "stopTimes": [
    {
      "stop": {
        "id": "2_4151",
        "lat": 48.10975091,
        "lon": -1.48097238,
        "name": "Anjou",
        "code": 4151
      },
      "arrival": 60180,
      "departure": 60180
    },
    {
      "stop": {
        "id": "2_4152",
        "lat": 48.10905522,
        "lon": -1.47841022,
        "name": "Mainguère",
        "code": 4152
      },
      "arrival": 60300,
      "departure": 60300
    },
    {
      "stop": {
        "id": "2_4153",
        "lat": 48.10706252,
        "lon": -1.47914293,
        "name": "Saules",
        "code": 4153
      },
      "arrival": 60300,
      "departure": 60300
    },
    {
      "stop": {
        "id": "2_4154",
        "lat": 48.10749969,
        "lon": -1.48292686,
        "name": "Provence",
        "code": 4154
      },
      "arrival": 60360,
      "departure": 60360
    },
    {
      "stop": {
        "id": "2_4155",
        "lat": 48.10758915,
        "lon": -1.48614508,
        "name": "Destiers",
        "code": 4155
      },
      "arrival": 60420,
      "departure": 60420
    },
    {
      "stop": {
        "id": "2_4156",
        "lat": 48.10941494,
        "lon": -1.50301501,
        "name": "Pâtis",
        "code": 4156
      },
      "arrival": 60540,
      "departure": 60540
    },
    {
      "stop": {
        "id": "2_4162",
        "lat": 48.10839195,
        "lon": -1.5077338,
        "name": "Turbanière",
        "code": 4162
      },
      "arrival": 60600,
      "departure": 60600
    },
    {
      "stop": {
        "id": "2_2085",
        "lat": 48.11613432,
        "lon": -1.58235705,
        "name": "Champelé",
        "code": 2085
      },
      "arrival": 61140,
      "departure": 61140
    },
    {
      "stop": {
        "id": "2_2038",
        "lat": 48.11496603,
        "lon": -1.59060111,
        "name": "Haut Grippé",
        "code": 2038
      },
      "arrival": 61140,
      "departure": 61140
    },
    {
      "stop": {
        "id": "2_2089",
        "lat": 48.11357205,
        "lon": -1.59052033,
        "name": "Rigourdière",
        "code": 2089
      },
      "arrival": 61200,
      "departure": 61200
    },
    {
      "stop": {
        "id": "2_2039",
        "lat": 48.11441474,
        "lon": -1.60044452,
        "name": "Bordage",
        "code": 2039
      },
      "arrival": 61380,
      "departure": 61380
    },
    {
      "stop": {
        "id": "2_2057",
        "lat": 48.1138863,
        "lon": -1.60325405,
        "name": "Cesson Gare",
        "code": 2057
      },
      "arrival": 61440,
      "departure": 61440
    },
    {
      "stop": {
        "id": "2_2058",
        "lat": 48.11260658,
        "lon": -1.60716704,
        "name": "Peupliers",
        "code": 2058
      },
      "arrival": 61500,
      "departure": 61500
    },
    {
      "stop": {
        "id": "2_2059",
        "lat": 48.1092987,
        "lon": -1.6090051,
        "name": "Monniais",
        "code": 2059
      },
      "arrival": 61620,
      "departure": 61620
    },
    {
      "stop": {
        "id": "2_2060",
        "lat": 48.10779161,
        "lon": -1.61466557,
        "name": "Rond Point de Bray",
        "code": 2060
      },
      "arrival": 61740,
      "departure": 61740
    },
    {
      "stop": {
        "id": "2_2016",
        "lat": 48.11418172,
        "lon": -1.62194938,
        "name": "Taillis",
        "code": 2016
      },
      "arrival": 61920,
      "departure": 61920
    },
    {
      "stop": {
        "id": "2_2017",
        "lat": 48.11408545,
        "lon": -1.63036724,
        "name": "Champs Péans",
        "code": 2017
      },
      "arrival": 62040,
      "departure": 62040
    },
    {
      "stop": {
        "id": "2_1160",
        "lat": 48.11406412,
        "lon": -1.63761839,
        "name": "Tournebride",
        "code": 1160
      },
      "arrival": 62100,
      "departure": 62100
    },
    {
      "stop": {
        "id": "2_1528",
        "lat": 48.11399429,
        "lon": -1.64435828,
        "name": "Piletière",
        "code": 1528
      },
      "arrival": 62220,
      "departure": 62220
    },
    {
      "stop": {
        "id": "2_1527",
        "lat": 48.11433481,
        "lon": -1.64920718,
        "name": "Moulin de Joué",
        "code": 1527
      },
      "arrival": 62280,
      "departure": 62280
    },
    {
      "stop": {
        "id": "2_1526",
        "lat": 48.11479096,
        "lon": -1.65317793,
        "name": "Hôpital Régnier",
        "code": 1526
      },
      "arrival": 62340,
      "departure": 62340
    },
    {
      "stop": {
        "id": "2_1474",
        "lat": 48.11351559,
        "lon": -1.65671606,
        "name": "Durafour Strasbourg",
        "code": 1474
      },
      "arrival": 62400,
      "departure": 62400
    },
    {
      "stop": {
        "id": "2_1163",
        "lat": 48.1101066,
        "lon": -1.66054614,
        "name": "Robidou",
        "code": 1163
      },
      "arrival": 62580,
      "departure": 62580
    },
    {
      "stop": {
        "id": "2_1556",
        "lat": 48.10943229,
        "lon": -1.67763328,
        "name": "République",
        "code": 1556
      },
      "arrival": 62820,
      "departure": 62820
    }
  ],
  "route": {
    "id": "2_0067",
    "textColor": "FFFFFF",
    "color": "E0083B",
    "description": "Métropolitaine",
    "longName": "Rennes (République) \u003c\u003e Cesson-Sévigné / Brécé",
    "shortName": "67",
    "type": 3,
    "agencyId": "2"
  }
}