{
  "headsign": "231 | Pont-Péan Bois Esnault",
  "stopTimes": [
    {
      "stop": {
        "id": "2_2365",
        "lat": 48.020489,
        "lon": -1.743438,
        "name": "Brossolette",
        "code": 2365
      },
      "arrival": 45900,
      "departure": 45900
    },
    {
      "stop": {
        "id": "2_2366",
        "lat": 48.026878,
        "lon": -1.745504,
        "name": "Aire du 8 Mai",
        "code": 2366
      },
      "arrival": 46500,
      "departure": 46500
    },
    {
      "stop": {
        "id": "2_2367",
        "lat": 48.033353,
        "lon": -1.733602,
        "name": "Anita Conti",
        "code": 2367
      },
      "arrival": 46800,
      "departure": 46800
    },
    {
      "stop": {
        "id": "2_3909",
        "lat": 48.01986,
        "lon": -1.707123,
        "name": "Renaissance",
        "code": 3909
      },
      "arrival": 47160,
      "departure": 47160
    },
    {
      "stop": {
        "id": "2_3910",
        "lat": 48.016959,
        "lon": -1.705245,
        "name": "Fontaine Blanche",
        "code": 3910
      },
      "arrival": 47220,
      "departure": 47220
    },
    {
      "stop": {
        "id": "2_3911",
        "lat": 48.01369,
        "lon": -1.707704,
        "name": "Rivaudière",
        "code": 3911
      },
      "arrival": 47280,
      "departure": 47280
    },
    {
      "stop": {
        "id": "2_3912",
        "lat": 48.010772,
        "lon": -1.706394,
        "name": "Pont Péan Mairie",
        "code": 3912
      },
      "arrival": 47400,
      "departure": 47400
    },
    {
      "stop": {
        "id": "2_3904",
        "lat": 48.012935,
        "lon": -1.702976,
        "name": "Chemin Vert",
        "code": 3904
      },
      "arrival": 47460,
      "departure": 47460
    },
    {
      "stop": {
        "id": "2_3914",
        "lat": 48.010354,
        "lon": -1.701141,
        "name": "Mouton Blanc",
        "code": 3914
      },
      "arrival": 47520,
      "departure": 47520
    },
    {
      "stop": {
        "id": "2_3915",
        "lat": 48.006145,
        "lon": -1.698543,
        "name": "Caliorne",
        "code": 3915
      },
      "arrival": 47640,
      "departure": 47640
    },
    {
      "stop": {
        "id": "2_3901",
        "lat": 47.999909,
        "lon": -1.696968,
        "name": "Bois Esnault",
        "code": 3901
      },
      "arrival": 47700,
      "departure": 47700
    }
  ],
  "route": {
    "id": "2_0231",
    "textColor": "FFFFFF",
    "color": "E5006D",
    "description": "Complémentaire",
    "longName": "Laillé (Gingouillère) \u003c\u003e Bruz (Collège Saint-Joseph)",
    "shortName": "231",
    "type": 3,
    "agencyId": "2"
  }
}