{
  "headsign": "73 | Rennes via C. Martin",
  "stopTimes": [
    {
      "stop": {
        "id": "2_4101",
        "lat": 47.98501009,
        "lon": -1.57628621,
        "name": "Corps-Nuds Gare",
        "code": 4101
      },
      "arrival": 67500,
      "departure": 67500
    },
    {
      "stop": {
        "id": "2_4102",
        "lat": 47.98240342,
        "lon": -1.58071998,
        "name": "Huberdières",
        "code": 4102
      },
      "arrival": 67560,
      "departure": 67560
    },
    {
      "stop": {
        "id": "2_4103",
        "lat": 47.97775083,
        "lon": -1.58490906,
        "name": "Place de Kildare",
        "code": 4103
      },
      "arrival": 67620,
      "departure": 67620
    },
    {
      "stop": {
        "id": "2_4104",
        "lat": 47.97932856,
        "lon": -1.58790538,
        "name": "Corps-Nuds Mairie",
        "code": 4104
      },
      "arrival": 67680,
      "departure": 67680
    },
    {
      "stop": {
        "id": "2_4105",
        "lat": 47.98205291,
        "lon": -1.58831596,
        "name": "Chêne Hervé",
        "code": 4105
      },
      "arrival": 67680,
      "departure": 67680
    },
    {
      "stop": {
        "id": "2_3816",
        "lat": 48.0007509,
        "lon": -1.59448989,
        "name": "Launay Garnier",
        "code": 3816
      },
      "arrival": 67920,
      "departure": 67920
    },
    {
      "stop": {
        "id": "2_4551",
        "lat": 48.0134184,
        "lon": -1.59096813,
        "name": "Saint-Armel Eglise",
        "code": 4551
      },
      "arrival": 68160,
      "departure": 68160
    },
    {
      "stop": {
        "id": "2_4555",
        "lat": 48.01402453,
        "lon": -1.59440297,
        "name": "Saint-Armel Gare",
        "code": 4555
      },
      "arrival": 68220,
      "departure": 68220
    },
    {
      "stop": {
        "id": "2_4554",
        "lat": 48.01473229,
        "lon": -1.59840416,
        "name": "Lande du Jardin",
        "code": 4554
      },
      "arrival": 68220,
      "departure": 68220
    },
    {
      "stop": {
        "id": "2_2627",
        "lat": 48.03139222,
        "lon": -1.59951627,
        "name": "Vaugon",
        "code": 2627
      },
      "arrival": 68400,
      "departure": 68400
    },
    {
      "stop": {
        "id": "2_2635",
        "lat": 48.03849842,
        "lon": -1.60220411,
        "name": "Croix Malinge",
        "code": 2635
      },
      "arrival": 68460,
      "departure": 68460
    },
    {
      "stop": {
        "id": "2_2602",
        "lat": 48.04342114,
        "lon": -1.60171837,
        "name": "Bel Air",
        "code": 2602
      },
      "arrival": 68520,
      "departure": 68520
    },
    {
      "stop": {
        "id": "2_2603",
        "lat": 48.04468923,
        "lon": -1.60398268,
        "name": "La Poste",
        "code": 2603
      },
      "arrival": 68580,
      "departure": 68580
    },
    {
      "stop": {
        "id": "2_2622",
        "lat": 48.05981082,
        "lon": -1.61317591,
        "name": "Champ Martin",
        "code": 2622
      },
      "arrival": 68820,
      "departure": 68820
    },
    {
      "stop": {
        "id": "2_1511",
        "lat": 48.08753913,
        "lon": -1.64345457,
        "name": "La Poterie",
        "code": 1511
      },
      "arrival": 69180,
      "departure": 69180
    }
  ],
  "route": {
    "id": "2_0073",
    "textColor": "FFFFFF",
    "color": "008436",
    "description": "Métropolitaine",
    "longName": "Rennes (La Poterie) \u003c\u003e Vern-sur-Seiche / Saint-Armel / Corps-Nuds",
    "shortName": "73",
    "type": 3,
    "agencyId": "2"
  }
}