{
  "headsign": "231 | Laillé Gingouillère",
  "stopTimes": [
    {
      "stop": {
        "id": "2_2367",
        "lat": 48.033353,
        "lon": -1.733602,
        "name": "Anita Conti",
        "code": 2367
      },
      "arrival": 65280,
      "departure": 65280
    },
    {
      "stop": {
        "id": "2_3909",
        "lat": 48.01986,
        "lon": -1.707123,
        "name": "Renaissance",
        "code": 3909
      },
      "arrival": 65460,
      "departure": 65460
    },
    {
      "stop": {
        "id": "2_3910",
        "lat": 48.016959,
        "lon": -1.705245,
        "name": "Fontaine Blanche",
        "code": 3910
      },
      "arrival": 65520,
      "departure": 65520
    },
    {
      "stop": {
        "id": "2_3911",
        "lat": 48.01369,
        "lon": -1.707704,
        "name": "Rivaudière",
        "code": 3911
      },
      "arrival": 65580,
      "departure": 65580
    },
    {
      "stop": {
        "id": "2_3912",
        "lat": 48.010772,
        "lon": -1.706394,
        "name": "Pont Péan Mairie",
        "code": 3912
      },
      "arrival": 65700,
      "departure": 65700
    },
    {
      "stop": {
        "id": "2_3904",
        "lat": 48.012935,
        "lon": -1.702976,
        "name": "Chemin Vert",
        "code": 3904
      },
      "arrival": 65760,
      "departure": 65760
    },
    {
      "stop": {
        "id": "2_3914",
        "lat": 48.010354,
        "lon": -1.701141,
        "name": "Mouton Blanc",
        "code": 3914
      },
      "arrival": 65820,
      "departure": 65820
    },
    {
      "stop": {
        "id": "2_3915",
        "lat": 48.00551,
        "lon": -1.698233,
        "name": "Caliorne",
        "code": 3915
      },
      "arrival": 65940,
      "departure": 65940
    },
    {
      "stop": {
        "id": "2_3901",
        "lat": 47.999909,
        "lon": -1.696968,
        "name": "Bois Esnault",
        "code": 3901
      },
      "arrival": 66000,
      "departure": 66000
    },
    {
      "stop": {
        "id": "2_4701",
        "lat": 47.978606,
        "lon": -1.712988,
        "name": "Point du Jour",
        "code": 4701
      },
      "arrival": 66360,
      "departure": 66360
    },
    {
      "stop": {
        "id": "2_4703",
        "lat": 47.975507,
        "lon": -1.717175,
        "name": "Orée du Bois",
        "code": 4703
      },
      "arrival": 66480,
      "departure": 66480
    },
    {
      "stop": {
        "id": "2_4705",
        "lat": 47.977983,
        "lon": -1.719683,
        "name": "Laillé Eglise",
        "code": 4705
      },
      "arrival": 66540,
      "departure": 66540
    },
    {
      "stop": {
        "id": "2_4707",
        "lat": 47.979287,
        "lon": -1.724331,
        "name": "Châtaigneraie",
        "code": 4707
      },
      "arrival": 66600,
      "departure": 66600
    },
    {
      "stop": {
        "id": "2_4708",
        "lat": 47.980092,
        "lon": -1.730909,
        "name": "Gingouillère",
        "code": 4708
      },
      "arrival": 66600,
      "departure": 66600
    }
  ],
  "route": {
    "id": "2_0231",
    "textColor": "FFFFFF",
    "color": "E5006D",
    "description": "Complémentaire",
    "longName": "Laillé (Gingouillère) \u003c\u003e Bruz (Collège Saint-Joseph)",
    "shortName": "231",
    "type": 3,
    "agencyId": "2"
  }
}