{
  "headsign": "164 | Rennes République",
  "stopTimes": [
    {
      "stop": {
        "id": "2_4001",
        "lat": 48.13701918,
        "lon": -1.52637517,
        "name": "Timonière",
        "code": 4001
      },
      "arrival": 28200,
      "departure": 28200
    },
    {
      "stop": {
        "id": "2_4002",
        "lat": 48.13696093,
        "lon": -1.53304901,
        "name": "Verdaudais",
        "code": 4002
      },
      "arrival": 28380,
      "departure": 28380
    },
    {
      "stop": {
        "id": "2_4003",
        "lat": 48.13419518,
        "lon": -1.53491257,
        "name": "Acigné Mairie",
        "code": 4003
      },
      "arrival": 28440,
      "departure": 28440
    },
    {
      "stop": {
        "id": "2_4004",
        "lat": 48.13391306,
        "lon": -1.53776926,
        "name": "Foyer",
        "code": 4004
      },
      "arrival": 28500,
      "departure": 28500
    },
    {
      "stop": {
        "id": "2_4018",
        "lat": 48.13398435,
        "lon": -1.54045772,
        "name": "Lande",
        "code": 4018
      },
      "arrival": 28560,
      "departure": 28560
    },
    {
      "stop": {
        "id": "2_2045",
        "lat": 48.12734821,
        "lon": -1.62821813,
        "name": "Clos Courtel",
        "code": 2045
      },
      "arrival": 29100,
      "departure": 29100
    },
    {
      "stop": {
        "id": "2_1160",
        "lat": 48.11406413,
        "lon": -1.63761839,
        "name": "Tournebride",
        "code": 1160
      },
      "arrival": 29340,
      "departure": 29340
    },
    {
      "stop": {
        "id": "2_1603",
        "lat": 48.1132511,
        "lon": -1.64125976,
        "name": "Les Préales",
        "code": 1603
      },
      "arrival": 29400,
      "departure": 29400
    },
    {
      "stop": {
        "id": "2_1167",
        "lat": 48.10936738,
        "lon": -1.678658,
        "name": "République Pré Botté",
        "code": 1167
      },
      "arrival": 29940,
      "departure": 29940
    }
  ],
  "route": {
    "id": "2_0164",
    "textColor": "3D3C3F",
    "color": "FFDD00",
    "description": "Express métropolitaine",
    "longName": "Rennes (République) \u003c\u003e Acigné",
    "shortName": "164",
    "type": 3,
    "agencyId": "2"
  }
}