{
  "headsign": "59 | Rennes La Poterie",
  "stopTimes": [
    {
      "stop": {
        "id": "2_4101",
        "lat": 47.984989,
        "lon": -1.576252,
        "name": "Corps-Nuds Gare",
        "code": 4101
      },
      "arrival": 56400,
      "departure": 56400
    },
    {
      "stop": {
        "id": "2_4102",
        "lat": 47.982393,
        "lon": -1.580817,
        "name": "Huberdières",
        "code": 4102
      },
      "arrival": 56460,
      "departure": 56460
    },
    {
      "stop": {
        "id": "2_4103",
        "lat": 47.977794,
        "lon": -1.585033,
        "name": "Place de Kildare",
        "code": 4103
      },
      "arrival": 56520,
      "departure": 56520
    },
    {
      "stop": {
        "id": "2_4104",
        "lat": 47.979393,
        "lon": -1.587834,
        "name": "Corps-Nuds Mairie",
        "code": 4104
      },
      "arrival": 56580,
      "departure": 56580
    },
    {
      "stop": {
        "id": "2_4105",
        "lat": 47.982053,
        "lon": -1.588248,
        "name": "Chêne Hervé",
        "code": 4105
      },
      "arrival": 56580,
      "departure": 56580
    },
    {
      "stop": {
        "id": "2_3816",
        "lat": 48.000758,
        "lon": -1.594361,
        "name": "Launay Garnier",
        "code": 3816
      },
      "arrival": 56820,
      "departure": 56820
    },
    {
      "stop": {
        "id": "2_4551",
        "lat": 48.013468,
        "lon": -1.590988,
        "name": "Saint-Armel Eglise",
        "code": 4551
      },
      "arrival": 57060,
      "departure": 57060
    },
    {
      "stop": {
        "id": "2_4555",
        "lat": 48.014056,
        "lon": -1.594394,
        "name": "Saint-Armel Gare",
        "code": 4555
      },
      "arrival": 57120,
      "departure": 57120
    },
    {
      "stop": {
        "id": "2_4554",
        "lat": 48.014788,
        "lon": -1.598383,
        "name": "Lande du Jardin",
        "code": 4554
      },
      "arrival": 57180,
      "departure": 57180
    },
    {
      "stop": {
        "id": "2_2627",
        "lat": 48.031385,
        "lon": -1.599562,
        "name": "Vaugon",
        "code": 2627
      },
      "arrival": 57360,
      "departure": 57360
    },
    {
      "stop": {
        "id": "2_2601",
        "lat": 48.038508,
        "lon": -1.602504,
        "name": "Croix Malinge",
        "code": 2601
      },
      "arrival": 57420,
      "departure": 57420
    },
    {
      "stop": {
        "id": "2_2602",
        "lat": 48.043401,
        "lon": -1.601647,
        "name": "Bel Air",
        "code": 2602
      },
      "arrival": 57480,
      "departure": 57480
    },
    {
      "stop": {
        "id": "2_2629",
        "lat": 48.047187,
        "lon": -1.602518,
        "name": "Vern Eglise",
        "code": 2629
      },
      "arrival": 57540,
      "departure": 57540
    },
    {
      "stop": {
        "id": "2_2604",
        "lat": 48.049558,
        "lon": -1.606153,
        "name": "Croix Rouge",
        "code": 2604
      },
      "arrival": 57600,
      "departure": 57600
    },
    {
      "stop": {
        "id": "2_2617",
        "lat": 48.049484,
        "lon": -1.611106,
        "name": "Fosse Gauchère",
        "code": 2617
      },
      "arrival": 57660,
      "departure": 57660
    },
    {
      "stop": {
        "id": "2_2606",
        "lat": 48.050629,
        "lon": -1.614982,
        "name": "Solidor",
        "code": 2606
      },
      "arrival": 57720,
      "departure": 57720
    },
    {
      "stop": {
        "id": "2_2607",
        "lat": 48.052615,
        "lon": -1.613836,
        "name": "Haute Abbaye",
        "code": 2607
      },
      "arrival": 57780,
      "departure": 57780
    },
    {
      "stop": {
        "id": "2_2608",
        "lat": 48.059275,
        "lon": -1.616638,
        "name": "Bretonnière",
        "code": 2608
      },
      "arrival": 57900,
      "departure": 57900
    },
    {
      "stop": {
        "id": "2_2609",
        "lat": 48.064138,
        "lon": -1.623074,
        "name": "Val d\u0027Orson",
        "code": 2609
      },
      "arrival": 57960,
      "departure": 57960
    },
    {
      "stop": {
        "id": "2_2610",
        "lat": 48.067768,
        "lon": -1.625701,
        "name": "Garenne",
        "code": 2610
      },
      "arrival": 58020,
      "departure": 58020
    },
    {
      "stop": {
        "id": "2_2611",
        "lat": 48.072416,
        "lon": -1.628709,
        "name": "Hallerais",
        "code": 2611
      },
      "arrival": 58080,
      "departure": 58080
    },
    {
      "stop": {
        "id": "2_3024",
        "lat": 48.07696,
        "lon": -1.631808,
        "name": "Martinière",
        "code": 3024
      },
      "arrival": 58140,
      "departure": 58140
    },
    {
      "stop": {
        "id": "2_1533",
        "lat": 48.087637,
        "lon": -1.643479,
        "name": "La Poterie",
        "code": 1533
      },
      "arrival": 58380,
      "departure": 58380
    }
  ],
  "route": {
    "id": "2_0059",
    "textColor": "1A171B",
    "color": "F19FC1",
    "description": "Métropolitaine",
    "longName": "Vern-sur-Seiche \u003c\u003e Rennes (La Poterie) / Rennes (Henri Fréville) \u003c\u003e Bruz (Gare)",
    "shortName": "59",
    "type": 3,
    "agencyId": "2"
  }
}