{
  "headsign": "91 | Noyal-Châtillon-sur-Seiche",
  "stopTimes": [
    {
      "stop": {
        "id": "2_2327",
        "lat": 48.00482969,
        "lon": -1.77507929,
        "name": "Pont-Réan",
        "code": 2327
      },
      "arrival": 28800,
      "departure": 28800
    },
    {
      "stop": {
        "id": "2_2346",
        "lat": 48.00857085,
        "lon": -1.77378638,
        "name": "Croix Vaisserelle",
        "code": 2346
      },
      "arrival": 28860,
      "departure": 28860
    },
    {
      "stop": {
        "id": "2_2330",
        "lat": 48.02406274,
        "lon": -1.76166931,
        "name": "Rabine",
        "code": 2330
      },
      "arrival": 29220,
      "departure": 29220
    },
    {
      "stop": {
        "id": "2_2324",
        "lat": 48.02463005,
        "lon": -1.7572317,
        "name": "Haut Launay",
        "code": 2324
      },
      "arrival": 29280,
      "departure": 29280
    },
    {
      "stop": {
        "id": "2_2325",
        "lat": 48.02481885,
        "lon": -1.75055599,
        "name": "Herverie",
        "code": 2325
      },
      "arrival": 29400,
      "departure": 29400
    },
    {
      "stop": {
        "id": "2_2301",
        "lat": 48.02452888,
        "lon": -1.74523499,
        "name": "Bruz Centre",
        "code": 2301
      },
      "arrival": 29460,
      "departure": 29460
    },
    {
      "stop": {
        "id": "2_2353",
        "lat": 48.02341051,
        "lon": -1.74310902,
        "name": "Victor Hugo",
        "code": 2353
      },
      "arrival": 29520,
      "departure": 29520
    },
    {
      "stop": {
        "id": "2_2334",
        "lat": 48.02378686,
        "lon": -1.73611312,
        "name": "Pasteur",
        "code": 2334
      },
      "arrival": 29580,
      "departure": 29580
    },
    {
      "stop": {
        "id": "2_2335",
        "lat": 48.02625491,
        "lon": -1.73452897,
        "name": "Bobinais",
        "code": 2335
      },
      "arrival": 29700,
      "departure": 29700
    },
    {
      "stop": {
        "id": "2_2336",
        "lat": 48.03021172,
        "lon": -1.73446075,
        "name": "Champ Niguel",
        "code": 2336
      },
      "arrival": 29760,
      "departure": 29760
    },
    {
      "stop": {
        "id": "2_2337",
        "lat": 48.03296043,
        "lon": -1.73309587,
        "name": "Lavoisier",
        "code": 2337
      },
      "arrival": 29820,
      "departure": 29820
    },
    {
      "stop": {
        "id": "2_2326",
        "lat": 48.03414629,
        "lon": -1.72378519,
        "name": "Doublé",
        "code": 2326
      },
      "arrival": 29940,
      "departure": 29940
    },
    {
      "stop": {
        "id": "2_2350",
        "lat": 48.02934871,
        "lon": -1.71910978,
        "name": "Mare de la Salle",
        "code": 2350
      },
      "arrival": 30120,
      "departure": 30120
    },
    {
      "stop": {
        "id": "2_2903",
        "lat": 48.0332539,
        "lon": -1.71164902,
        "name": "Chaussairie",
        "code": 2903
      },
      "arrival": 30180,
      "departure": 30180
    },
    {
      "stop": {
        "id": "2_2904",
        "lat": 48.03694559,
        "lon": -1.71243488,
        "name": "Taillebois",
        "code": 2904
      },
      "arrival": 30240,
      "departure": 30240
    },
    {
      "stop": {
        "id": "2_2918",
        "lat": 48.04201305,
        "lon": -1.71105813,
        "name": "Callouët",
        "code": 2918
      },
      "arrival": 30300,
      "departure": 30300
    },
    {
      "stop": {
        "id": "2_2919",
        "lat": 48.04229207,
        "lon": -1.70746679,
        "name": "Chartres Centre",
        "code": 2919
      },
      "arrival": 30360,
      "departure": 30360
    },
    {
      "stop": {
        "id": "2_2920",
        "lat": 48.04158293,
        "lon": -1.70288204,
        "name": "Auditoire",
        "code": 2920
      },
      "arrival": 30420,
      "departure": 30420
    },
    {
      "stop": {
        "id": "2_2926",
        "lat": 48.04167241,
        "lon": -1.69613307,
        "name": "Collège Pôle Sud",
        "code": 2926
      },
      "arrival": 30540,
      "departure": 30540
    },
    {
      "stop": {
        "id": "2_2751",
        "lat": 48.03935445,
        "lon": -1.68010587,
        "name": "Monts Gaultier",
        "code": 2751
      },
      "arrival": 30720,
      "departure": 30720
    },
    {
      "stop": {
        "id": "2_2725",
        "lat": 48.03959475,
        "lon": -1.67647149,
        "name": "Guyomerais",
        "code": 2725
      },
      "arrival": 30780,
      "departure": 30780
    },
    {
      "stop": {
        "id": "2_2707",
        "lat": 48.04080291,
        "lon": -1.6719381,
        "name": "Potiers",
        "code": 2707
      },
      "arrival": 30840,
      "departure": 30840
    },
    {
      "stop": {
        "id": "2_2708",
        "lat": 48.04239862,
        "lon": -1.66565541,
        "name": "Centre",
        "code": 2708
      },
      "arrival": 30960,
      "departure": 30960
    },
    {
      "stop": {
        "id": "2_2709",
        "lat": 48.0440963,
        "lon": -1.66126141,
        "name": "Salle Polyvalente",
        "code": 2709
      },
      "arrival": 31020,
      "departure": 31020
    },
    {
      "stop": {
        "id": "2_2710",
        "lat": 48.0471142,
        "lon": -1.66108375,
        "name": "Petite Saudrais",
        "code": 2710
      },
      "arrival": 31080,
      "departure": 31080
    }
  ],
  "route": {
    "id": "2_0091",
    "textColor": "1A171B",
    "color": "AECC52",
    "description": "Intercommunale",
    "longName": "Bruz / Chartres \u003c\u003e Noyal-Châtillon-sur-Seiche",
    "shortName": "91",
    "type": 3,
    "agencyId": "2"
  }
}