{
  "headsign": "6 | Saint-Jacques Morinais",
  "stopTimes": [
    {
      "stop": {
        "id": "2_2089",
        "lat": 48.113572,
        "lon": -1.59052,
        "name": "Rigourdière",
        "code": 2089
      },
      "arrival": 69600,
      "departure": 69600
    },
    {
      "stop": {
        "id": "2_2039",
        "lat": 48.114462,
        "lon": -1.600472,
        "name": "Bordage",
        "code": 2039
      },
      "arrival": 69780,
      "departure": 69780
    },
    {
      "stop": {
        "id": "2_2040",
        "lat": 48.116167,
        "lon": -1.600377,
        "name": "Chalotais",
        "code": 2040
      },
      "arrival": 69840,
      "departure": 69840
    },
    {
      "stop": {
        "id": "2_2050",
        "lat": 48.120244,
        "lon": -1.599275,
        "name": "Cesson Collège",
        "code": 2050
      },
      "arrival": 69900,
      "departure": 69900
    },
    {
      "stop": {
        "id": "2_2007",
        "lat": 48.123121,
        "lon": -1.600517,
        "name": "Bourgchevreuil",
        "code": 2007
      },
      "arrival": 69960,
      "departure": 69960
    },
    {
      "stop": {
        "id": "2_2008",
        "lat": 48.123628,
        "lon": -1.604384,
        "name": "La Coulée",
        "code": 2008
      },
      "arrival": 70020,
      "departure": 70020
    },
    {
      "stop": {
        "id": "2_2009",
        "lat": 48.123585,
        "lon": -1.608134,
        "name": "Fontenelle",
        "code": 2009
      },
      "arrival": 70080,
      "departure": 70080
    },
    {
      "stop": {
        "id": "2_2010",
        "lat": 48.12279,
        "lon": -1.610938,
        "name": "Mare Pavée",
        "code": 2010
      },
      "arrival": 70140,
      "departure": 70140
    },
    {
      "stop": {
        "id": "2_2011",
        "lat": 48.121108,
        "lon": -1.60998,
        "name": "Maison d\u0027Accueil",
        "code": 2011
      },
      "arrival": 70140,
      "departure": 70140
    },
    {
      "stop": {
        "id": "2_2012",
        "lat": 48.11839,
        "lon": -1.608504,
        "name": "Muguet",
        "code": 2012
      },
      "arrival": 70200,
      "departure": 70200
    },
    {
      "stop": {
        "id": "2_2013",
        "lat": 48.116419,
        "lon": -1.607397,
        "name": "Vilaine",
        "code": 2013
      },
      "arrival": 70260,
      "departure": 70260
    },
    {
      "stop": {
        "id": "2_2014",
        "lat": 48.114721,
        "lon": -1.609708,
        "name": "Place Sévigné",
        "code": 2014
      },
      "arrival": 70320,
      "departure": 70320
    },
    {
      "stop": {
        "id": "2_2015",
        "lat": 48.114253,
        "lon": -1.616314,
        "name": "Hublais",
        "code": 2015
      },
      "arrival": 70380,
      "departure": 70380
    },
    {
      "stop": {
        "id": "2_2016",
        "lat": 48.114224,
        "lon": -1.621951,
        "name": "Taillis",
        "code": 2016
      },
      "arrival": 70500,
      "departure": 70500
    },
    {
      "stop": {
        "id": "2_2017",
        "lat": 48.114121,
        "lon": -1.630367,
        "name": "Champs Péans",
        "code": 2017
      },
      "arrival": 70620,
      "departure": 70620
    },
    {
      "stop": {
        "id": "2_1160",
        "lat": 48.114099,
        "lon": -1.637565,
        "name": "Tournebride",
        "code": 1160
      },
      "arrival": 70680,
      "departure": 70680
    },
    {
      "stop": {
        "id": "2_1603",
        "lat": 48.11325,
        "lon": -1.641287,
        "name": "Les Préales",
        "code": 1603
      },
      "arrival": 70800,
      "departure": 70800
    },
    {
      "stop": {
        "id": "2_1161",
        "lat": 48.112232,
        "lon": -1.644227,
        "name": "Plaine de Baud",
        "code": 1161
      },
      "arrival": 70860,
      "departure": 70860
    },
    {
      "stop": {
        "id": "2_1605",
        "lat": 48.110157,
        "lon": -1.656509,
        "name": "Pont de Strasbourg",
        "code": 1605
      },
      "arrival": 70980,
      "departure": 70980
    },
    {
      "stop": {
        "id": "2_1163",
        "lat": 48.110164,
        "lon": -1.660479,
        "name": "Robidou",
        "code": 1163
      },
      "arrival": 71040,
      "departure": 71040
    },
    {
      "stop": {
        "id": "2_1164",
        "lat": 48.110145,
        "lon": -1.663921,
        "name": "Pont de Châteaudun",
        "code": 1164
      },
      "arrival": 71100,
      "departure": 71100
    },
    {
      "stop": {
        "id": "2_1165",
        "lat": 48.110111,
        "lon": -1.67021,
        "name": "Paul Bert",
        "code": 1165
      },
      "arrival": 71160,
      "departure": 71160
    },
    {
      "stop": {
        "id": "2_1166",
        "lat": 48.109914,
        "lon": -1.675145,
        "name": "Musée Beaux Arts",
        "code": 1166
      },
      "arrival": 71280,
      "departure": 71280
    },
    {
      "stop": {
        "id": "2_1052",
        "lat": 48.109934,
        "lon": -1.678869,
        "name": "République",
        "code": 1052
      },
      "arrival": 71400,
      "departure": 71400
    },
    {
      "stop": {
        "id": "2_1051",
        "lat": 48.109888,
        "lon": -1.68328,
        "name": "Place de Bretagne",
        "code": 1051
      },
      "arrival": 71520,
      "departure": 71520
    },
    {
      "stop": {
        "id": "2_1402",
        "lat": 48.105647,
        "lon": -1.685188,
        "name": "Cité Judiciaire",
        "code": 1402
      },
      "arrival": 71760,
      "departure": 71760
    },
    {
      "stop": {
        "id": "2_1611",
        "lat": 48.105462,
        "lon": -1.688422,
        "name": "Redon",
        "code": 1611
      },
      "arrival": 71820,
      "departure": 71820
    },
    {
      "stop": {
        "id": "2_1613",
        "lat": 48.103012,
        "lon": -1.688808,
        "name": "Saint-Conwoïon",
        "code": 1613
      },
      "arrival": 71880,
      "departure": 71880
    },
    {
      "stop": {
        "id": "2_1591",
        "lat": 48.09891,
        "lon": -1.69368,
        "name": "Jules Verne",
        "code": 1591
      },
      "arrival": 72000,
      "departure": 72000
    },
    {
      "stop": {
        "id": "2_1571",
        "lat": 48.09829,
        "lon": -1.699389,
        "name": "Cœur de Courrouze",
        "code": 1571
      },
      "arrival": 72060,
      "departure": 72060
    },
    {
      "stop": {
        "id": "2_1589",
        "lat": 48.097935,
        "lon": -1.703985,
        "name": "Jules Maniez",
        "code": 1589
      },
      "arrival": 72180,
      "departure": 72180
    },
    {
      "stop": {
        "id": "2_2260",
        "lat": 48.093433,
        "lon": -1.70457,
        "name": "Dominos",
        "code": 2260
      },
      "arrival": 72300,
      "departure": 72300
    },
    {
      "stop": {
        "id": "2_2211",
        "lat": 48.087261,
        "lon": -1.707384,
        "name": "Gaité",
        "code": 2211
      },
      "arrival": 72480,
      "departure": 72480
    },
    {
      "stop": {
        "id": "2_2212",
        "lat": 48.084407,
        "lon": -1.709256,
        "name": "Roger Dodin",
        "code": 2212
      },
      "arrival": 72540,
      "departure": 72540
    },
    {
      "stop": {
        "id": "2_2264",
        "lat": 48.082821,
        "lon": -1.713051,
        "name": "Jean Jaurès",
        "code": 2264
      },
      "arrival": 72600,
      "departure": 72600
    },
    {
      "stop": {
        "id": "2_2213",
        "lat": 48.082491,
        "lon": -1.715453,
        "name": "Jean Marin",
        "code": 2213
      },
      "arrival": 72600,
      "departure": 72600
    },
    {
      "stop": {
        "id": "2_2203",
        "lat": 48.07942,
        "lon": -1.71571,
        "name": "Médiathèque",
        "code": 2203
      },
      "arrival": 72660,
      "departure": 72660
    },
    {
      "stop": {
        "id": "2_2215",
        "lat": 48.076909,
        "lon": -1.715921,
        "name": "Collège Jean Moulin",
        "code": 2215
      },
      "arrival": 72720,
      "departure": 72720
    },
    {
      "stop": {
        "id": "2_2201",
        "lat": 48.075489,
        "lon": -1.716264,
        "name": "Morinais",
        "code": 2201
      },
      "arrival": 72780,
      "departure": 72780
    }
  ],
  "route": {
    "id": "2_0006",
    "textColor": "1A171B",
    "color": "62C3D5",
    "description": "Majeure",
    "longName": "Cesson-Sévigné (Rigourdière) \u003c\u003e Saint-Jacques-de-la-Lande (Morinais)",
    "shortName": "6",
    "type": 3,
    "agencyId": "2"
  }
}