{
  "headsign": "34 | Cesson-Sévigné Saint-Etienne",
  "stopTimes": [
    {
      "stop": {
        "id": "2_1077",
        "lat": 48.08744064,
        "lon": -1.64342249,
        "name": "La Poterie",
        "code": 1077
      },
      "arrival": 27600,
      "departure": 27600
    },
    {
      "stop": {
        "id": "2_2035",
        "lat": 48.09961861,
        "lon": -1.62094448,
        "name": "Forum",
        "code": 2035
      },
      "arrival": 28140,
      "departure": 28140
    },
    {
      "stop": {
        "id": "2_2033",
        "lat": 48.1013897,
        "lon": -1.62358898,
        "name": "Bas Village",
        "code": 2033
      },
      "arrival": 28200,
      "departure": 28200
    },
    {
      "stop": {
        "id": "2_2061",
        "lat": 48.1064024,
        "lon": -1.62126872,
        "name": "ZI Sud-Est",
        "code": 2061
      },
      "arrival": 28260,
      "departure": 28260
    },
    {
      "stop": {
        "id": "2_2062",
        "lat": 48.10782767,
        "lon": -1.61408468,
        "name": "Rond Point de Bray",
        "code": 2062
      },
      "arrival": 28380,
      "departure": 28380
    },
    {
      "stop": {
        "id": "2_2063",
        "lat": 48.1093024,
        "lon": -1.6089112,
        "name": "Monniais",
        "code": 2063
      },
      "arrival": 28500,
      "departure": 28500
    },
    {
      "stop": {
        "id": "2_2064",
        "lat": 48.11257019,
        "lon": -1.60740614,
        "name": "Peupliers",
        "code": 2064
      },
      "arrival": 28620,
      "departure": 28620
    },
    {
      "stop": {
        "id": "2_2065",
        "lat": 48.11382762,
        "lon": -1.60314125,
        "name": "Cesson Gare",
        "code": 2065
      },
      "arrival": 28680,
      "departure": 28680
    },
    {
      "stop": {
        "id": "2_2022",
        "lat": 48.11467541,
        "lon": -1.60958194,
        "name": "Place Sévigné",
        "code": 2022
      },
      "arrival": 28740,
      "departure": 28740
    },
    {
      "stop": {
        "id": "2_2023",
        "lat": 48.11604857,
        "lon": -1.60696924,
        "name": "Vilaine",
        "code": 2023
      },
      "arrival": 28800,
      "departure": 28800
    },
    {
      "stop": {
        "id": "2_2066",
        "lat": 48.11834687,
        "lon": -1.60420821,
        "name": "Cesson Mairie",
        "code": 2066
      },
      "arrival": 28860,
      "departure": 28860
    },
    {
      "stop": {
        "id": "2_2067",
        "lat": 48.12037328,
        "lon": -1.60240598,
        "name": "Cesson Piscine",
        "code": 2067
      },
      "arrival": 28980,
      "departure": 28980
    },
    {
      "stop": {
        "id": "2_2068",
        "lat": 48.12317362,
        "lon": -1.60178843,
        "name": "Métairies Chalotais",
        "code": 2068
      },
      "arrival": 29040,
      "departure": 29040
    },
    {
      "stop": {
        "id": "2_2069",
        "lat": 48.1262903,
        "lon": -1.59907117,
        "name": "Cesson Cimetière",
        "code": 2069
      },
      "arrival": 29100,
      "departure": 29100
    },
    {
      "stop": {
        "id": "2_2052",
        "lat": 48.13114133,
        "lon": -1.59694891,
        "name": "Saint-Etienne",
        "code": 2052
      },
      "arrival": 29220,
      "departure": 29220
    }
  ],
  "route": {
    "id": "2_0034",
    "textColor": "DF171C",
    "color": "FEF466",
    "description": "Inter-quartiers",
    "longName": "ZI Sud-Est / La Poterie \u003c\u003e Cesson-Sévigné (Lycée Saint-Etienne)",
    "shortName": "34",
    "type": 3,
    "agencyId": "2"
  }
}