{
  "headsign": "227 | Vezin-le-Coquet Haie de Terre",
  "stopTimes": [
    {
      "stop": {
        "id": "2_3159",
        "lat": 48.152373,
        "lon": -1.771551,
        "name": "Centre scolaire Pacé",
        "code": 3159
      },
      "arrival": 45600,
      "departure": 45600
    },
    {
      "stop": {
        "id": "2_3754",
        "lat": 48.12091,
        "lon": -1.772466,
        "name": "Haie de Terre",
        "code": 3754
      },
      "arrival": 46200,
      "departure": 46200
    },
    {
      "stop": {
        "id": "2_3755",
        "lat": 48.120211,
        "lon": -1.765417,
        "name": "Vallée",
        "code": 3755
      },
      "arrival": 46260,
      "departure": 46260
    },
    {
      "stop": {
        "id": "2_3756",
        "lat": 48.119004,
        "lon": -1.760926,
        "name": "Lion d\u0027Or",
        "code": 3756
      },
      "arrival": 46320,
      "departure": 46320
    },
    {
      "stop": {
        "id": "2_3757",
        "lat": 48.11887,
        "lon": -1.756833,
        "name": "Vezin Centre",
        "code": 3757
      },
      "arrival": 46380,
      "departure": 46380
    },
    {
      "stop": {
        "id": "2_3767",
        "lat": 48.122951,
        "lon": -1.755366,
        "name": "Fresnot",
        "code": 3767
      },
      "arrival": 46380,
      "departure": 46380
    }
  ],
  "route": {
    "id": "2_0227",
    "textColor": "FFFFFF",
    "color": "BCA3CE",
    "description": "Complémentaire",
    "longName": "Saint-Gilles (Île des Bois) \u003c\u003e Pacé (Collège Saint-Gabriel)",
    "shortName": "227",
    "type": 3,
    "agencyId": "2"
  }
}