{
  "headsign": "76 | Rennes Lycée Basch",
  "stopTimes": [
    {
      "stop": {
        "id": "2_3851",
        "lat": 48.07460255,
        "lon": -1.85367611,
        "name": "Mordelles Pâtis",
        "code": 3851
      },
      "arrival": 50100,
      "departure": 50100
    },
    {
      "stop": {
        "id": "2_3852",
        "lat": 48.07194172,
        "lon": -1.84998802,
        "name": "Mordelles Eglise",
        "code": 3852
      },
      "arrival": 50220,
      "departure": 50220
    },
    {
      "stop": {
        "id": "2_3853",
        "lat": 48.07371138,
        "lon": -1.84642407,
        "name": "Mordelles Mairie",
        "code": 3853
      },
      "arrival": 50280,
      "departure": 50280
    },
    {
      "stop": {
        "id": "2_3854",
        "lat": 48.07584083,
        "lon": -1.8422202,
        "name": "Mordelles Lilas",
        "code": 3854
      },
      "arrival": 50340,
      "departure": 50340
    },
    {
      "stop": {
        "id": "2_3855",
        "lat": 48.07771885,
        "lon": -1.83754903,
        "name": "Gretay",
        "code": 3855
      },
      "arrival": 50400,
      "departure": 50400
    },
    {
      "stop": {
        "id": "2_2542",
        "lat": 48.09448664,
        "lon": -1.79576128,
        "name": "Egalité",
        "code": 2542
      },
      "arrival": 50820,
      "departure": 50820
    },
    {
      "stop": {
        "id": "2_2540",
        "lat": 48.09683042,
        "lon": -1.79811004,
        "name": "Acquets",
        "code": 2540
      },
      "arrival": 50880,
      "departure": 50880
    },
    {
      "stop": {
        "id": "2_2504",
        "lat": 48.09897121,
        "lon": -1.79693897,
        "name": "Brassens",
        "code": 2504
      },
      "arrival": 50880,
      "departure": 50880
    },
    {
      "stop": {
        "id": "2_2505",
        "lat": 48.10163022,
        "lon": -1.79451553,
        "name": "Bouleaux",
        "code": 2505
      },
      "arrival": 50940,
      "departure": 50940
    },
    {
      "stop": {
        "id": "2_2538",
        "lat": 48.10228085,
        "lon": -1.78735255,
        "name": "Gaston Bardet",
        "code": 2538
      },
      "arrival": 51000,
      "departure": 51000
    },
    {
      "stop": {
        "id": "2_3756",
        "lat": 48.1190811,
        "lon": -1.76101447,
        "name": "Lion d\u0027Or",
        "code": 3756
      },
      "arrival": 51540,
      "departure": 51540
    },
    {
      "stop": {
        "id": "2_3757",
        "lat": 48.11889936,
        "lon": -1.75681107,
        "name": "Vezin Centre",
        "code": 3757
      },
      "arrival": 51600,
      "departure": 51600
    },
    {
      "stop": {
        "id": "2_3770",
        "lat": 48.11902243,
        "lon": -1.74936828,
        "name": "Champs Bleus",
        "code": 3770
      },
      "arrival": 51660,
      "departure": 51660
    },
    {
      "stop": {
        "id": "2_1503",
        "lat": 48.11616144,
        "lon": -1.71594912,
        "name": "Colin",
        "code": 1503
      },
      "arrival": 51960,
      "departure": 51960
    },
    {
      "stop": {
        "id": "2_1422",
        "lat": 48.11628685,
        "lon": -1.71146403,
        "name": "Merlin",
        "code": 1422
      },
      "arrival": 52020,
      "departure": 52020
    },
    {
      "stop": {
        "id": "2_1295",
        "lat": 48.11673996,
        "lon": -1.70463882,
        "name": "Berger",
        "code": 1295
      },
      "arrival": 52140,
      "departure": 52140
    },
    {
      "stop": {
        "id": "2_1297",
        "lat": 48.12180414,
        "lon": -1.70378405,
        "name": "Villejean-Université",
        "code": 1297
      },
      "arrival": 52320,
      "departure": 52320
    },
    {
      "stop": {
        "id": "2_1566",
        "lat": 48.1253701,
        "lon": -1.69257643,
        "name": "Lycée Basch",
        "code": 1566
      },
      "arrival": 52560,
      "departure": 52560
    }
  ],
  "route": {
    "id": "2_0076",
    "textColor": "1A171B",
    "color": "62C3D5",
    "description": "Métropolitaine",
    "longName": "Rennes (Villejean-Université) \u003c\u003e Vezin-le-Coquet / Le Rheu / Mordelles",
    "shortName": "76",
    "type": 3,
    "agencyId": "2"
  }
}