{
  "headsign": "78 | Rennes Villejean-Université",
  "stopTimes": [
    {
      "stop": {
        "id": "2_2437",
        "lat": 48.18157224,
        "lon": -1.63928389,
        "name": "Betton Centre",
        "code": 2437
      },
      "arrival": 27900,
      "departure": 27900
    },
    {
      "stop": {
        "id": "2_2418",
        "lat": 48.18191158,
        "lon": -1.64120022,
        "name": "Betton Mairie",
        "code": 2418
      },
      "arrival": 27960,
      "departure": 27960
    },
    {
      "stop": {
        "id": "2_2448",
        "lat": 48.18380616,
        "lon": -1.64642136,
        "name": "Trégor",
        "code": 2448
      },
      "arrival": 28080,
      "departure": 28080
    },
    {
      "stop": {
        "id": "2_2438",
        "lat": 48.1849863,
        "lon": -1.65009721,
        "name": "Mézières",
        "code": 2438
      },
      "arrival": 28140,
      "departure": 28140
    },
    {
      "stop": {
        "id": "2_2454",
        "lat": 48.18321826,
        "lon": -1.65476515,
        "name": "Renaudais",
        "code": 2454
      },
      "arrival": 28260,
      "departure": 28260
    },
    {
      "stop": {
        "id": "2_2456",
        "lat": 48.17878432,
        "lon": -1.66094507,
        "name": "Pont Brand",
        "code": 2456
      },
      "arrival": 28440,
      "departure": 28440
    },
    {
      "stop": {
        "id": "2_2452",
        "lat": 48.17544354,
        "lon": -1.66235738,
        "name": "Chaperonnais",
        "code": 2452
      },
      "arrival": 28500,
      "departure": 28500
    },
    {
      "stop": {
        "id": "2_2833",
        "lat": 48.16021058,
        "lon": -1.67713605,
        "name": "Jean-Paul II",
        "code": 2833
      },
      "arrival": 28800,
      "departure": 28800
    },
    {
      "stop": {
        "id": "2_2831",
        "lat": 48.15358811,
        "lon": -1.67869141,
        "name": "Holywell",
        "code": 2831
      },
      "arrival": 28920,
      "departure": 28920
    },
    {
      "stop": {
        "id": "2_2848",
        "lat": 48.15187265,
        "lon": -1.68443158,
        "name": "Forge",
        "code": 2848
      },
      "arrival": 29040,
      "departure": 29040
    },
    {
      "stop": {
        "id": "2_2850",
        "lat": 48.15448628,
        "lon": -1.69261894,
        "name": "Paul-Emile Victor",
        "code": 2850
      },
      "arrival": 29220,
      "departure": 29220
    },
    {
      "stop": {
        "id": "2_2838",
        "lat": 48.15390514,
        "lon": -1.69683761,
        "name": "Alphasis",
        "code": 2838
      },
      "arrival": 29280,
      "departure": 29280
    },
    {
      "stop": {
        "id": "2_2852",
        "lat": 48.14808892,
        "lon": -1.69686188,
        "name": "Edonia",
        "code": 2852
      },
      "arrival": 29400,
      "departure": 29400
    },
    {
      "stop": {
        "id": "2_2817",
        "lat": 48.1430331,
        "lon": -1.68650406,
        "name": "CHP Saint-Grégoire",
        "code": 2817
      },
      "arrival": 29520,
      "departure": 29520
    },
    {
      "stop": {
        "id": "2_2803",
        "lat": 48.13739455,
        "lon": -1.6885143,
        "name": "La Plesse",
        "code": 2803
      },
      "arrival": 29580,
      "departure": 29580
    },
    {
      "stop": {
        "id": "2_2801",
        "lat": 48.13580524,
        "lon": -1.69311343,
        "name": "Grand Quartier",
        "code": 2801
      },
      "arrival": 29640,
      "departure": 29640
    },
    {
      "stop": {
        "id": "2_1543",
        "lat": 48.13134643,
        "lon": -1.69183512,
        "name": "Léonard",
        "code": 1543
      },
      "arrival": 29820,
      "departure": 29820
    },
    {
      "stop": {
        "id": "2_1493",
        "lat": 48.12716785,
        "lon": -1.69331907,
        "name": "Lycée Basch",
        "code": 1493
      },
      "arrival": 29940,
      "departure": 29940
    },
    {
      "stop": {
        "id": "2_1497",
        "lat": 48.12102411,
        "lon": -1.70300103,
        "name": "Villejean-Université",
        "code": 1497
      },
      "arrival": 30300,
      "departure": 30300
    }
  ],
  "route": {
    "id": "2_0078",
    "textColor": "FFFFFF",
    "color": "E3006A",
    "description": "Métropolitaine",
    "longName": "Rennes (Villejean-Université) \u003c\u003e Saint-Grégoire / Betton (Centre)",
    "shortName": "78",
    "type": 3,
    "agencyId": "2"
  }
}