{
  "headsign": "11 | ZI Sud-Est",
  "stopTimes": [
    {
      "stop": {
        "id": "2_3751",
        "lat": 48.10740152,
        "lon": -1.73924668,
        "name": "ZI Ouest",
        "code": 3751
      },
      "arrival": 45480,
      "departure": 45480
    },
    {
      "stop": {
        "id": "2_3752",
        "lat": 48.10474061,
        "lon": -1.73906178,
        "name": "Trois Marches",
        "code": 3752
      },
      "arrival": 45540,
      "departure": 45540
    },
    {
      "stop": {
        "id": "2_3769",
        "lat": 48.10421313,
        "lon": -1.73603999,
        "name": "Marais",
        "code": 3769
      },
      "arrival": 45540,
      "departure": 45540
    },
    {
      "stop": {
        "id": "2_1229",
        "lat": 48.10118185,
        "lon": -1.73162775,
        "name": "Servigné",
        "code": 1229
      },
      "arrival": 45660,
      "departure": 45660
    },
    {
      "stop": {
        "id": "2_1230",
        "lat": 48.10210977,
        "lon": -1.72691496,
        "name": "Jardin Moderne",
        "code": 1230
      },
      "arrival": 45720,
      "departure": 45720
    },
    {
      "stop": {
        "id": "2_1231",
        "lat": 48.10328122,
        "lon": -1.72333208,
        "name": "Robinot de St Cyr",
        "code": 1231
      },
      "arrival": 45720,
      "departure": 45720
    },
    {
      "stop": {
        "id": "2_1232",
        "lat": 48.10625606,
        "lon": -1.72374575,
        "name": "Le Hô",
        "code": 1232
      },
      "arrival": 45780,
      "departure": 45780
    },
    {
      "stop": {
        "id": "2_1233",
        "lat": 48.10704452,
        "lon": -1.72187845,
        "name": "Lemaistre",
        "code": 1233
      },
      "arrival": 45840,
      "departure": 45840
    },
    {
      "stop": {
        "id": "2_1234",
        "lat": 48.10775888,
        "lon": -1.71484897,
        "name": "Stade Rennais",
        "code": 1234
      },
      "arrival": 45960,
      "departure": 45960
    },
    {
      "stop": {
        "id": "2_1235",
        "lat": 48.10892663,
        "lon": -1.70977108,
        "name": "Géniaux",
        "code": 1235
      },
      "arrival": 46020,
      "departure": 46020
    },
    {
      "stop": {
        "id": "2_1236",
        "lat": 48.10881331,
        "lon": -1.7056153,
        "name": "Kerviler",
        "code": 1236
      },
      "arrival": 46080,
      "departure": 46080
    },
    {
      "stop": {
        "id": "2_1237",
        "lat": 48.10773621,
        "lon": -1.70211405,
        "name": "Papeteries",
        "code": 1237
      },
      "arrival": 46140,
      "departure": 46140
    },
    {
      "stop": {
        "id": "2_1238",
        "lat": 48.1086959,
        "lon": -1.69884796,
        "name": "Guilloux Lorient",
        "code": 1238
      },
      "arrival": 46200,
      "departure": 46200
    },
    {
      "stop": {
        "id": "2_1239",
        "lat": 48.10814248,
        "lon": -1.6948685,
        "name": "Chèques Postaux",
        "code": 1239
      },
      "arrival": 46260,
      "departure": 46260
    },
    {
      "stop": {
        "id": "2_1240",
        "lat": 48.10927186,
        "lon": -1.68970708,
        "name": "Le Mail",
        "code": 1240
      },
      "arrival": 46380,
      "departure": 46380
    },
    {
      "stop": {
        "id": "2_1091",
        "lat": 48.10977885,
        "lon": -1.68388248,
        "name": "Place de Bretagne",
        "code": 1091
      },
      "arrival": 46500,
      "departure": 46500
    },
    {
      "stop": {
        "id": "2_1242",
        "lat": 48.10980333,
        "lon": -1.6795219,
        "name": "République",
        "code": 1242
      },
      "arrival": 46680,
      "departure": 46680
    },
    {
      "stop": {
        "id": "2_1088",
        "lat": 48.10744897,
        "lon": -1.67491383,
        "name": "Liberté TNB",
        "code": 1088
      },
      "arrival": 46860,
      "departure": 46860
    },
    {
      "stop": {
        "id": "2_1087",
        "lat": 48.1060299,
        "lon": -1.67410184,
        "name": "Champs Libres",
        "code": 1087
      },
      "arrival": 46980,
      "departure": 46980
    },
    {
      "stop": {
        "id": "2_1086",
        "lat": 48.10400351,
        "lon": -1.67201145,
        "name": "Gares",
        "code": 1086
      },
      "arrival": 47040,
      "departure": 47040
    },
    {
      "stop": {
        "id": "2_1085",
        "lat": 48.10473324,
        "lon": -1.66565625,
        "name": "Laënnec",
        "code": 1085
      },
      "arrival": 47160,
      "departure": 47160
    },
    {
      "stop": {
        "id": "2_1243",
        "lat": 48.10254897,
        "lon": -1.66111869,
        "name": "Croix Saint-Hélier",
        "code": 1243
      },
      "arrival": 47220,
      "departure": 47220
    },
    {
      "stop": {
        "id": "2_1244",
        "lat": 48.10229227,
        "lon": -1.65513195,
        "name": "Mouézy",
        "code": 1244
      },
      "arrival": 47280,
      "departure": 47280
    },
    {
      "stop": {
        "id": "2_1211",
        "lat": 48.10317679,
        "lon": -1.65251241,
        "name": "Serpette",
        "code": 1211
      },
      "arrival": 47340,
      "departure": 47340
    },
    {
      "stop": {
        "id": "2_1246",
        "lat": 48.10439597,
        "lon": -1.64934184,
        "name": "Cimetière de l\u0027Est",
        "code": 1246
      },
      "arrival": 47400,
      "departure": 47400
    },
    {
      "stop": {
        "id": "2_1247",
        "lat": 48.10491097,
        "lon": -1.64382886,
        "name": "Pavie",
        "code": 1247
      },
      "arrival": 47460,
      "departure": 47460
    },
    {
      "stop": {
        "id": "2_1248",
        "lat": 48.10398522,
        "lon": -1.63598216,
        "name": "Saint-Saëns (futur Pré Garel)",
        "code": 1248
      },
      "arrival": 47520,
      "departure": 47520
    },
    {
      "stop": {
        "id": "2_1249",
        "lat": 48.1035598,
        "lon": -1.63465287,
        "name": "Pré Garel",
        "code": 1249
      },
      "arrival": 47520,
      "departure": 47520
    },
    {
      "stop": {
        "id": "2_1250",
        "lat": 48.09978888,
        "lon": -1.63129425,
        "name": "Tremblaie",
        "code": 1250
      },
      "arrival": 47640,
      "departure": 47640
    },
    {
      "stop": {
        "id": "2_1251",
        "lat": 48.09707861,
        "lon": -1.62913256,
        "name": "Veyettes",
        "code": 1251
      },
      "arrival": 47640,
      "departure": 47640
    },
    {
      "stop": {
        "id": "2_3014",
        "lat": 48.09828412,
        "lon": -1.6227924,
        "name": "Breillou",
        "code": 3014
      },
      "arrival": 47760,
      "departure": 47760
    },
    {
      "stop": {
        "id": "2_2035",
        "lat": 48.09961861,
        "lon": -1.62094448,
        "name": "Forum",
        "code": 2035
      },
      "arrival": 47760,
      "departure": 47760
    },
    {
      "stop": {
        "id": "2_2033",
        "lat": 48.1013897,
        "lon": -1.62358898,
        "name": "Bas Village",
        "code": 2033
      },
      "arrival": 47820,
      "departure": 47820
    },
    {
      "stop": {
        "id": "2_2037",
        "lat": 48.1060664,
        "lon": -1.62569408,
        "name": "Erbonière",
        "code": 2037
      },
      "arrival": 47940,
      "departure": 47940
    },
    {
      "stop": {
        "id": "2_2032",
        "lat": 48.10649752,
        "lon": -1.62137125,
        "name": "ZI Sud Est (futur Charmilles)",
        "code": 2032
      },
      "arrival": 48000,
      "departure": 48000
    }
  ],
  "route": {
    "id": "2_0011",
    "textColor": "FFFFFF",
    "color": "DC81AE",
    "description": "Urbaine",
    "longName": "ZI Ouest / Stade Rennais \u003c\u003e Saint-Saëns / ZI Sud-Est",
    "shortName": "11",
    "type": 3,
    "agencyId": "2"
  }
}