{
  "headsign": "203 | Lycée Joliot-Curie",
  "stopTimes": [
    {
      "stop": {
        "id": "2_1477",
        "lat": 48.10388016,
        "lon": -1.67284842,
        "name": "Gares",
        "code": 1477
      },
      "arrival": 27300,
      "departure": 27300
    },
    {
      "stop": {
        "id": "2_1171",
        "lat": 48.11006771,
        "lon": -1.66358483,
        "name": "Pont de Châteaudun",
        "code": 1171
      },
      "arrival": 27540,
      "departure": 27540
    },
    {
      "stop": {
        "id": "2_1151",
        "lat": 48.11879169,
        "lon": -1.65161883,
        "name": "Vitré Danton",
        "code": 1151
      },
      "arrival": 27840,
      "departure": 27840
    },
    {
      "stop": {
        "id": "2_1153",
        "lat": 48.12250411,
        "lon": -1.65118232,
        "name": "Lycée Chateaubriand",
        "code": 1153
      },
      "arrival": 28020,
      "departure": 28020
    },
    {
      "stop": {
        "id": "2_1154",
        "lat": 48.12608523,
        "lon": -1.65181702,
        "name": "Joliot-Curie",
        "code": 1154
      },
      "arrival": 28080,
      "departure": 28080
    }
  ],
  "route": {
    "id": "2_0203",
    "textColor": "FFFFFF",
    "color": "F39200",
    "description": "Complémentaire",
    "longName": "Gares \u003c\u003e Lycée Joliot-Curie",
    "shortName": "203",
    "type": 3,
    "agencyId": "2"
  }
}