{
  "headsign": "6 | Saint-Jacques Morinais",
  "stopTimes": [
    {
      "stop": {
        "id": "2_2089",
        "lat": 48.113572,
        "lon": -1.59052,
        "name": "Rigourdière",
        "code": 2089
      },
      "arrival": 76500,
      "departure": 76500
    },
    {
      "stop": {
        "id": "2_2039",
        "lat": 48.114462,
        "lon": -1.600472,
        "name": "Bordage",
        "code": 2039
      },
      "arrival": 76680,
      "departure": 76680
    },
    {
      "stop": {
        "id": "2_2040",
        "lat": 48.116167,
        "lon": -1.600377,
        "name": "Chalotais",
        "code": 2040
      },
      "arrival": 76740,
      "departure": 76740
    },
    {
      "stop": {
        "id": "2_2050",
        "lat": 48.120244,
        "lon": -1.599275,
        "name": "Cesson Collège",
        "code": 2050
      },
      "arrival": 76800,
      "departure": 76800
    },
    {
      "stop": {
        "id": "2_2007",
        "lat": 48.123121,
        "lon": -1.600517,
        "name": "Bourgchevreuil",
        "code": 2007
      },
      "arrival": 76860,
      "departure": 76860
    },
    {
      "stop": {
        "id": "2_2008",
        "lat": 48.123628,
        "lon": -1.604384,
        "name": "La Coulée",
        "code": 2008
      },
      "arrival": 76920,
      "departure": 76920
    },
    {
      "stop": {
        "id": "2_2009",
        "lat": 48.123585,
        "lon": -1.608134,
        "name": "Fontenelle",
        "code": 2009
      },
      "arrival": 76980,
      "departure": 76980
    },
    {
      "stop": {
        "id": "2_2010",
        "lat": 48.12279,
        "lon": -1.610938,
        "name": "Mare Pavée",
        "code": 2010
      },
      "arrival": 76980,
      "departure": 76980
    },
    {
      "stop": {
        "id": "2_2011",
        "lat": 48.121108,
        "lon": -1.60998,
        "name": "Maison d\u0027Accueil",
        "code": 2011
      },
      "arrival": 77040,
      "departure": 77040
    },
    {
      "stop": {
        "id": "2_2012",
        "lat": 48.11839,
        "lon": -1.608504,
        "name": "Muguet",
        "code": 2012
      },
      "arrival": 77100,
      "departure": 77100
    },
    {
      "stop": {
        "id": "2_2013",
        "lat": 48.116419,
        "lon": -1.607397,
        "name": "Vilaine",
        "code": 2013
      },
      "arrival": 77100,
      "departure": 77100
    },
    {
      "stop": {
        "id": "2_2014",
        "lat": 48.114721,
        "lon": -1.609708,
        "name": "Place Sévigné",
        "code": 2014
      },
      "arrival": 77160,
      "departure": 77160
    },
    {
      "stop": {
        "id": "2_2015",
        "lat": 48.114253,
        "lon": -1.616314,
        "name": "Hublais",
        "code": 2015
      },
      "arrival": 77220,
      "departure": 77220
    },
    {
      "stop": {
        "id": "2_2016",
        "lat": 48.114224,
        "lon": -1.621951,
        "name": "Taillis",
        "code": 2016
      },
      "arrival": 77280,
      "departure": 77280
    },
    {
      "stop": {
        "id": "2_2017",
        "lat": 48.114121,
        "lon": -1.630367,
        "name": "Champs Péans",
        "code": 2017
      },
      "arrival": 77400,
      "departure": 77400
    },
    {
      "stop": {
        "id": "2_1160",
        "lat": 48.114099,
        "lon": -1.637565,
        "name": "Tournebride",
        "code": 1160
      },
      "arrival": 77460,
      "departure": 77460
    },
    {
      "stop": {
        "id": "2_1603",
        "lat": 48.11325,
        "lon": -1.641287,
        "name": "Les Préales",
        "code": 1603
      },
      "arrival": 77520,
      "departure": 77520
    },
    {
      "stop": {
        "id": "2_1161",
        "lat": 48.112232,
        "lon": -1.644227,
        "name": "Plaine de Baud",
        "code": 1161
      },
      "arrival": 77580,
      "departure": 77580
    },
    {
      "stop": {
        "id": "2_1605",
        "lat": 48.110157,
        "lon": -1.656509,
        "name": "Pont de Strasbourg",
        "code": 1605
      },
      "arrival": 77700,
      "departure": 77700
    },
    {
      "stop": {
        "id": "2_1163",
        "lat": 48.110164,
        "lon": -1.660479,
        "name": "Robidou",
        "code": 1163
      },
      "arrival": 77760,
      "departure": 77760
    },
    {
      "stop": {
        "id": "2_1164",
        "lat": 48.110145,
        "lon": -1.663921,
        "name": "Pont de Châteaudun",
        "code": 1164
      },
      "arrival": 77820,
      "departure": 77820
    },
    {
      "stop": {
        "id": "2_1165",
        "lat": 48.110111,
        "lon": -1.67021,
        "name": "Paul Bert",
        "code": 1165
      },
      "arrival": 77880,
      "departure": 77880
    },
    {
      "stop": {
        "id": "2_1166",
        "lat": 48.109914,
        "lon": -1.675145,
        "name": "Musée Beaux Arts",
        "code": 1166
      },
      "arrival": 77940,
      "departure": 77940
    },
    {
      "stop": {
        "id": "2_1052",
        "lat": 48.109934,
        "lon": -1.678869,
        "name": "République",
        "code": 1052
      },
      "arrival": 78060,
      "departure": 78600
    },
    {
      "stop": {
        "id": "2_1051",
        "lat": 48.109888,
        "lon": -1.68328,
        "name": "Place de Bretagne",
        "code": 1051
      },
      "arrival": 78660,
      "departure": 78660
    },
    {
      "stop": {
        "id": "2_1402",
        "lat": 48.105647,
        "lon": -1.685188,
        "name": "Cité Judiciaire",
        "code": 1402
      },
      "arrival": 78840,
      "departure": 78840
    },
    {
      "stop": {
        "id": "2_1611",
        "lat": 48.105462,
        "lon": -1.688422,
        "name": "Redon",
        "code": 1611
      },
      "arrival": 78900,
      "departure": 78900
    },
    {
      "stop": {
        "id": "2_1613",
        "lat": 48.103012,
        "lon": -1.688808,
        "name": "Saint-Conwoïon",
        "code": 1613
      },
      "arrival": 78960,
      "departure": 78960
    },
    {
      "stop": {
        "id": "2_1591",
        "lat": 48.09891,
        "lon": -1.69368,
        "name": "Jules Verne",
        "code": 1591
      },
      "arrival": 79020,
      "departure": 79020
    },
    {
      "stop": {
        "id": "2_1571",
        "lat": 48.09829,
        "lon": -1.699389,
        "name": "Cœur de Courrouze",
        "code": 1571
      },
      "arrival": 79080,
      "departure": 79080
    },
    {
      "stop": {
        "id": "2_1589",
        "lat": 48.097935,
        "lon": -1.703985,
        "name": "Jules Maniez",
        "code": 1589
      },
      "arrival": 79200,
      "departure": 79200
    },
    {
      "stop": {
        "id": "2_2260",
        "lat": 48.093433,
        "lon": -1.70457,
        "name": "Dominos",
        "code": 2260
      },
      "arrival": 79320,
      "departure": 79320
    },
    {
      "stop": {
        "id": "2_2211",
        "lat": 48.087261,
        "lon": -1.707384,
        "name": "Gaité",
        "code": 2211
      },
      "arrival": 79440,
      "departure": 79440
    },
    {
      "stop": {
        "id": "2_2212",
        "lat": 48.084407,
        "lon": -1.709256,
        "name": "Roger Dodin",
        "code": 2212
      },
      "arrival": 79500,
      "departure": 79500
    },
    {
      "stop": {
        "id": "2_2264",
        "lat": 48.082821,
        "lon": -1.713051,
        "name": "Jean Jaurès",
        "code": 2264
      },
      "arrival": 79560,
      "departure": 79560
    },
    {
      "stop": {
        "id": "2_2213",
        "lat": 48.082491,
        "lon": -1.715453,
        "name": "Jean Marin",
        "code": 2213
      },
      "arrival": 79560,
      "departure": 79560
    },
    {
      "stop": {
        "id": "2_2203",
        "lat": 48.07942,
        "lon": -1.71571,
        "name": "Médiathèque",
        "code": 2203
      },
      "arrival": 79620,
      "departure": 79620
    },
    {
      "stop": {
        "id": "2_2215",
        "lat": 48.076909,
        "lon": -1.715921,
        "name": "Collège Jean Moulin",
        "code": 2215
      },
      "arrival": 79680,
      "departure": 79680
    },
    {
      "stop": {
        "id": "2_2201",
        "lat": 48.075489,
        "lon": -1.716264,
        "name": "Morinais",
        "code": 2201
      },
      "arrival": 79740,
      "departure": 79740
    }
  ],
  "route": {
    "id": "2_0006",
    "textColor": "1A171B",
    "color": "62C3D5",
    "description": "Majeure",
    "longName": "Cesson-Sévigné (Rigourdière) \u003c\u003e Saint-Jacques-de-la-Lande (Morinais)",
    "shortName": "6",
    "type": 3,
    "agencyId": "2"
  }
}