{
  "headsign": "1 | Chantepie Rosa Parks",
  "stopTimes": [
    {
      "stop": {
        "id": "2_2126",
        "lat": 48.134763,
        "lon": -1.621832,
        "name": "Champs Blancs",
        "code": 2126
      },
      "arrival": 56700,
      "departure": 56700
    },
    {
      "stop": {
        "id": "2_2124",
        "lat": 48.131589,
        "lon": -1.624653,
        "name": "Chêne Germain",
        "code": 2124
      },
      "arrival": 56820,
      "departure": 56820
    },
    {
      "stop": {
        "id": "2_2002",
        "lat": 48.130233,
        "lon": -1.627664,
        "name": "Cesson Hôpital Privé",
        "code": 2002
      },
      "arrival": 56880,
      "departure": 56880
    },
    {
      "stop": {
        "id": "2_1001",
        "lat": 48.129077,
        "lon": -1.63253,
        "name": "Longs Champs",
        "code": 1001
      },
      "arrival": 56940,
      "departure": 56940
    },
    {
      "stop": {
        "id": "2_1002",
        "lat": 48.128283,
        "lon": -1.637782,
        "name": "Bouzat",
        "code": 1002
      },
      "arrival": 57060,
      "departure": 57060
    },
    {
      "stop": {
        "id": "2_1003",
        "lat": 48.127369,
        "lon": -1.640433,
        "name": "Gallets",
        "code": 1003
      },
      "arrival": 57060,
      "departure": 57060
    },
    {
      "stop": {
        "id": "2_1004",
        "lat": 48.125244,
        "lon": -1.642676,
        "name": "Donzelot",
        "code": 1004
      },
      "arrival": 57180,
      "departure": 57180
    },
    {
      "stop": {
        "id": "2_1005",
        "lat": 48.123363,
        "lon": -1.646317,
        "name": "Mirabeau",
        "code": 1005
      },
      "arrival": 57240,
      "departure": 57240
    },
    {
      "stop": {
        "id": "2_1006",
        "lat": 48.12229,
        "lon": -1.650742,
        "name": "Turmel",
        "code": 1006
      },
      "arrival": 57300,
      "departure": 57300
    },
    {
      "stop": {
        "id": "2_1007",
        "lat": 48.121446,
        "lon": -1.655036,
        "name": "Assomption",
        "code": 1007
      },
      "arrival": 57420,
      "departure": 57420
    },
    {
      "stop": {
        "id": "2_1008",
        "lat": 48.123212,
        "lon": -1.660216,
        "name": "Painlevé",
        "code": 1008
      },
      "arrival": 57540,
      "departure": 57540
    },
    {
      "stop": {
        "id": "2_1009",
        "lat": 48.121635,
        "lon": -1.663186,
        "name": "Metz Volney",
        "code": 1009
      },
      "arrival": 57600,
      "departure": 57600
    },
    {
      "stop": {
        "id": "2_1010",
        "lat": 48.119241,
        "lon": -1.667693,
        "name": "Guéhenno",
        "code": 1010
      },
      "arrival": 57720,
      "departure": 57720
    },
    {
      "stop": {
        "id": "2_1011",
        "lat": 48.118312,
        "lon": -1.671315,
        "name": "Fac de Droit",
        "code": 1011
      },
      "arrival": 57780,
      "departure": 57780
    },
    {
      "stop": {
        "id": "2_1012",
        "lat": 48.11605,
        "lon": -1.674245,
        "name": "Sévigné",
        "code": 1012
      },
      "arrival": 57840,
      "departure": 57840
    },
    {
      "stop": {
        "id": "2_1014",
        "lat": 48.113739,
        "lon": -1.679038,
        "name": "Sainte-Anne",
        "code": 1014
      },
      "arrival": 58020,
      "departure": 58020
    },
    {
      "stop": {
        "id": "2_1015",
        "lat": 48.11252,
        "lon": -1.680352,
        "name": "Champ Jacquet",
        "code": 1015
      },
      "arrival": 58080,
      "departure": 58080
    },
    {
      "stop": {
        "id": "2_1024",
        "lat": 48.109977,
        "lon": -1.680268,
        "name": "République Nemours",
        "code": 1024
      },
      "arrival": 58260,
      "departure": 58260
    },
    {
      "stop": {
        "id": "2_1017",
        "lat": 48.108415,
        "lon": -1.680213,
        "name": "Les Halles",
        "code": 1017
      },
      "arrival": 58320,
      "departure": 58320
    },
    {
      "stop": {
        "id": "2_1088",
        "lat": 48.107377,
        "lon": -1.674981,
        "name": "Liberté TNB",
        "code": 1088
      },
      "arrival": 58500,
      "departure": 58500
    },
    {
      "stop": {
        "id": "2_1087",
        "lat": 48.105276,
        "lon": -1.673939,
        "name": "Champs Libres",
        "code": 1087
      },
      "arrival": 58560,
      "departure": 58560
    },
    {
      "stop": {
        "id": "2_1477",
        "lat": 48.103839,
        "lon": -1.67286,
        "name": "Gares",
        "code": 1477
      },
      "arrival": 58680,
      "departure": 58680
    },
    {
      "stop": {
        "id": "2_1085",
        "lat": 48.10471,
        "lon": -1.666557,
        "name": "Laënnec",
        "code": 1085
      },
      "arrival": 58800,
      "departure": 58800
    },
    {
      "stop": {
        "id": "2_1243",
        "lat": 48.102515,
        "lon": -1.661094,
        "name": "Croix Saint-Hélier",
        "code": 1243
      },
      "arrival": 58860,
      "departure": 58860
    },
    {
      "stop": {
        "id": "2_1316",
        "lat": 48.101171,
        "lon": -1.652938,
        "name": "Raison",
        "code": 1316
      },
      "arrival": 58980,
      "departure": 58980
    },
    {
      "stop": {
        "id": "2_1317",
        "lat": 48.100101,
        "lon": -1.649415,
        "name": "Villebois-Mareuil",
        "code": 1317
      },
      "arrival": 59040,
      "departure": 59040
    },
    {
      "stop": {
        "id": "2_1318",
        "lat": 48.09913,
        "lon": -1.646084,
        "name": "Landry",
        "code": 1318
      },
      "arrival": 59040,
      "departure": 59040
    },
    {
      "stop": {
        "id": "2_1319",
        "lat": 48.097002,
        "lon": -1.641653,
        "name": "Domaine",
        "code": 1319
      },
      "arrival": 59160,
      "departure": 59160
    },
    {
      "stop": {
        "id": "2_1320",
        "lat": 48.094927,
        "lon": -1.637296,
        "name": "CARSAT",
        "code": 1320
      },
      "arrival": 59220,
      "departure": 59220
    },
    {
      "stop": {
        "id": "2_1321",
        "lat": 48.093777,
        "lon": -1.633778,
        "name": "Sauvaie",
        "code": 1321
      },
      "arrival": 59280,
      "departure": 59280
    },
    {
      "stop": {
        "id": "2_3008",
        "lat": 48.09031,
        "lon": -1.62417,
        "name": "Loges",
        "code": 3008
      },
      "arrival": 59460,
      "departure": 59460
    },
    {
      "stop": {
        "id": "2_3009",
        "lat": 48.088351,
        "lon": -1.619091,
        "name": "Chantepie Mairie",
        "code": 3009
      },
      "arrival": 59520,
      "departure": 59520
    },
    {
      "stop": {
        "id": "2_3010",
        "lat": 48.088212,
        "lon": -1.616864,
        "name": "Chantepie Eglise",
        "code": 3010
      },
      "arrival": 59580,
      "departure": 59580
    },
    {
      "stop": {
        "id": "2_3011",
        "lat": 48.090477,
        "lon": -1.615307,
        "name": "Hallouvry",
        "code": 3011
      },
      "arrival": 59640,
      "departure": 59640
    },
    {
      "stop": {
        "id": "2_3012",
        "lat": 48.088282,
        "lon": -1.61231,
        "name": "Bourgogne",
        "code": 3012
      },
      "arrival": 59700,
      "departure": 59700
    },
    {
      "stop": {
        "id": "2_3013",
        "lat": 48.085813,
        "lon": -1.614717,
        "name": "Deux Ruisseaux",
        "code": 3013
      },
      "arrival": 59760,
      "departure": 59760
    },
    {
      "stop": {
        "id": "2_3001",
        "lat": 48.085047,
        "lon": -1.610381,
        "name": "Gériatrie",
        "code": 3001
      },
      "arrival": 59820,
      "departure": 59820
    },
    {
      "stop": {
        "id": "2_3029",
        "lat": 48.085706,
        "lon": -1.607473,
        "name": "Touche Annette",
        "code": 3029
      },
      "arrival": 59940,
      "departure": 59940
    },
    {
      "stop": {
        "id": "2_3028",
        "lat": 48.085464,
        "lon": -1.604031,
        "name": "Rosa Parks",
        "code": 3028
      },
      "arrival": 60000,
      "departure": 60000
    }
  ],
  "route": {
    "id": "2_0001",
    "textColor": "1A171B",
    "color": "97BF0D",
    "description": "Majeure",
    "longName": "Cesson-Sévigné (Champs Blancs) \u003c\u003e Chantepie (Rosa Parks)",
    "shortName": "1",
    "type": 3,
    "agencyId": "2"
  }
}