{
  "headsign": "31 | Villejean Churchill",
  "stopTimes": [
    {
      "stop": {
        "id": "2_2088",
        "lat": 48.12464409,
        "lon": -1.59098871,
        "name": "Base de Loisirs",
        "code": 2088
      },
      "arrival": 36000,
      "departure": 36000
    },
    {
      "stop": {
        "id": "2_2005",
        "lat": 48.12449725,
        "lon": -1.59420301,
        "name": "Grand Domaine",
        "code": 2005
      },
      "arrival": 36060,
      "departure": 36060
    },
    {
      "stop": {
        "id": "2_2006",
        "lat": 48.12522678,
        "lon": -1.59652827,
        "name": "Petits Champs",
        "code": 2006
      },
      "arrival": 36120,
      "departure": 36120
    },
    {
      "stop": {
        "id": "2_2007",
        "lat": 48.12311351,
        "lon": -1.6005581,
        "name": "Bourgchevreuil",
        "code": 2007
      },
      "arrival": 36180,
      "departure": 36180
    },
    {
      "stop": {
        "id": "2_2054",
        "lat": 48.1231055,
        "lon": -1.60191712,
        "name": "Métairies Chalotais",
        "code": 2054
      },
      "arrival": 36180,
      "departure": 36180
    },
    {
      "stop": {
        "id": "2_2055",
        "lat": 48.11998872,
        "lon": -1.60211334,
        "name": "Cesson Piscine",
        "code": 2055
      },
      "arrival": 36240,
      "departure": 36240
    },
    {
      "stop": {
        "id": "2_2056",
        "lat": 48.11849755,
        "lon": -1.60450404,
        "name": "Cesson Mairie",
        "code": 2056
      },
      "arrival": 36300,
      "departure": 36300
    },
    {
      "stop": {
        "id": "2_2013",
        "lat": 48.11643917,
        "lon": -1.60735329,
        "name": "Vilaine",
        "code": 2013
      },
      "arrival": 36360,
      "departure": 36360
    },
    {
      "stop": {
        "id": "2_2014",
        "lat": 48.11468124,
        "lon": -1.60966321,
        "name": "Place Sévigné",
        "code": 2014
      },
      "arrival": 36420,
      "departure": 36420
    },
    {
      "stop": {
        "id": "2_2015",
        "lat": 48.11422249,
        "lon": -1.616313,
        "name": "Hublais",
        "code": 2015
      },
      "arrival": 36480,
      "departure": 36480
    },
    {
      "stop": {
        "id": "2_2016",
        "lat": 48.11418172,
        "lon": -1.62194938,
        "name": "Taillis",
        "code": 2016
      },
      "arrival": 36600,
      "departure": 36600
    },
    {
      "stop": {
        "id": "2_2017",
        "lat": 48.11408545,
        "lon": -1.63036724,
        "name": "Champs Péans",
        "code": 2017
      },
      "arrival": 36660,
      "departure": 36660
    },
    {
      "stop": {
        "id": "2_1175",
        "lat": 48.11698398,
        "lon": -1.63390592,
        "name": "Beaulieu Chimie",
        "code": 1175
      },
      "arrival": 36780,
      "departure": 36780
    },
    {
      "stop": {
        "id": "2_1204",
        "lat": 48.11947653,
        "lon": -1.63539005,
        "name": "Beaulieu INSA",
        "code": 1204
      },
      "arrival": 36840,
      "departure": 36840
    },
    {
      "stop": {
        "id": "2_1177",
        "lat": 48.12187978,
        "lon": -1.640286,
        "name": "Beaulieu Restau U",
        "code": 1177
      },
      "arrival": 36960,
      "departure": 36960
    },
    {
      "stop": {
        "id": "2_1178",
        "lat": 48.12078326,
        "lon": -1.64386488,
        "name": "Beaulieu Cité U",
        "code": 1178
      },
      "arrival": 36960,
      "departure": 36960
    },
    {
      "stop": {
        "id": "2_1112",
        "lat": 48.11890008,
        "lon": -1.65092835,
        "name": "Vitré Danton",
        "code": 1112
      },
      "arrival": 37080,
      "departure": 37080
    },
    {
      "stop": {
        "id": "2_1179",
        "lat": 48.11698404,
        "lon": -1.65584808,
        "name": "Jeanne d\u0027Arc",
        "code": 1179
      },
      "arrival": 37200,
      "departure": 37200
    },
    {
      "stop": {
        "id": "2_1180",
        "lat": 48.1161613,
        "lon": -1.65932935,
        "name": "Balzac",
        "code": 1180
      },
      "arrival": 37200,
      "departure": 37200
    },
    {
      "stop": {
        "id": "2_1199",
        "lat": 48.11620028,
        "lon": -1.66290006,
        "name": "Musset Cité U",
        "code": 1199
      },
      "arrival": 37260,
      "departure": 37260
    },
    {
      "stop": {
        "id": "2_1182",
        "lat": 48.11625003,
        "lon": -1.66505828,
        "name": "George Sand",
        "code": 1182
      },
      "arrival": 37320,
      "departure": 37320
    },
    {
      "stop": {
        "id": "2_1010",
        "lat": 48.11917575,
        "lon": -1.66765915,
        "name": "Guéhenno",
        "code": 1010
      },
      "arrival": 37440,
      "departure": 37440
    },
    {
      "stop": {
        "id": "2_1011",
        "lat": 48.11830509,
        "lon": -1.67120349,
        "name": "Fac de Droit",
        "code": 1011
      },
      "arrival": 37500,
      "departure": 37500
    },
    {
      "stop": {
        "id": "2_1572",
        "lat": 48.1179832,
        "lon": -1.67522707,
        "name": "Vincennes",
        "code": 1572
      },
      "arrival": 37560,
      "departure": 37560
    },
    {
      "stop": {
        "id": "2_1183",
        "lat": 48.11732292,
        "lon": -1.67882557,
        "name": "Hôtel Dieu",
        "code": 1183
      },
      "arrival": 37620,
      "departure": 37620
    },
    {
      "stop": {
        "id": "2_1184",
        "lat": 48.11717158,
        "lon": -1.68158998,
        "name": "Dinan",
        "code": 1184
      },
      "arrival": 37680,
      "departure": 37680
    },
    {
      "stop": {
        "id": "2_1185",
        "lat": 48.11767913,
        "lon": -1.68484515,
        "name": "Legraverend",
        "code": 1185
      },
      "arrival": 37800,
      "departure": 37800
    },
    {
      "stop": {
        "id": "2_1186",
        "lat": 48.11853287,
        "lon": -1.68815907,
        "name": "Anatole France",
        "code": 1186
      },
      "arrival": 37860,
      "departure": 37860
    },
    {
      "stop": {
        "id": "2_1047",
        "lat": 48.11617754,
        "lon": -1.69116733,
        "name": "La Touche",
        "code": 1047
      },
      "arrival": 37920,
      "departure": 37920
    },
    {
      "stop": {
        "id": "2_1048",
        "lat": 48.11334584,
        "lon": -1.69345994,
        "name": "Brest Verdun",
        "code": 1048
      },
      "arrival": 38040,
      "departure": 38040
    },
    {
      "stop": {
        "id": "2_1187",
        "lat": 48.11402889,
        "lon": -1.69825899,
        "name": "Maison Diocésaine",
        "code": 1187
      },
      "arrival": 38100,
      "departure": 38100
    },
    {
      "stop": {
        "id": "2_1192",
        "lat": 48.11489023,
        "lon": -1.70129713,
        "name": "La Salle",
        "code": 1192
      },
      "arrival": 38160,
      "departure": 38160
    },
    {
      "stop": {
        "id": "2_1189",
        "lat": 48.11603293,
        "lon": -1.70563932,
        "name": "Languedoc",
        "code": 1189
      },
      "arrival": 38220,
      "departure": 38220
    },
    {
      "stop": {
        "id": "2_1190",
        "lat": 48.11740688,
        "lon": -1.70825224,
        "name": "Villejean-Churchill",
        "code": 1190
      },
      "arrival": 38280,
      "departure": 38280
    }
  ],
  "route": {
    "id": "2_0031",
    "textColor": "E2001A",
    "color": "FFF164",
    "description": "Inter-quartiers",
    "longName": "Villejean-Churchill \u003c\u003e Cesson-Sévigné (Base de Loisirs)",
    "shortName": "31",
    "type": 3,
    "agencyId": "2"
  }
}