{
  "headsign": "57 | Bruz Centre",
  "stopTimes": [
    {
      "stop": {
        "id": "2_1501",
        "lat": 48.10936833,
        "lon": -1.6797666,
        "name": "République Pré Botté",
        "code": 1501
      },
      "arrival": 70500,
      "departure": 70500
    },
    {
      "stop": {
        "id": "2_1017",
        "lat": 48.10834874,
        "lon": -1.6801754,
        "name": "Les Halles",
        "code": 1017
      },
      "arrival": 70560,
      "departure": 70560
    },
    {
      "stop": {
        "id": "2_1018",
        "lat": 48.10618372,
        "lon": -1.68095249,
        "name": "Plélo Colombier",
        "code": 1018
      },
      "arrival": 70680,
      "departure": 70680
    },
    {
      "stop": {
        "id": "2_1019",
        "lat": 48.10515761,
        "lon": -1.68471093,
        "name": "Cité Judiciaire",
        "code": 1019
      },
      "arrival": 70800,
      "departure": 70800
    },
    {
      "stop": {
        "id": "2_1264",
        "lat": 48.10211461,
        "lon": -1.68438725,
        "name": "Pont de Nantes",
        "code": 1264
      },
      "arrival": 70860,
      "departure": 70860
    },
    {
      "stop": {
        "id": "2_1265",
        "lat": 48.0997896,
        "lon": -1.68708791,
        "name": "Foyer Rennais",
        "code": 1265
      },
      "arrival": 70920,
      "departure": 70920
    },
    {
      "stop": {
        "id": "2_1020",
        "lat": 48.09739351,
        "lon": -1.68956282,
        "name": "Mermoz",
        "code": 1020
      },
      "arrival": 70980,
      "departure": 70980
    },
    {
      "stop": {
        "id": "2_2208",
        "lat": 48.09571589,
        "lon": -1.69476004,
        "name": "Commeurec",
        "code": 2208
      },
      "arrival": 71040,
      "departure": 71040
    },
    {
      "stop": {
        "id": "2_2207",
        "lat": 48.09353292,
        "lon": -1.70134791,
        "name": "Lilas",
        "code": 2207
      },
      "arrival": 71100,
      "departure": 71100
    },
    {
      "stop": {
        "id": "2_2211",
        "lat": 48.0872716,
        "lon": -1.70734318,
        "name": "Gaité",
        "code": 2211
      },
      "arrival": 71220,
      "departure": 71220
    },
    {
      "stop": {
        "id": "2_2241",
        "lat": 48.08052746,
        "lon": -1.71255409,
        "name": "Malraux",
        "code": 2241
      },
      "arrival": 71340,
      "departure": 71340
    },
    {
      "stop": {
        "id": "2_2245",
        "lat": 48.07762901,
        "lon": -1.71267231,
        "name": "Haut Bois",
        "code": 2245
      },
      "arrival": 71340,
      "departure": 71340
    },
    {
      "stop": {
        "id": "2_2233",
        "lat": 48.06738312,
        "lon": -1.71730011,
        "name": "Abbé Grimault",
        "code": 2233
      },
      "arrival": 71520,
      "departure": 71520
    },
    {
      "stop": {
        "id": "2_2243",
        "lat": 48.06692895,
        "lon": -1.72233003,
        "name": "Aire Libre Aéroport",
        "code": 2243
      },
      "arrival": 71580,
      "departure": 71580
    },
    {
      "stop": {
        "id": "2_2242",
        "lat": 48.06503505,
        "lon": -1.72459513,
        "name": "Centre Météo",
        "code": 2242
      },
      "arrival": 71640,
      "departure": 71640
    },
    {
      "stop": {
        "id": "2_2244",
        "lat": 48.05988123,
        "lon": -1.73439523,
        "name": "Parc Expo",
        "code": 2244
      },
      "arrival": 71760,
      "departure": 71760
    },
    {
      "stop": {
        "id": "2_2315",
        "lat": 48.05279251,
        "lon": -1.7383715,
        "name": "Lande du Pont",
        "code": 2315
      },
      "arrival": 71880,
      "departure": 71880
    },
    {
      "stop": {
        "id": "2_2316",
        "lat": 48.04936083,
        "lon": -1.74065996,
        "name": "Etangs",
        "code": 2316
      },
      "arrival": 71940,
      "departure": 71940
    },
    {
      "stop": {
        "id": "2_2317",
        "lat": 48.04740124,
        "lon": -1.74208422,
        "name": "Coeur de Campus",
        "code": 2317
      },
      "arrival": 72000,
      "departure": 72000
    },
    {
      "stop": {
        "id": "2_2309",
        "lat": 48.04459244,
        "lon": -1.74645711,
        "name": "Schuman",
        "code": 2309
      },
      "arrival": 72060,
      "departure": 72060
    },
    {
      "stop": {
        "id": "2_2320",
        "lat": 48.04033666,
        "lon": -1.75517612,
        "name": "Croix Madame",
        "code": 2320
      },
      "arrival": 72120,
      "departure": 72120
    },
    {
      "stop": {
        "id": "2_2321",
        "lat": 48.03121202,
        "lon": -1.75955139,
        "name": "Gavrinis",
        "code": 2321
      },
      "arrival": 72240,
      "departure": 72240
    },
    {
      "stop": {
        "id": "2_2305",
        "lat": 48.02937675,
        "lon": -1.758008,
        "name": "Vert Buisson",
        "code": 2305
      },
      "arrival": 72300,
      "departure": 72300
    },
    {
      "stop": {
        "id": "2_2323",
        "lat": 48.02564107,
        "lon": -1.76076309,
        "name": "Rabine",
        "code": 2323
      },
      "arrival": 72420,
      "departure": 72420
    },
    {
      "stop": {
        "id": "2_2324",
        "lat": 48.02463005,
        "lon": -1.7572317,
        "name": "Haut Launay",
        "code": 2324
      },
      "arrival": 72540,
      "departure": 72540
    },
    {
      "stop": {
        "id": "2_2325",
        "lat": 48.02481885,
        "lon": -1.75055599,
        "name": "Herverie",
        "code": 2325
      },
      "arrival": 72660,
      "departure": 72660
    },
    {
      "stop": {
        "id": "2_2361",
        "lat": 48.02442778,
        "lon": -1.7448362,
        "name": "Bruz Centre",
        "code": 2361
      },
      "arrival": 72720,
      "departure": 72720
    }
  ],
  "route": {
    "id": "2_0057",
    "textColor": "FFFFFF",
    "color": "A9701E",
    "description": "Métropolitaine",
    "longName": "Rennes (République) \u003c\u003e Saint-Jacques-de-la-Lande / Bruz (Centre)",
    "shortName": "57",
    "type": 3,
    "agencyId": "2"
  }
}