{
  "headsign": "96 | Romillé Miniac",
  "stopTimes": [
    {
      "stop": {
        "id": "2_4850",
        "lat": 48.27199077,
        "lon": -1.85689014,
        "name": "Chapelle-Chaussée",
        "code": 4850
      },
      "arrival": 60900,
      "departure": 60900
    },
    {
      "stop": {
        "id": "2_4901",
        "lat": 48.24522684,
        "lon": -1.85374809,
        "name": "Langan Bourg",
        "code": 4901
      },
      "arrival": 61260,
      "departure": 61260
    },
    {
      "stop": {
        "id": "2_6001",
        "lat": 48.2169016,
        "lon": -1.89044066,
        "name": "Frères Aubert",
        "code": 6001
      },
      "arrival": 61740,
      "departure": 61740
    },
    {
      "stop": {
        "id": "2_6000",
        "lat": 48.21870667,
        "lon": -1.8933469,
        "name": "Romillé Collège",
        "code": 6000
      },
      "arrival": 61800,
      "departure": 61920
    },
    {
      "stop": {
        "id": "2_4801",
        "lat": 48.2969197,
        "lon": -1.94375077,
        "name": "Bécherel Centre",
        "code": 4801
      },
      "arrival": 62640,
      "departure": 62640
    },
    {
      "stop": {
        "id": "2_4803",
        "lat": 48.29971242,
        "lon": -1.93931644,
        "name": "Sévignière",
        "code": 4803
      },
      "arrival": 62700,
      "departure": 62700
    },
    {
      "stop": {
        "id": "2_4950",
        "lat": 48.28466552,
        "lon": -1.93073938,
        "name": "Miniac Eglise",
        "code": 4950
      },
      "arrival": 63120,
      "departure": 63120
    }
  ],
  "route": {
    "id": "2_0096",
    "textColor": "1A171B",
    "color": "AECC52",
    "description": "Intercommunale",
    "longName": "Miniac-sous-Bécherel / Bécherel \u003c\u003e Romillé \u003c\u003e Langan / La-Chapelle-Chaussée",
    "shortName": "96",
    "type": 3,
    "agencyId": "2"
  }
}