{
  "headsign": "91 | Bruz Cicé Blossac",
  "stopTimes": [
    {
      "stop": {
        "id": "2_2719",
        "lat": 48.04706769,
        "lon": -1.66111999,
        "name": "Petite Saudrais",
        "code": 2719
      },
      "arrival": 59160,
      "departure": 59160
    },
    {
      "stop": {
        "id": "2_2720",
        "lat": 48.0440836,
        "lon": -1.66135439,
        "name": "Salle Polyvalente",
        "code": 2720
      },
      "arrival": 59220,
      "departure": 59220
    },
    {
      "stop": {
        "id": "2_2721",
        "lat": 48.04244672,
        "lon": -1.665579,
        "name": "Centre",
        "code": 2721
      },
      "arrival": 59280,
      "departure": 59280
    },
    {
      "stop": {
        "id": "2_2722",
        "lat": 48.04077157,
        "lon": -1.67212053,
        "name": "Potiers",
        "code": 2722
      },
      "arrival": 59340,
      "departure": 59340
    },
    {
      "stop": {
        "id": "2_2726",
        "lat": 48.03964698,
        "lon": -1.67673187,
        "name": "Guyomerais",
        "code": 2726
      },
      "arrival": 59400,
      "departure": 59400
    },
    {
      "stop": {
        "id": "2_2750",
        "lat": 48.03925076,
        "lon": -1.68044618,
        "name": "Monts Gaultier",
        "code": 2750
      },
      "arrival": 59460,
      "departure": 59460
    },
    {
      "stop": {
        "id": "2_2915",
        "lat": 48.04133261,
        "lon": -1.69832095,
        "name": "Collège Pôle Sud",
        "code": 2915
      },
      "arrival": 59700,
      "departure": 59700
    },
    {
      "stop": {
        "id": "2_2916",
        "lat": 48.0416478,
        "lon": -1.70262208,
        "name": "Auditoire",
        "code": 2916
      },
      "arrival": 59760,
      "departure": 59760
    },
    {
      "stop": {
        "id": "2_2917",
        "lat": 48.04230372,
        "lon": -1.70649993,
        "name": "Chartres Centre",
        "code": 2917
      },
      "arrival": 59820,
      "departure": 59820
    },
    {
      "stop": {
        "id": "2_2908",
        "lat": 48.04140713,
        "lon": -1.712456,
        "name": "Callouët",
        "code": 2908
      },
      "arrival": 59880,
      "departure": 59880
    },
    {
      "stop": {
        "id": "2_2909",
        "lat": 48.03681768,
        "lon": -1.71247725,
        "name": "Taillebois",
        "code": 2909
      },
      "arrival": 59940,
      "departure": 59940
    },
    {
      "stop": {
        "id": "2_2925",
        "lat": 48.03309275,
        "lon": -1.71162122,
        "name": "Chaussairie",
        "code": 2925
      },
      "arrival": 60000,
      "departure": 60000
    },
    {
      "stop": {
        "id": "2_2351",
        "lat": 48.02919301,
        "lon": -1.71962005,
        "name": "Mare de la Salle",
        "code": 2351
      },
      "arrival": 60120,
      "departure": 60120
    },
    {
      "stop": {
        "id": "2_2328",
        "lat": 48.03490665,
        "lon": -1.72460581,
        "name": "Doublé",
        "code": 2328
      },
      "arrival": 60240,
      "departure": 60240
    },
    {
      "stop": {
        "id": "2_2338",
        "lat": 48.03327206,
        "lon": -1.7330462,
        "name": "Lavoisier",
        "code": 2338
      },
      "arrival": 60360,
      "departure": 60360
    },
    {
      "stop": {
        "id": "2_2339",
        "lat": 48.02837459,
        "lon": -1.73561585,
        "name": "Champ Niguel",
        "code": 2339
      },
      "arrival": 60480,
      "departure": 60480
    },
    {
      "stop": {
        "id": "2_2340",
        "lat": 48.02603219,
        "lon": -1.73454161,
        "name": "Bobinais",
        "code": 2340
      },
      "arrival": 60480,
      "departure": 60480
    },
    {
      "stop": {
        "id": "2_2341",
        "lat": 48.02366722,
        "lon": -1.73621021,
        "name": "Pasteur",
        "code": 2341
      },
      "arrival": 60600,
      "departure": 60600
    },
    {
      "stop": {
        "id": "2_2348",
        "lat": 48.02346099,
        "lon": -1.74333447,
        "name": "Victor Hugo",
        "code": 2348
      },
      "arrival": 60660,
      "departure": 60660
    },
    {
      "stop": {
        "id": "2_2360",
        "lat": 48.02494911,
        "lon": -1.74509798,
        "name": "Bruz Centre",
        "code": 2360
      },
      "arrival": 60720,
      "departure": 60720
    },
    {
      "stop": {
        "id": "2_2302",
        "lat": 48.02485673,
        "lon": -1.7507341,
        "name": "Herverie",
        "code": 2302
      },
      "arrival": 60780,
      "departure": 60780
    },
    {
      "stop": {
        "id": "2_2303",
        "lat": 48.02466598,
        "lon": -1.75723493,
        "name": "Haut Launay",
        "code": 2303
      },
      "arrival": 60900,
      "departure": 60900
    },
    {
      "stop": {
        "id": "2_2304",
        "lat": 48.02572872,
        "lon": -1.76082474,
        "name": "Rabine",
        "code": 2304
      },
      "arrival": 60960,
      "departure": 60960
    },
    {
      "stop": {
        "id": "2_2322",
        "lat": 48.02941268,
        "lon": -1.75801123,
        "name": "Vert Buisson",
        "code": 2322
      },
      "arrival": 61080,
      "departure": 61080
    },
    {
      "stop": {
        "id": "2_2306",
        "lat": 48.03364841,
        "lon": -1.7658388,
        "name": "Cicé Blossac",
        "code": 2306
      },
      "arrival": 61260,
      "departure": 61260
    }
  ],
  "route": {
    "id": "2_0091",
    "textColor": "1A171B",
    "color": "AECC52",
    "description": "Intercommunale",
    "longName": "Bruz / Chartres \u003c\u003e Noyal-Châtillon-sur-Seiche",
    "shortName": "91",
    "type": 3,
    "agencyId": "2"
  }
}