{
  "headsign": "40 | Beaulieu Atalante",
  "stopTimes": [
    {
      "stop": {
        "id": "2_1168",
        "lat": 48.109761,
        "lon": -1.678807,
        "name": "République",
        "code": 1168
      },
      "arrival": 59040,
      "departure": 59040
    },
    {
      "stop": {
        "id": "2_1169",
        "lat": 48.109809,
        "lon": -1.674483,
        "name": "Musée Beaux Arts",
        "code": 1169
      },
      "arrival": 59160,
      "departure": 59160
    },
    {
      "stop": {
        "id": "2_1174",
        "lat": 48.112437,
        "lon": -1.64292,
        "name": "Plaine de Baud",
        "code": 1174
      },
      "arrival": 59460,
      "departure": 59460
    },
    {
      "stop": {
        "id": "2_1604",
        "lat": 48.113551,
        "lon": -1.640947,
        "name": "Les Préales",
        "code": 1604
      },
      "arrival": 59520,
      "departure": 59520
    },
    {
      "stop": {
        "id": "2_1610",
        "lat": 48.114025,
        "lon": -1.636082,
        "name": "Tournebride",
        "code": 1610
      },
      "arrival": 59580,
      "departure": 59580
    },
    {
      "stop": {
        "id": "2_1175",
        "lat": 48.117101,
        "lon": -1.633896,
        "name": "Beaulieu Chimie",
        "code": 1175
      },
      "arrival": 59700,
      "departure": 59700
    },
    {
      "stop": {
        "id": "2_1204",
        "lat": 48.119511,
        "lon": -1.635317,
        "name": "Beaulieu INSA",
        "code": 1204
      },
      "arrival": 59760,
      "departure": 59760
    },
    {
      "stop": {
        "id": "2_1313",
        "lat": 48.121929,
        "lon": -1.638311,
        "name": "Beaulieu Restau U",
        "code": 1313
      },
      "arrival": 59820,
      "departure": 59820
    },
    {
      "stop": {
        "id": "2_1314",
        "lat": 48.125106,
        "lon": -1.632973,
        "name": "IUT",
        "code": 1314
      },
      "arrival": 59940,
      "departure": 59940
    },
    {
      "stop": {
        "id": "2_1290",
        "lat": 48.126929,
        "lon": -1.629221,
        "name": "Clos Courtel",
        "code": 1290
      },
      "arrival": 60000,
      "departure": 60000
    }
  ],
  "route": {
    "id": "2_0040",
    "textColor": "3D3C3F",
    "color": "FFDD00",
    "description": "Express urbaine",
    "longName": "République \u003c\u003e Beaulieu Atalante",
    "shortName": "40",
    "type": 3,
    "agencyId": "2"
  }
}