{
  "headsign": "210 | Rennes Lycée Basch",
  "stopTimes": [
    {
      "stop": {
        "id": "2_4322",
        "lat": 48.125447,
        "lon": -1.815491,
        "name": "L\u0027Hermitage Centre",
        "code": 4322
      },
      "arrival": 30000,
      "departure": 30000
    },
    {
      "stop": {
        "id": "2_4305",
        "lat": 48.124609,
        "lon": -1.811557,
        "name": "Village",
        "code": 4305
      },
      "arrival": 30060,
      "departure": 30060
    },
    {
      "stop": {
        "id": "2_4306",
        "lat": 48.123163,
        "lon": -1.806172,
        "name": "Clairefontaine",
        "code": 4306
      },
      "arrival": 30120,
      "departure": 30120
    },
    {
      "stop": {
        "id": "2_4316",
        "lat": 48.122778,
        "lon": -1.801123,
        "name": "Noë Biche",
        "code": 4316
      },
      "arrival": 30180,
      "departure": 30180
    },
    {
      "stop": {
        "id": "2_3754",
        "lat": 48.12091,
        "lon": -1.772466,
        "name": "Haie de Terre",
        "code": 3754
      },
      "arrival": 30420,
      "departure": 30420
    },
    {
      "stop": {
        "id": "2_3755",
        "lat": 48.120211,
        "lon": -1.765417,
        "name": "Vallée",
        "code": 3755
      },
      "arrival": 30480,
      "departure": 30480
    },
    {
      "stop": {
        "id": "2_3756",
        "lat": 48.119004,
        "lon": -1.760926,
        "name": "Lion d\u0027Or",
        "code": 3756
      },
      "arrival": 30540,
      "departure": 30540
    },
    {
      "stop": {
        "id": "2_3757",
        "lat": 48.11887,
        "lon": -1.756833,
        "name": "Vezin Centre",
        "code": 3757
      },
      "arrival": 30660,
      "departure": 30660
    },
    {
      "stop": {
        "id": "2_3770",
        "lat": 48.118999,
        "lon": -1.749372,
        "name": "Champs Bleus",
        "code": 3770
      },
      "arrival": 30780,
      "departure": 30780
    },
    {
      "stop": {
        "id": "2_3758",
        "lat": 48.118334,
        "lon": -1.742441,
        "name": "Tertre",
        "code": 3758
      },
      "arrival": 30900,
      "departure": 30900
    },
    {
      "stop": {
        "id": "2_3759",
        "lat": 48.117611,
        "lon": -1.731377,
        "name": "Champ Noël",
        "code": 3759
      },
      "arrival": 31020,
      "departure": 31020
    },
    {
      "stop": {
        "id": "2_1504",
        "lat": 48.116353,
        "lon": -1.723158,
        "name": "Petit Champeaux",
        "code": 1504
      },
      "arrival": 31080,
      "departure": 31080
    },
    {
      "stop": {
        "id": "2_1503",
        "lat": 48.116133,
        "lon": -1.715924,
        "name": "Colin",
        "code": 1503
      },
      "arrival": 31140,
      "departure": 31140
    },
    {
      "stop": {
        "id": "2_1422",
        "lat": 48.116261,
        "lon": -1.711309,
        "name": "Merlin",
        "code": 1422
      },
      "arrival": 31200,
      "departure": 31200
    },
    {
      "stop": {
        "id": "2_1297",
        "lat": 48.121918,
        "lon": -1.703705,
        "name": "Villejean-Université",
        "code": 1297
      },
      "arrival": 31500,
      "departure": 31500
    },
    {
      "stop": {
        "id": "2_1566",
        "lat": 48.125304,
        "lon": -1.692431,
        "name": "Lycée Basch",
        "code": 1566
      },
      "arrival": 31800,
      "departure": 31800
    }
  ],
  "route": {
    "id": "2_0210",
    "textColor": "FFFFFF",
    "color": "E30613",
    "description": "Complémentaire",
    "longName": "L\u0027Hermitage (Centre) \u003c\u003e Rennes (Lycée V.H. Basch)",
    "shortName": "210",
    "type": 3,
    "agencyId": "2"
  }
}