{
  "headsign": "14 | Stade Rennais",
  "stopTimes": [
    {
      "stop": {
        "id": "2_1290",
        "lat": 48.12688601,
        "lon": -1.62954442,
        "name": "Clos Courtel",
        "code": 1290
      },
      "arrival": 30600,
      "departure": 30600
    },
    {
      "stop": {
        "id": "2_1291",
        "lat": 48.12475494,
        "lon": -1.63388413,
        "name": "IUT",
        "code": 1291
      },
      "arrival": 30720,
      "departure": 30720
    },
    {
      "stop": {
        "id": "2_1177",
        "lat": 48.12187978,
        "lon": -1.640286,
        "name": "Beaulieu Restau U",
        "code": 1177
      },
      "arrival": 30780,
      "departure": 30780
    },
    {
      "stop": {
        "id": "2_1178",
        "lat": 48.12078326,
        "lon": -1.64386488,
        "name": "Beaulieu Cité U",
        "code": 1178
      },
      "arrival": 30840,
      "departure": 30840
    },
    {
      "stop": {
        "id": "2_1152",
        "lat": 48.12043354,
        "lon": -1.65067299,
        "name": "Docteur Quentin",
        "code": 1152
      },
      "arrival": 30960,
      "departure": 30960
    },
    {
      "stop": {
        "id": "2_1638",
        "lat": 48.12250411,
        "lon": -1.65118232,
        "name": "Lycée Chateaubriand",
        "code": 1638
      },
      "arrival": 31020,
      "departure": 31020
    },
    {
      "stop": {
        "id": "2_1007",
        "lat": 48.12141888,
        "lon": -1.65505801,
        "name": "Assomption",
        "code": 1007
      },
      "arrival": 31080,
      "departure": 31080
    },
    {
      "stop": {
        "id": "2_1634",
        "lat": 48.12368537,
        "lon": -1.66052861,
        "name": "Painlevé",
        "code": 1634
      },
      "arrival": 31200,
      "departure": 31200
    },
    {
      "stop": {
        "id": "2_1403",
        "lat": 48.12522631,
        "lon": -1.66100436,
        "name": "Saint-Exupéry",
        "code": 1403
      },
      "arrival": 31260,
      "departure": 31260
    },
    {
      "stop": {
        "id": "2_1404",
        "lat": 48.12676756,
        "lon": -1.65850144,
        "name": "Trégain",
        "code": 1404
      },
      "arrival": 31320,
      "departure": 31320
    },
    {
      "stop": {
        "id": "2_1405",
        "lat": 48.12842791,
        "lon": -1.65717779,
        "name": "Europe",
        "code": 1405
      },
      "arrival": 31380,
      "departure": 31380
    },
    {
      "stop": {
        "id": "2_1406",
        "lat": 48.13074039,
        "lon": -1.65650905,
        "name": "Gast",
        "code": 1406
      },
      "arrival": 31440,
      "departure": 31440
    },
    {
      "stop": {
        "id": "2_1407",
        "lat": 48.13305846,
        "lon": -1.65670003,
        "name": "Longs Prés",
        "code": 1407
      },
      "arrival": 31440,
      "departure": 31440
    },
    {
      "stop": {
        "id": "2_1428",
        "lat": 48.13448589,
        "lon": -1.65867078,
        "name": "Hôtel de Région",
        "code": 1428
      },
      "arrival": 31500,
      "departure": 31500
    },
    {
      "stop": {
        "id": "2_1410",
        "lat": 48.1364873,
        "lon": -1.66253723,
        "name": "Hélias",
        "code": 1410
      },
      "arrival": 31560,
      "departure": 31560
    },
    {
      "stop": {
        "id": "2_1253",
        "lat": 48.13666007,
        "lon": -1.66750822,
        "name": "Monts d\u0027Arrée",
        "code": 1253
      },
      "arrival": 31620,
      "departure": 31620
    },
    {
      "stop": {
        "id": "2_1254",
        "lat": 48.13675376,
        "lon": -1.67105825,
        "name": "Neruda",
        "code": 1254
      },
      "arrival": 31680,
      "departure": 31680
    },
    {
      "stop": {
        "id": "2_1255",
        "lat": 48.13455033,
        "lon": -1.67297749,
        "name": "Condate",
        "code": 1255
      },
      "arrival": 31740,
      "departure": 31740
    },
    {
      "stop": {
        "id": "2_1411",
        "lat": 48.13216463,
        "lon": -1.67290099,
        "name": "Bellangerais",
        "code": 1411
      },
      "arrival": 31800,
      "departure": 31800
    },
    {
      "stop": {
        "id": "2_1626",
        "lat": 48.13062079,
        "lon": -1.67700897,
        "name": "Armorique",
        "code": 1626
      },
      "arrival": 31860,
      "departure": 31860
    },
    {
      "stop": {
        "id": "2_1041",
        "lat": 48.12884166,
        "lon": -1.68371536,
        "name": "Trois Croix",
        "code": 1041
      },
      "arrival": 31980,
      "departure": 31980
    },
    {
      "stop": {
        "id": "2_1102",
        "lat": 48.13115995,
        "lon": -1.68458083,
        "name": "Donelière",
        "code": 1102
      },
      "arrival": 32040,
      "departure": 32040
    },
    {
      "stop": {
        "id": "2_1371",
        "lat": 48.13300291,
        "lon": -1.68506819,
        "name": "Lycée Mendès France",
        "code": 1371
      },
      "arrival": 32040,
      "departure": 32040
    },
    {
      "stop": {
        "id": "2_2803",
        "lat": 48.13739456,
        "lon": -1.6885143,
        "name": "La Plesse",
        "code": 2803
      },
      "arrival": 32220,
      "departure": 32220
    },
    {
      "stop": {
        "id": "2_2801",
        "lat": 48.13580525,
        "lon": -1.69311343,
        "name": "Grand Quartier",
        "code": 2801
      },
      "arrival": 32280,
      "departure": 32280
    },
    {
      "stop": {
        "id": "2_1543",
        "lat": 48.13134643,
        "lon": -1.69183513,
        "name": "Léonard",
        "code": 1543
      },
      "arrival": 32400,
      "departure": 32400
    },
    {
      "stop": {
        "id": "2_1303",
        "lat": 48.12832572,
        "lon": -1.69414225,
        "name": "Préfecture",
        "code": 1303
      },
      "arrival": 32520,
      "departure": 32520
    },
    {
      "stop": {
        "id": "2_1300",
        "lat": 48.12858619,
        "lon": -1.69873296,
        "name": "Cucillé",
        "code": 1300
      },
      "arrival": 32640,
      "departure": 32640
    },
    {
      "stop": {
        "id": "2_1305",
        "lat": 48.12765808,
        "lon": -1.70324184,
        "name": "Olympe de Gouges",
        "code": 1305
      },
      "arrival": 32760,
      "departure": 32760
    },
    {
      "stop": {
        "id": "2_1306",
        "lat": 48.12533687,
        "lon": -1.70312933,
        "name": "Bois Labbé",
        "code": 1306
      },
      "arrival": 32880,
      "departure": 32880
    },
    {
      "stop": {
        "id": "2_1307",
        "lat": 48.12192614,
        "lon": -1.70388916,
        "name": "Villejean-Université",
        "code": 1307
      },
      "arrival": 33000,
      "departure": 33000
    },
    {
      "stop": {
        "id": "2_1412",
        "lat": 48.12134176,
        "lon": -1.70777107,
        "name": "Cours Kennedy",
        "code": 1412
      },
      "arrival": 33060,
      "departure": 33060
    },
    {
      "stop": {
        "id": "2_1423",
        "lat": 48.11853035,
        "lon": -1.70811008,
        "name": "Villejean-Churchill",
        "code": 1423
      },
      "arrival": 33180,
      "departure": 33180
    },
    {
      "stop": {
        "id": "2_1414",
        "lat": 48.11638524,
        "lon": -1.71215936,
        "name": "Merlin",
        "code": 1414
      },
      "arrival": 33300,
      "departure": 33300
    },
    {
      "stop": {
        "id": "2_1499",
        "lat": 48.11626025,
        "lon": -1.71595794,
        "name": "Colin",
        "code": 1499
      },
      "arrival": 33360,
      "departure": 33360
    },
    {
      "stop": {
        "id": "2_1421",
        "lat": 48.11464906,
        "lon": -1.71545777,
        "name": "Chambre Agriculture",
        "code": 1421
      },
      "arrival": 33420,
      "departure": 33420
    },
    {
      "stop": {
        "id": "2_1416",
        "lat": 48.11351144,
        "lon": -1.71436637,
        "name": "Atalante Champeaux",
        "code": 1416
      },
      "arrival": 33480,
      "departure": 33480
    },
    {
      "stop": {
        "id": "2_1419",
        "lat": 48.11116252,
        "lon": -1.71291833,
        "name": "Les Arts",
        "code": 1419
      },
      "arrival": 33540,
      "departure": 33540
    },
    {
      "stop": {
        "id": "2_1221",
        "lat": 48.10886589,
        "lon": -1.71061365,
        "name": "Géniaux",
        "code": 1221
      },
      "arrival": 33600,
      "departure": 33600
    },
    {
      "stop": {
        "id": "2_1222",
        "lat": 48.10807385,
        "lon": -1.71396182,
        "name": "Stade Rennais",
        "code": 1222
      },
      "arrival": 33660,
      "departure": 33660
    }
  ],
  "route": {
    "id": "2_0014",
    "textColor": "FFFFFF",
    "color": "805A26",
    "description": "Urbaine",
    "longName": "Stade Rennais \u003c\u003e Beaulieu Atalante",
    "shortName": "14",
    "type": 3,
    "agencyId": "2"
  }
}