{
  "headsign": "5 | Patton",
  "stopTimes": [
    {
      "stop": {
        "id": "2_1269",
        "lat": 48.084081,
        "lon": -1.692043,
        "name": "Lycée Bréquigny",
        "code": 1269
      },
      "arrival": 82740,
      "departure": 82740
    },
    {
      "stop": {
        "id": "2_1270",
        "lat": 48.085811,
        "lon": -1.694039,
        "name": "Félix Eboué",
        "code": 1270
      },
      "arrival": 82800,
      "departure": 82800
    },
    {
      "stop": {
        "id": "2_2257",
        "lat": 48.087049,
        "lon": -1.694605,
        "name": "Pressoirs",
        "code": 2257
      },
      "arrival": 82800,
      "departure": 82800
    },
    {
      "stop": {
        "id": "2_1453",
        "lat": 48.089768,
        "lon": -1.692985,
        "name": "Pigeon Blanc",
        "code": 1453
      },
      "arrival": 82860,
      "departure": 82860
    },
    {
      "stop": {
        "id": "2_1273",
        "lat": 48.092735,
        "lon": -1.6912,
        "name": "Saint-Yves",
        "code": 1273
      },
      "arrival": 82920,
      "departure": 82920
    },
    {
      "stop": {
        "id": "2_1274",
        "lat": 48.095038,
        "lon": -1.689979,
        "name": "Pilate",
        "code": 1274
      },
      "arrival": 82980,
      "departure": 82980
    },
    {
      "stop": {
        "id": "2_1275",
        "lat": 48.097422,
        "lon": -1.688573,
        "name": "Mermoz",
        "code": 1275
      },
      "arrival": 83040,
      "departure": 83040
    },
    {
      "stop": {
        "id": "2_1276",
        "lat": 48.099714,
        "lon": -1.68619,
        "name": "Foyer Rennais",
        "code": 1276
      },
      "arrival": 83100,
      "departure": 83100
    },
    {
      "stop": {
        "id": "2_1277",
        "lat": 48.102127,
        "lon": -1.684092,
        "name": "Pont de Nantes",
        "code": 1277
      },
      "arrival": 83160,
      "departure": 83160
    },
    {
      "stop": {
        "id": "2_1021",
        "lat": 48.105444,
        "lon": -1.684005,
        "name": "Cité Judiciaire",
        "code": 1021
      },
      "arrival": 83220,
      "departure": 83220
    },
    {
      "stop": {
        "id": "2_1022",
        "lat": 48.106222,
        "lon": -1.680736,
        "name": "Plélo Colombier",
        "code": 1022
      },
      "arrival": 83340,
      "departure": 83340
    },
    {
      "stop": {
        "id": "2_1023",
        "lat": 48.108066,
        "lon": -1.680048,
        "name": "Les Halles",
        "code": 1023
      },
      "arrival": 83400,
      "departure": 83400
    },
    {
      "stop": {
        "id": "2_1016",
        "lat": 48.110073,
        "lon": -1.680101,
        "name": "République Nemours",
        "code": 1016
      },
      "arrival": 83580,
      "departure": 84000
    },
    {
      "stop": {
        "id": "2_1025",
        "lat": 48.112738,
        "lon": -1.680211,
        "name": "Champ Jacquet",
        "code": 1025
      },
      "arrival": 84060,
      "departure": 84060
    },
    {
      "stop": {
        "id": "2_1026",
        "lat": 48.11482,
        "lon": -1.679242,
        "name": "Sainte-Anne",
        "code": 1026
      },
      "arrival": 84180,
      "departure": 84180
    },
    {
      "stop": {
        "id": "2_1278",
        "lat": 48.117082,
        "lon": -1.677806,
        "name": "Hôtel Dieu",
        "code": 1278
      },
      "arrival": 84240,
      "departure": 84240
    },
    {
      "stop": {
        "id": "2_1279",
        "lat": 48.119451,
        "lon": -1.674371,
        "name": "Rectorat",
        "code": 1279
      },
      "arrival": 84300,
      "departure": 84300
    },
    {
      "stop": {
        "id": "2_1280",
        "lat": 48.121404,
        "lon": -1.670825,
        "name": "Jules Ferry",
        "code": 1280
      },
      "arrival": 84360,
      "departure": 84360
    },
    {
      "stop": {
        "id": "2_1281",
        "lat": 48.125362,
        "lon": -1.66626,
        "name": "Volney",
        "code": 1281
      },
      "arrival": 84480,
      "departure": 84480
    },
    {
      "stop": {
        "id": "2_1282",
        "lat": 48.126594,
        "lon": -1.665268,
        "name": "Gros Chêne",
        "code": 1282
      },
      "arrival": 84540,
      "departure": 84540
    },
    {
      "stop": {
        "id": "2_1283",
        "lat": 48.128831,
        "lon": -1.663763,
        "name": "Rochester",
        "code": 1283
      },
      "arrival": 84540,
      "departure": 84540
    },
    {
      "stop": {
        "id": "2_1284",
        "lat": 48.131091,
        "lon": -1.664397,
        "name": "Houx Cité U",
        "code": 1284
      },
      "arrival": 84600,
      "departure": 84600
    },
    {
      "stop": {
        "id": "2_1285",
        "lat": 48.132827,
        "lon": -1.667609,
        "name": "Morbihan",
        "code": 1285
      },
      "arrival": 84660,
      "departure": 84660
    },
    {
      "stop": {
        "id": "2_1286",
        "lat": 48.132719,
        "lon": -1.672293,
        "name": "Bellangerais",
        "code": 1286
      },
      "arrival": 84720,
      "departure": 84720
    },
    {
      "stop": {
        "id": "2_1287",
        "lat": 48.135006,
        "lon": -1.672781,
        "name": "Condate",
        "code": 1287
      },
      "arrival": 84780,
      "departure": 84780
    },
    {
      "stop": {
        "id": "2_1288",
        "lat": 48.136641,
        "lon": -1.670632,
        "name": "Neruda",
        "code": 1288
      },
      "arrival": 84780,
      "departure": 84780
    },
    {
      "stop": {
        "id": "2_1289",
        "lat": 48.136539,
        "lon": -1.667527,
        "name": "Monts d\u0027Arrée",
        "code": 1289
      },
      "arrival": 84840,
      "departure": 84840
    },
    {
      "stop": {
        "id": "2_1252",
        "lat": 48.138782,
        "lon": -1.66602,
        "name": "Patton",
        "code": 1252
      },
      "arrival": 84900,
      "departure": 84900
    }
  ],
  "route": {
    "id": "2_0005",
    "textColor": "FFFFFF",
    "color": "EE7F01",
    "description": "Majeure",
    "longName": "Patton \u003c\u003e Lycée Bréquigny",
    "shortName": "5",
    "type": 3,
    "agencyId": "2"
  }
}