{
  "headsign": "9 | Saint-Laurent",
  "stopTimes": [
    {
      "stop": {
        "id": "2_1390",
        "lat": 48.10413592,
        "lon": -1.71347582,
        "name": "Cleunay",
        "code": 1390
      },
      "arrival": 84420,
      "departure": 84420
    },
    {
      "stop": {
        "id": "2_1391",
        "lat": 48.1010791,
        "lon": -1.71178278,
        "name": "Clinique La Sagesse",
        "code": 1391
      },
      "arrival": 84540,
      "departure": 84540
    },
    {
      "stop": {
        "id": "2_1388",
        "lat": 48.099342,
        "lon": -1.7111775,
        "name": "Montand",
        "code": 1388
      },
      "arrival": 84540,
      "departure": 84540
    },
    {
      "stop": {
        "id": "2_1393",
        "lat": 48.09789624,
        "lon": -1.70765735,
        "name": "Récipon",
        "code": 1393
      },
      "arrival": 84600,
      "departure": 84600
    },
    {
      "stop": {
        "id": "2_1394",
        "lat": 48.09900079,
        "lon": -1.70550837,
        "name": "Guérinais",
        "code": 1394
      },
      "arrival": 84660,
      "departure": 84660
    },
    {
      "stop": {
        "id": "2_1395",
        "lat": 48.10101371,
        "lon": -1.70702001,
        "name": "De Lesseps",
        "code": 1395
      },
      "arrival": 84720,
      "departure": 84720
    },
    {
      "stop": {
        "id": "2_1396",
        "lat": 48.10225768,
        "lon": -1.70499098,
        "name": "Champion de Cicé",
        "code": 1396
      },
      "arrival": 84780,
      "departure": 84780
    },
    {
      "stop": {
        "id": "2_1383",
        "lat": 48.10360722,
        "lon": -1.70009111,
        "name": "Dargent",
        "code": 1383
      },
      "arrival": 84840,
      "departure": 84840
    },
    {
      "stop": {
        "id": "2_1382",
        "lat": 48.10510437,
        "lon": -1.69871692,
        "name": "Voltaire",
        "code": 1382
      },
      "arrival": 84900,
      "departure": 84900
    },
    {
      "stop": {
        "id": "2_1399",
        "lat": 48.10503717,
        "lon": -1.69542273,
        "name": "Malakoff",
        "code": 1399
      },
      "arrival": 84960,
      "departure": 84960
    },
    {
      "stop": {
        "id": "2_1612",
        "lat": 48.10354601,
        "lon": -1.6884609,
        "name": "Saint-Conwoïon",
        "code": 1612
      },
      "arrival": 85080,
      "departure": 85080
    },
    {
      "stop": {
        "id": "2_1401",
        "lat": 48.10562192,
        "lon": -1.68776692,
        "name": "Redon",
        "code": 1401
      },
      "arrival": 85140,
      "departure": 85140
    },
    {
      "stop": {
        "id": "2_1021",
        "lat": 48.10550614,
        "lon": -1.68388047,
        "name": "Cité Judiciaire",
        "code": 1021
      },
      "arrival": 85200,
      "departure": 85200
    },
    {
      "stop": {
        "id": "2_1022",
        "lat": 48.10635908,
        "lon": -1.68084592,
        "name": "Plélo Colombier",
        "code": 1022
      },
      "arrival": 85260,
      "departure": 85260
    },
    {
      "stop": {
        "id": "2_1023",
        "lat": 48.10798151,
        "lon": -1.68011595,
        "name": "Les Halles",
        "code": 1023
      },
      "arrival": 85320,
      "departure": 85320
    },
    {
      "stop": {
        "id": "2_1016",
        "lat": 48.11007256,
        "lon": -1.6801671,
        "name": "République Nemours",
        "code": 1016
      },
      "arrival": 85500,
      "departure": 85800
    },
    {
      "stop": {
        "id": "2_1025",
        "lat": 48.11273566,
        "lon": -1.68025817,
        "name": "Champ Jacquet",
        "code": 1025
      },
      "arrival": 85920,
      "departure": 85920
    },
    {
      "stop": {
        "id": "2_1026",
        "lat": 48.11478452,
        "lon": -1.67927843,
        "name": "Sainte-Anne",
        "code": 1026
      },
      "arrival": 85980,
      "departure": 85980
    },
    {
      "stop": {
        "id": "2_1027",
        "lat": 48.11723114,
        "lon": -1.67736823,
        "name": "Hôtel Dieu",
        "code": 1027
      },
      "arrival": 86100,
      "departure": 86100
    },
    {
      "stop": {
        "id": "2_1028",
        "lat": 48.11750653,
        "lon": -1.67360984,
        "name": "Sévigné",
        "code": 1028
      },
      "arrival": 86160,
      "departure": 86160
    },
    {
      "stop": {
        "id": "2_1029",
        "lat": 48.11831975,
        "lon": -1.66969704,
        "name": "Fac de Droit",
        "code": 1029
      },
      "arrival": 86220,
      "departure": 86220
    },
    {
      "stop": {
        "id": "2_1030",
        "lat": 48.11947818,
        "lon": -1.66685122,
        "name": "Guéhenno",
        "code": 1030
      },
      "arrival": 86280,
      "departure": 86280
    },
    {
      "stop": {
        "id": "2_1031",
        "lat": 48.12200441,
        "lon": -1.66224129,
        "name": "Metz Volney",
        "code": 1031
      },
      "arrival": 86340,
      "departure": 86340
    },
    {
      "stop": {
        "id": "2_1403",
        "lat": 48.12522631,
        "lon": -1.66100436,
        "name": "Saint-Exupéry",
        "code": 1403
      },
      "arrival": 86400,
      "departure": 86400
    },
    {
      "stop": {
        "id": "2_1404",
        "lat": 48.12676756,
        "lon": -1.65850144,
        "name": "Trégain",
        "code": 1404
      },
      "arrival": 86460,
      "departure": 86460
    },
    {
      "stop": {
        "id": "2_1405",
        "lat": 48.12842791,
        "lon": -1.65717779,
        "name": "Europe",
        "code": 1405
      },
      "arrival": 86520,
      "departure": 86520
    },
    {
      "stop": {
        "id": "2_1406",
        "lat": 48.13074039,
        "lon": -1.65650905,
        "name": "Gast",
        "code": 1406
      },
      "arrival": 86580,
      "departure": 86580
    },
    {
      "stop": {
        "id": "2_1407",
        "lat": 48.13305846,
        "lon": -1.65670003,
        "name": "Longs Prés",
        "code": 1407
      },
      "arrival": 86580,
      "departure": 86580
    },
    {
      "stop": {
        "id": "2_1373",
        "lat": 48.13520527,
        "lon": -1.65938653,
        "name": "Hôtel de Région",
        "code": 1373
      },
      "arrival": 86640,
      "departure": 86640
    },
    {
      "stop": {
        "id": "2_1372",
        "lat": 48.13840918,
        "lon": -1.65907086,
        "name": "Saint-Laurent",
        "code": 1372
      },
      "arrival": 86760,
      "departure": 86760
    }
  ],
  "route": {
    "id": "2_0009",
    "textColor": "FFFFFF",
    "color": "00519E",
    "description": "Majeure",
    "longName": "Saint-Laurent \u003c\u003e Cleunay",
    "shortName": "9",
    "type": 3,
    "agencyId": "2"
  }
}