{
  "headsign": "14 | Beaulieu Atalante",
  "stopTimes": [
    {
      "stop": {
        "id": "2_1234",
        "lat": 48.10775888,
        "lon": -1.71484897,
        "name": "Stade Rennais",
        "code": 1234
      },
      "arrival": 33300,
      "departure": 33300
    },
    {
      "stop": {
        "id": "2_1418",
        "lat": 48.10918504,
        "lon": -1.71023821,
        "name": "Géniaux",
        "code": 1418
      },
      "arrival": 33360,
      "departure": 33360
    },
    {
      "stop": {
        "id": "2_1417",
        "lat": 48.11145919,
        "lon": -1.71338901,
        "name": "Les Arts",
        "code": 1417
      },
      "arrival": 33420,
      "departure": 33420
    },
    {
      "stop": {
        "id": "2_1420",
        "lat": 48.11367266,
        "lon": -1.71259041,
        "name": "Atalante Champeaux",
        "code": 1420
      },
      "arrival": 33480,
      "departure": 33480
    },
    {
      "stop": {
        "id": "2_1643",
        "lat": 48.11481156,
        "lon": -1.71566918,
        "name": "Chambre Agriculture",
        "code": 1643
      },
      "arrival": 33540,
      "departure": 33540
    },
    {
      "stop": {
        "id": "2_1503",
        "lat": 48.11616144,
        "lon": -1.71594912,
        "name": "Colin",
        "code": 1503
      },
      "arrival": 33540,
      "departure": 33540
    },
    {
      "stop": {
        "id": "2_1422",
        "lat": 48.11628685,
        "lon": -1.71146403,
        "name": "Merlin",
        "code": 1422
      },
      "arrival": 33600,
      "departure": 33600
    },
    {
      "stop": {
        "id": "2_1413",
        "lat": 48.118588,
        "lon": -1.70802098,
        "name": "Villejean-Churchill",
        "code": 1413
      },
      "arrival": 33660,
      "departure": 33660
    },
    {
      "stop": {
        "id": "2_1424",
        "lat": 48.12127977,
        "lon": -1.707884,
        "name": "Cours Kennedy",
        "code": 1424
      },
      "arrival": 33720,
      "departure": 33720
    },
    {
      "stop": {
        "id": "2_1297",
        "lat": 48.12180414,
        "lon": -1.70378405,
        "name": "Villejean-Université",
        "code": 1297
      },
      "arrival": 33840,
      "departure": 33840
    },
    {
      "stop": {
        "id": "2_1298",
        "lat": 48.12559159,
        "lon": -1.70307124,
        "name": "Bois Labbé",
        "code": 1298
      },
      "arrival": 33900,
      "departure": 33900
    },
    {
      "stop": {
        "id": "2_1299",
        "lat": 48.12785166,
        "lon": -1.70290899,
        "name": "Olympe de Gouges",
        "code": 1299
      },
      "arrival": 33960,
      "departure": 33960
    },
    {
      "stop": {
        "id": "2_1304",
        "lat": 48.12850845,
        "lon": -1.69887415,
        "name": "Cucillé",
        "code": 1304
      },
      "arrival": 34020,
      "departure": 34020
    },
    {
      "stop": {
        "id": "2_1301",
        "lat": 48.12819455,
        "lon": -1.69396394,
        "name": "Préfecture",
        "code": 1301
      },
      "arrival": 34080,
      "departure": 34080
    },
    {
      "stop": {
        "id": "2_1537",
        "lat": 48.13157496,
        "lon": -1.69170144,
        "name": "Léonard",
        "code": 1537
      },
      "arrival": 34140,
      "departure": 34140
    },
    {
      "stop": {
        "id": "2_2826",
        "lat": 48.13558496,
        "lon": -1.69298612,
        "name": "Grand Quartier",
        "code": 2826
      },
      "arrival": 34260,
      "departure": 34260
    },
    {
      "stop": {
        "id": "2_2815",
        "lat": 48.13721048,
        "lon": -1.68638899,
        "name": "La Plesse",
        "code": 2815
      },
      "arrival": 34380,
      "departure": 34380
    },
    {
      "stop": {
        "id": "2_1328",
        "lat": 48.1332141,
        "lon": -1.68528827,
        "name": "Lycée Mendès France",
        "code": 1328
      },
      "arrival": 34440,
      "departure": 34440
    },
    {
      "stop": {
        "id": "2_1040",
        "lat": 48.13006097,
        "lon": -1.6843352,
        "name": "Donelière",
        "code": 1040
      },
      "arrival": 34500,
      "departure": 34500
    },
    {
      "stop": {
        "id": "2_1425",
        "lat": 48.12797869,
        "lon": -1.68252125,
        "name": "Trois Croix",
        "code": 1425
      },
      "arrival": 34560,
      "departure": 34560
    },
    {
      "stop": {
        "id": "2_1625",
        "lat": 48.13074839,
        "lon": -1.67578298,
        "name": "Armorique",
        "code": 1625
      },
      "arrival": 34620,
      "departure": 34620
    },
    {
      "stop": {
        "id": "2_1426",
        "lat": 48.1320738,
        "lon": -1.67269097,
        "name": "Bellangerais",
        "code": 1426
      },
      "arrival": 34680,
      "departure": 34680
    },
    {
      "stop": {
        "id": "2_1287",
        "lat": 48.13491655,
        "lon": -1.67283484,
        "name": "Condate",
        "code": 1287
      },
      "arrival": 34740,
      "departure": 34740
    },
    {
      "stop": {
        "id": "2_1288",
        "lat": 48.13668515,
        "lon": -1.67074244,
        "name": "Neruda",
        "code": 1288
      },
      "arrival": 34800,
      "departure": 34800
    },
    {
      "stop": {
        "id": "2_1289",
        "lat": 48.13658555,
        "lon": -1.66756896,
        "name": "Monts d\u0027Arrée",
        "code": 1289
      },
      "arrival": 34800,
      "departure": 34800
    },
    {
      "stop": {
        "id": "2_1427",
        "lat": 48.13642057,
        "lon": -1.6633124,
        "name": "Hélias",
        "code": 1427
      },
      "arrival": 34860,
      "departure": 34860
    },
    {
      "stop": {
        "id": "2_1159",
        "lat": 48.13439404,
        "lon": -1.65875427,
        "name": "Hôtel de Région",
        "code": 1159
      },
      "arrival": 34920,
      "departure": 34920
    },
    {
      "stop": {
        "id": "2_1374",
        "lat": 48.13324759,
        "lon": -1.65693216,
        "name": "Longs Prés",
        "code": 1374
      },
      "arrival": 34980,
      "departure": 34980
    },
    {
      "stop": {
        "id": "2_1375",
        "lat": 48.13013693,
        "lon": -1.65672512,
        "name": "Gast",
        "code": 1375
      },
      "arrival": 35040,
      "departure": 35040
    },
    {
      "stop": {
        "id": "2_1376",
        "lat": 48.12855272,
        "lon": -1.65712399,
        "name": "Europe",
        "code": 1376
      },
      "arrival": 35040,
      "departure": 35040
    },
    {
      "stop": {
        "id": "2_1377",
        "lat": 48.12679292,
        "lon": -1.65854407,
        "name": "Trégain",
        "code": 1377
      },
      "arrival": 35100,
      "departure": 35100
    },
    {
      "stop": {
        "id": "2_1378",
        "lat": 48.12493299,
        "lon": -1.66135545,
        "name": "Saint-Exupéry",
        "code": 1378
      },
      "arrival": 35160,
      "departure": 35160
    },
    {
      "stop": {
        "id": "2_1032",
        "lat": 48.12331854,
        "lon": -1.65932809,
        "name": "Painlevé",
        "code": 1032
      },
      "arrival": 35280,
      "departure": 35280
    },
    {
      "stop": {
        "id": "2_1033",
        "lat": 48.1213237,
        "lon": -1.65499372,
        "name": "Assomption",
        "code": 1033
      },
      "arrival": 35340,
      "departure": 35340
    },
    {
      "stop": {
        "id": "2_1637",
        "lat": 48.12307228,
        "lon": -1.65145652,
        "name": "Lycée Chateaubriand",
        "code": 1637
      },
      "arrival": 35460,
      "departure": 35460
    },
    {
      "stop": {
        "id": "2_1111",
        "lat": 48.12024278,
        "lon": -1.65071004,
        "name": "Docteur Quentin",
        "code": 1111
      },
      "arrival": 35520,
      "departure": 35520
    },
    {
      "stop": {
        "id": "2_1201",
        "lat": 48.11911266,
        "lon": -1.64919701,
        "name": "Vitré Foulon",
        "code": 1201
      },
      "arrival": 35520,
      "departure": 35520
    },
    {
      "stop": {
        "id": "2_1202",
        "lat": 48.1206205,
        "lon": -1.64433521,
        "name": "Beaulieu Cité U",
        "code": 1202
      },
      "arrival": 35580,
      "departure": 35580
    },
    {
      "stop": {
        "id": "2_1203",
        "lat": 48.12203302,
        "lon": -1.6395994,
        "name": "Beaulieu Restau U",
        "code": 1203
      },
      "arrival": 35640,
      "departure": 35640
    },
    {
      "stop": {
        "id": "2_1314",
        "lat": 48.1250923,
        "lon": -1.63309609,
        "name": "IUT",
        "code": 1314
      },
      "arrival": 35700,
      "departure": 35700
    },
    {
      "stop": {
        "id": "2_1290",
        "lat": 48.12688601,
        "lon": -1.62954442,
        "name": "Clos Courtel",
        "code": 1290
      },
      "arrival": 35760,
      "departure": 35760
    }
  ],
  "route": {
    "id": "2_0014",
    "textColor": "FFFFFF",
    "color": "805A26",
    "description": "Urbaine",
    "longName": "Stade Rennais \u003c\u003e Beaulieu Atalante",
    "shortName": "14",
    "type": 3,
    "agencyId": "2"
  }
}