{
  "headsign": "34 | Cesson-Sévigné Saint-Etienne",
  "stopTimes": [
    {
      "stop": {
        "id": "2_1077",
        "lat": 48.08744064,
        "lon": -1.64342249,
        "name": "La Poterie",
        "code": 1077
      },
      "arrival": 63300,
      "departure": 63300
    },
    {
      "stop": {
        "id": "2_1066",
        "lat": 48.08780025,
        "lon": -1.63864028,
        "name": "Monnet",
        "code": 1066
      },
      "arrival": 63360,
      "departure": 63360
    },
    {
      "stop": {
        "id": "2_1067",
        "lat": 48.08943166,
        "lon": -1.63541842,
        "name": "Bourgueil",
        "code": 1067
      },
      "arrival": 63420,
      "departure": 63420
    },
    {
      "stop": {
        "id": "2_1068",
        "lat": 48.09201511,
        "lon": -1.63642544,
        "name": "Gohier",
        "code": 1068
      },
      "arrival": 63480,
      "departure": 63480
    },
    {
      "stop": {
        "id": "2_1069",
        "lat": 48.09270737,
        "lon": -1.63967507,
        "name": "Ronceray",
        "code": 1069
      },
      "arrival": 63480,
      "departure": 63480
    },
    {
      "stop": {
        "id": "2_1070",
        "lat": 48.09445007,
        "lon": -1.63799813,
        "name": "CARSAT",
        "code": 1070
      },
      "arrival": 63540,
      "departure": 63540
    },
    {
      "stop": {
        "id": "2_1251",
        "lat": 48.09707861,
        "lon": -1.62913256,
        "name": "Veyettes",
        "code": 1251
      },
      "arrival": 63900,
      "departure": 63900
    },
    {
      "stop": {
        "id": "2_3014",
        "lat": 48.09828412,
        "lon": -1.6227924,
        "name": "Breillou",
        "code": 3014
      },
      "arrival": 64140,
      "departure": 64140
    },
    {
      "stop": {
        "id": "2_2035",
        "lat": 48.09961861,
        "lon": -1.62094448,
        "name": "Forum",
        "code": 2035
      },
      "arrival": 64260,
      "departure": 64260
    },
    {
      "stop": {
        "id": "2_2033",
        "lat": 48.1013897,
        "lon": -1.62358898,
        "name": "Bas Village",
        "code": 2033
      },
      "arrival": 64320,
      "departure": 64320
    },
    {
      "stop": {
        "id": "2_2061",
        "lat": 48.1064024,
        "lon": -1.62126872,
        "name": "ZI Sud-Est",
        "code": 2061
      },
      "arrival": 64380,
      "departure": 64380
    },
    {
      "stop": {
        "id": "2_2062",
        "lat": 48.10782767,
        "lon": -1.61408468,
        "name": "Rond Point de Bray",
        "code": 2062
      },
      "arrival": 64500,
      "departure": 64500
    },
    {
      "stop": {
        "id": "2_2063",
        "lat": 48.1093024,
        "lon": -1.6089112,
        "name": "Monniais",
        "code": 2063
      },
      "arrival": 64620,
      "departure": 64620
    },
    {
      "stop": {
        "id": "2_2064",
        "lat": 48.11257019,
        "lon": -1.60740614,
        "name": "Peupliers",
        "code": 2064
      },
      "arrival": 64740,
      "departure": 64740
    },
    {
      "stop": {
        "id": "2_2065",
        "lat": 48.11382762,
        "lon": -1.60314125,
        "name": "Cesson Gare",
        "code": 2065
      },
      "arrival": 64800,
      "departure": 64800
    },
    {
      "stop": {
        "id": "2_2022",
        "lat": 48.11467541,
        "lon": -1.60958194,
        "name": "Place Sévigné",
        "code": 2022
      },
      "arrival": 64860,
      "departure": 64860
    },
    {
      "stop": {
        "id": "2_2023",
        "lat": 48.11604857,
        "lon": -1.60696924,
        "name": "Vilaine",
        "code": 2023
      },
      "arrival": 64920,
      "departure": 64920
    },
    {
      "stop": {
        "id": "2_2066",
        "lat": 48.11834687,
        "lon": -1.60420821,
        "name": "Cesson Mairie",
        "code": 2066
      },
      "arrival": 64980,
      "departure": 64980
    },
    {
      "stop": {
        "id": "2_2067",
        "lat": 48.12037328,
        "lon": -1.60240598,
        "name": "Cesson Piscine",
        "code": 2067
      },
      "arrival": 65040,
      "departure": 65040
    },
    {
      "stop": {
        "id": "2_2068",
        "lat": 48.12317362,
        "lon": -1.60178843,
        "name": "Métairies Chalotais",
        "code": 2068
      },
      "arrival": 65100,
      "departure": 65100
    },
    {
      "stop": {
        "id": "2_2069",
        "lat": 48.1262903,
        "lon": -1.59907117,
        "name": "Cesson Cimetière",
        "code": 2069
      },
      "arrival": 65160,
      "departure": 65160
    },
    {
      "stop": {
        "id": "2_2052",
        "lat": 48.13114133,
        "lon": -1.59694891,
        "name": "Saint-Etienne",
        "code": 2052
      },
      "arrival": 65280,
      "departure": 65280
    }
  ],
  "route": {
    "id": "2_0034",
    "textColor": "DF171C",
    "color": "FEF466",
    "description": "Inter-quartiers",
    "longName": "ZI Sud-Est / La Poterie \u003c\u003e Cesson-Sévigné (Lycée Saint-Etienne)",
    "shortName": "34",
    "type": 3,
    "agencyId": "2"
  }
}