{
  "headsign": "11 | Stade Rennais",
  "stopTimes": [
    {
      "stop": {
        "id": "2_2032",
        "lat": 48.10649752,
        "lon": -1.62137125,
        "name": "ZI Sud Est (futur Charmilles)",
        "code": 2032
      },
      "arrival": 51900,
      "departure": 51900
    },
    {
      "stop": {
        "id": "2_2036",
        "lat": 48.10118579,
        "lon": -1.62396139,
        "name": "Bas Village",
        "code": 2036
      },
      "arrival": 52020,
      "departure": 52020
    },
    {
      "stop": {
        "id": "2_2034",
        "lat": 48.0996197,
        "lon": -1.62114642,
        "name": "Forum",
        "code": 2034
      },
      "arrival": 52020,
      "departure": 52020
    },
    {
      "stop": {
        "id": "2_3015",
        "lat": 48.09813047,
        "lon": -1.62296013,
        "name": "Breillou",
        "code": 3015
      },
      "arrival": 52080,
      "departure": 52080
    },
    {
      "stop": {
        "id": "2_1205",
        "lat": 48.09712076,
        "lon": -1.62923032,
        "name": "Veyettes",
        "code": 1205
      },
      "arrival": 52140,
      "departure": 52140
    },
    {
      "stop": {
        "id": "2_1206",
        "lat": 48.10015772,
        "lon": -1.6315419,
        "name": "Tremblaie",
        "code": 1206
      },
      "arrival": 52200,
      "departure": 52200
    },
    {
      "stop": {
        "id": "2_1207",
        "lat": 48.10349005,
        "lon": -1.63459292,
        "name": "Pré Garel",
        "code": 1207
      },
      "arrival": 52260,
      "departure": 52260
    },
    {
      "stop": {
        "id": "2_1208",
        "lat": 48.10411631,
        "lon": -1.63768938,
        "name": "Saint-Saëns",
        "code": 1208
      },
      "arrival": 52320,
      "departure": 52320
    },
    {
      "stop": {
        "id": "2_1209",
        "lat": 48.10500817,
        "lon": -1.64456415,
        "name": "Pavie",
        "code": 1209
      },
      "arrival": 52380,
      "departure": 52380
    },
    {
      "stop": {
        "id": "2_1210",
        "lat": 48.10429184,
        "lon": -1.64969605,
        "name": "Cimetière de l\u0027Est",
        "code": 1210
      },
      "arrival": 52440,
      "departure": 52440
    },
    {
      "stop": {
        "id": "2_1245",
        "lat": 48.10313609,
        "lon": -1.65250463,
        "name": "Serpette",
        "code": 1245
      },
      "arrival": 52500,
      "departure": 52500
    },
    {
      "stop": {
        "id": "2_1212",
        "lat": 48.10191268,
        "lon": -1.65652502,
        "name": "Mouézy",
        "code": 1212
      },
      "arrival": 52560,
      "departure": 52560
    },
    {
      "stop": {
        "id": "2_1213",
        "lat": 48.10287126,
        "lon": -1.66143906,
        "name": "Croix Saint-Hélier",
        "code": 1213
      },
      "arrival": 52620,
      "departure": 52620
    },
    {
      "stop": {
        "id": "2_1057",
        "lat": 48.10521928,
        "lon": -1.66612986,
        "name": "Laënnec",
        "code": 1057
      },
      "arrival": 52740,
      "departure": 52740
    },
    {
      "stop": {
        "id": "2_1056",
        "lat": 48.10398974,
        "lon": -1.67213136,
        "name": "Gares",
        "code": 1056
      },
      "arrival": 52860,
      "departure": 52860
    },
    {
      "stop": {
        "id": "2_1055",
        "lat": 48.1053351,
        "lon": -1.67389232,
        "name": "Champs Libres",
        "code": 1055
      },
      "arrival": 52980,
      "departure": 52980
    },
    {
      "stop": {
        "id": "2_1054",
        "lat": 48.10755037,
        "lon": -1.67508432,
        "name": "Liberté TNB",
        "code": 1054
      },
      "arrival": 53040,
      "departure": 53040
    },
    {
      "stop": {
        "id": "2_1214",
        "lat": 48.10990137,
        "lon": -1.6796669,
        "name": "République",
        "code": 1214
      },
      "arrival": 53220,
      "departure": 53220
    },
    {
      "stop": {
        "id": "2_1051",
        "lat": 48.10985855,
        "lon": -1.68327915,
        "name": "Place de Bretagne",
        "code": 1051
      },
      "arrival": 53280,
      "departure": 53280
    },
    {
      "stop": {
        "id": "2_1216",
        "lat": 48.10918893,
        "lon": -1.69030518,
        "name": "Le Mail",
        "code": 1216
      },
      "arrival": 53400,
      "departure": 53400
    },
    {
      "stop": {
        "id": "2_1217",
        "lat": 48.10845176,
        "lon": -1.69364366,
        "name": "Chèques Postaux",
        "code": 1217
      },
      "arrival": 53460,
      "departure": 53460
    },
    {
      "stop": {
        "id": "2_1218",
        "lat": 48.10910111,
        "lon": -1.69795527,
        "name": "Guilloux Lorient",
        "code": 1218
      },
      "arrival": 53580,
      "departure": 53580
    },
    {
      "stop": {
        "id": "2_1219",
        "lat": 48.10824735,
        "lon": -1.70376126,
        "name": "Papeteries",
        "code": 1219
      },
      "arrival": 53640,
      "departure": 53640
    },
    {
      "stop": {
        "id": "2_1220",
        "lat": 48.10914313,
        "lon": -1.70638498,
        "name": "Kerviler",
        "code": 1220
      },
      "arrival": 53700,
      "departure": 53700
    },
    {
      "stop": {
        "id": "2_1221",
        "lat": 48.10886588,
        "lon": -1.71061365,
        "name": "Géniaux",
        "code": 1221
      },
      "arrival": 53760,
      "departure": 53760
    },
    {
      "stop": {
        "id": "2_1222",
        "lat": 48.10807385,
        "lon": -1.71396182,
        "name": "Stade Rennais",
        "code": 1222
      },
      "arrival": 53820,
      "departure": 53820
    }
  ],
  "route": {
    "id": "2_0011",
    "textColor": "FFFFFF",
    "color": "DC81AE",
    "description": "Urbaine",
    "longName": "ZI Ouest / Stade Rennais \u003c\u003e Saint-Saëns / ZI Sud-Est",
    "shortName": "11",
    "type": 3,
    "agencyId": "2"
  }
}