{
  "headsign": "C4 | Plaine de Baud",
  "stopTimes": [
    {
      "stop": {
        "id": "2_1168",
        "lat": 48.109761,
        "lon": -1.678807,
        "name": "République",
        "code": 1168
      },
      "arrival": 21300,
      "departure": 21300
    },
    {
      "stop": {
        "id": "2_1169",
        "lat": 48.109809,
        "lon": -1.674483,
        "name": "Musée Beaux Arts",
        "code": 1169
      },
      "arrival": 21360,
      "departure": 21360
    },
    {
      "stop": {
        "id": "2_1170",
        "lat": 48.109996,
        "lon": -1.669018,
        "name": "Paul Bert",
        "code": 1170
      },
      "arrival": 21420,
      "departure": 21420
    },
    {
      "stop": {
        "id": "2_1171",
        "lat": 48.110016,
        "lon": -1.663623,
        "name": "Pont de Châteaudun",
        "code": 1171
      },
      "arrival": 21480,
      "departure": 21480
    },
    {
      "stop": {
        "id": "2_1172",
        "lat": 48.11003,
        "lon": -1.659227,
        "name": "Robidou",
        "code": 1172
      },
      "arrival": 21540,
      "departure": 21540
    },
    {
      "stop": {
        "id": "2_1173",
        "lat": 48.110055,
        "lon": -1.656165,
        "name": "Pont de Strasbourg",
        "code": 1173
      },
      "arrival": 21540,
      "departure": 21540
    },
    {
      "stop": {
        "id": "2_1174",
        "lat": 48.112437,
        "lon": -1.64292,
        "name": "Plaine de Baud",
        "code": 1174
      },
      "arrival": 21720,
      "departure": 21720
    }
  ],
  "route": {
    "id": "2_0004",
    "textColor": "FFFFFF",
    "color": "6D1F80",
    "description": "Chronostar",
    "longName": "Beauregard \u003c\u003e ZA Saint-Sulpice",
    "shortName": "C4",
    "type": 3,
    "agencyId": "2"
  }
}