{
  "headsign": "75 | Vern Nouvoitou",
  "stopTimes": [
    {
      "stop": {
        "id": "2_1511",
        "lat": 48.08753912,
        "lon": -1.64345457,
        "name": "La Poterie",
        "code": 1511
      },
      "arrival": 66900,
      "departure": 66900
    },
    {
      "stop": {
        "id": "2_2619",
        "lat": 48.04461606,
        "lon": -1.60388168,
        "name": "La Poste",
        "code": 2619
      },
      "arrival": 67440,
      "departure": 67440
    },
    {
      "stop": {
        "id": "2_2633",
        "lat": 48.0451444,
        "lon": -1.59868238,
        "name": "Maillardière",
        "code": 2633
      },
      "arrival": 67560,
      "departure": 67560
    },
    {
      "stop": {
        "id": "2_2632",
        "lat": 48.04805762,
        "lon": -1.59863994,
        "name": "Moulin",
        "code": 2632
      },
      "arrival": 67620,
      "departure": 67620
    },
    {
      "stop": {
        "id": "2_3406",
        "lat": 48.04445715,
        "lon": -1.56146795,
        "name": "Eclosel",
        "code": 3406
      },
      "arrival": 67800,
      "departure": 67800
    },
    {
      "stop": {
        "id": "2_3407",
        "lat": 48.04240224,
        "lon": -1.54982505,
        "name": "Grée Barel",
        "code": 3407
      },
      "arrival": 67860,
      "departure": 67860
    },
    {
      "stop": {
        "id": "2_3409",
        "lat": 48.04141632,
        "lon": -1.54525086,
        "name": "Menault",
        "code": 3409
      },
      "arrival": 67920,
      "departure": 67920
    },
    {
      "stop": {
        "id": "2_3403",
        "lat": 48.04021884,
        "lon": -1.54194902,
        "name": "Chêne Centenaire",
        "code": 3403
      },
      "arrival": 67980,
      "departure": 67980
    },
    {
      "stop": {
        "id": "2_3402",
        "lat": 48.04065867,
        "lon": -1.55015895,
        "name": "Langlois",
        "code": 3402
      },
      "arrival": 68160,
      "departure": 68160
    },
    {
      "stop": {
        "id": "2_3401",
        "lat": 48.04139981,
        "lon": -1.55336797,
        "name": "Parc des Sports",
        "code": 3401
      },
      "arrival": 68220,
      "departure": 68220
    }
  ],
  "route": {
    "id": "2_0075",
    "textColor": "201D21",
    "color": "F2973E",
    "description": "Métropolitaine",
    "longName": "Rennes (La Poterie) \u003c\u003e Nouvoitou",
    "shortName": "75",
    "type": 3,
    "agencyId": "2"
  }
}