{
  "headsign": "81 | Pacé Saint-Gilles Clayes Romillé",
  "stopTimes": [
    {
      "stop": {
        "id": "2_1497",
        "lat": 48.12102411,
        "lon": -1.70300103,
        "name": "Villejean-Université",
        "code": 1497
      },
      "arrival": 74400,
      "departure": 74400
    },
    {
      "stop": {
        "id": "2_1518",
        "lat": 48.12062672,
        "lon": -1.71046453,
        "name": "Bourbonnais",
        "code": 1518
      },
      "arrival": 74520,
      "departure": 74520
    },
    {
      "stop": {
        "id": "2_1521",
        "lat": 48.11845974,
        "lon": -1.71376004,
        "name": "Berry",
        "code": 1521
      },
      "arrival": 74640,
      "departure": 74640
    },
    {
      "stop": {
        "id": "2_3135",
        "lat": 48.14172254,
        "lon": -1.77090905,
        "name": "Nominoë",
        "code": 3135
      },
      "arrival": 74940,
      "departure": 74940
    },
    {
      "stop": {
        "id": "2_3105",
        "lat": 48.14754061,
        "lon": -1.78105296,
        "name": "Pinault",
        "code": 3105
      },
      "arrival": 75060,
      "departure": 75060
    },
    {
      "stop": {
        "id": "2_3120",
        "lat": 48.14853531,
        "lon": -1.78475327,
        "name": "Touche Milon",
        "code": 3120
      },
      "arrival": 75120,
      "departure": 75120
    },
    {
      "stop": {
        "id": "2_3121",
        "lat": 48.1492868,
        "lon": -1.78888968,
        "name": "Docteur Léon",
        "code": 3121
      },
      "arrival": 75120,
      "departure": 75120
    },
    {
      "stop": {
        "id": "2_3122",
        "lat": 48.15128452,
        "lon": -1.79230415,
        "name": "Pie Neuve",
        "code": 3122
      },
      "arrival": 75180,
      "departure": 75180
    },
    {
      "stop": {
        "id": "2_3710",
        "lat": 48.15356445,
        "lon": -1.81046986,
        "name": "Fouaye",
        "code": 3710
      },
      "arrival": 75300,
      "departure": 75300
    },
    {
      "stop": {
        "id": "2_3711",
        "lat": 48.15413317,
        "lon": -1.81993908,
        "name": "Vigne",
        "code": 3711
      },
      "arrival": 75420,
      "departure": 75420
    },
    {
      "stop": {
        "id": "2_3712",
        "lat": 48.15067999,
        "lon": -1.82479689,
        "name": "Pont aux Moines",
        "code": 3712
      },
      "arrival": 75480,
      "departure": 75480
    },
    {
      "stop": {
        "id": "2_3714",
        "lat": 48.15249376,
        "lon": -1.82982513,
        "name": "Saint-Gilles Centre",
        "code": 3714
      },
      "arrival": 75540,
      "departure": 75540
    },
    {
      "stop": {
        "id": "2_3724",
        "lat": 48.15381862,
        "lon": -1.8340467,
        "name": "Clos des Cerisiers",
        "code": 3724
      },
      "arrival": 75600,
      "departure": 75600
    },
    {
      "stop": {
        "id": "2_3723",
        "lat": 48.15403633,
        "lon": -1.83780571,
        "name": "Maison Neuve",
        "code": 3723
      },
      "arrival": 75660,
      "departure": 75660
    },
    {
      "stop": {
        "id": "2_3732",
        "lat": 48.14932288,
        "lon": -1.83903709,
        "name": "Ile des Bois",
        "code": 3732
      },
      "arrival": 75780,
      "departure": 75780
    },
    {
      "stop": {
        "id": "2_4457",
        "lat": 48.17625101,
        "lon": -1.85250541,
        "name": "Clayes Centre",
        "code": 4457
      },
      "arrival": 76080,
      "departure": 76080
    },
    {
      "stop": {
        "id": "2_4459",
        "lat": 48.17812546,
        "lon": -1.85279449,
        "name": "La Cour aux Pages",
        "code": 4459
      },
      "arrival": 76140,
      "departure": 76140
    },
    {
      "stop": {
        "id": "2_4458",
        "lat": 48.18236273,
        "lon": -1.85310164,
        "name": "Croix Simon",
        "code": 4458
      },
      "arrival": 76200,
      "departure": 76200
    },
    {
      "stop": {
        "id": "2_6005",
        "lat": 48.21248705,
        "lon": -1.89091828,
        "name": "Mettrie Templiers",
        "code": 6005
      },
      "arrival": 76440,
      "departure": 76440
    },
    {
      "stop": {
        "id": "2_6003",
        "lat": 48.21491243,
        "lon": -1.89244054,
        "name": "Romillé Mairie",
        "code": 6003
      },
      "arrival": 76500,
      "departure": 76500
    },
    {
      "stop": {
        "id": "2_6001",
        "lat": 48.2169016,
        "lon": -1.89044066,
        "name": "Frères Aubert",
        "code": 6001
      },
      "arrival": 76560,
      "departure": 76560
    },
    {
      "stop": {
        "id": "2_6000",
        "lat": 48.21870667,
        "lon": -1.8933469,
        "name": "Romillé Collège",
        "code": 6000
      },
      "arrival": 76680,
      "departure": 76680
    }
  ],
  "route": {
    "id": "2_0081",
    "textColor": "FFFFFF",
    "color": "0081C6",
    "description": "Métropolitaine",
    "longName": "Rennes (Villejean-Université) \u003c\u003e Clayes / Romillé",
    "shortName": "81",
    "type": 3,
    "agencyId": "2"
  }
}