{
  "headsign": "71 | Rennes Hoche",
  "stopTimes": [
    {
      "stop": {
        "id": "2_4604",
        "lat": 48.21008788,
        "lon": -1.62587418,
        "name": "Pommiers",
        "code": 4604
      },
      "arrival": 31800,
      "departure": 31800
    },
    {
      "stop": {
        "id": "2_4605",
        "lat": 48.21442422,
        "lon": -1.62878295,
        "name": "Fonderies",
        "code": 4605
      },
      "arrival": 31920,
      "departure": 31920
    },
    {
      "stop": {
        "id": "2_4606",
        "lat": 48.21193254,
        "lon": -1.63026334,
        "name": "Chevaigné Mairie",
        "code": 4606
      },
      "arrival": 31980,
      "departure": 31980
    },
    {
      "stop": {
        "id": "2_4607",
        "lat": 48.20764801,
        "lon": -1.63080398,
        "name": "Chevaigné Gare",
        "code": 4607
      },
      "arrival": 32040,
      "departure": 32040
    },
    {
      "stop": {
        "id": "2_4609",
        "lat": 48.19917578,
        "lon": -1.62757919,
        "name": "Chopinais",
        "code": 4609
      },
      "arrival": 32220,
      "departure": 32220
    },
    {
      "stop": {
        "id": "2_2433",
        "lat": 48.19035731,
        "lon": -1.62607743,
        "name": "Gentilhommière",
        "code": 2433
      },
      "arrival": 32340,
      "departure": 32340
    },
    {
      "stop": {
        "id": "2_2432",
        "lat": 48.18633047,
        "lon": -1.63325395,
        "name": "J.-Sébastien Bach",
        "code": 2432
      },
      "arrival": 32400,
      "departure": 32400
    },
    {
      "stop": {
        "id": "2_2431",
        "lat": 48.18305974,
        "lon": -1.63721735,
        "name": "Mozart",
        "code": 2431
      },
      "arrival": 32520,
      "departure": 32520
    },
    {
      "stop": {
        "id": "2_2406",
        "lat": 48.18119826,
        "lon": -1.6380241,
        "name": "Betton Centre",
        "code": 2406
      },
      "arrival": 32520,
      "departure": 32520
    },
    {
      "stop": {
        "id": "2_2430",
        "lat": 48.17604547,
        "lon": -1.6395521,
        "name": "Betton Rue de Rennes",
        "code": 2430
      },
      "arrival": 32640,
      "departure": 32640
    },
    {
      "stop": {
        "id": "2_2410",
        "lat": 48.17135339,
        "lon": -1.64196927,
        "name": "Enseigne Abbaye",
        "code": 2410
      },
      "arrival": 32700,
      "departure": 32700
    },
    {
      "stop": {
        "id": "2_2411",
        "lat": 48.16179617,
        "lon": -1.64775716,
        "name": "Betton Vallée",
        "code": 2411
      },
      "arrival": 32820,
      "departure": 32820
    },
    {
      "stop": {
        "id": "2_2827",
        "lat": 48.14906521,
        "lon": -1.65652284,
        "name": "Maison Blanche",
        "code": 2827
      },
      "arrival": 32940,
      "departure": 32940
    },
    {
      "stop": {
        "id": "2_1485",
        "lat": 48.13797172,
        "lon": -1.65873598,
        "name": "Saint-Laurent",
        "code": 1485
      },
      "arrival": 33060,
      "departure": 33060
    },
    {
      "stop": {
        "id": "2_1486",
        "lat": 48.13482757,
        "lon": -1.65983208,
        "name": "Hôtel de Région",
        "code": 1486
      },
      "arrival": 33120,
      "departure": 33120
    },
    {
      "stop": {
        "id": "2_1261",
        "lat": 48.12528168,
        "lon": -1.66666402,
        "name": "Volney",
        "code": 1261
      },
      "arrival": 33360,
      "departure": 33360
    },
    {
      "stop": {
        "id": "2_1262",
        "lat": 48.12147137,
        "lon": -1.67091812,
        "name": "Jules Ferry",
        "code": 1262
      },
      "arrival": 33480,
      "departure": 33480
    },
    {
      "stop": {
        "id": "2_1011",
        "lat": 48.11830509,
        "lon": -1.67120349,
        "name": "Fac de Droit",
        "code": 1011
      },
      "arrival": 33540,
      "departure": 33540
    },
    {
      "stop": {
        "id": "2_1606",
        "lat": 48.11563108,
        "lon": -1.67670645,
        "name": "Hoche",
        "code": 1606
      },
      "arrival": 33660,
      "departure": 33660
    }
  ],
  "route": {
    "id": "2_0071",
    "textColor": "FFFFFF",
    "color": "A57223",
    "description": "Métropolitaine",
    "longName": "Rennes (Hoche) \u003c\u003e Betton / Chevaigné",
    "shortName": "71",
    "type": 3,
    "agencyId": "2"
  }
}