{
  "headsign": "11 | ZI Ouest",
  "stopTimes": [
    {
      "stop": {
        "id": "2_2032",
        "lat": 48.10649752,
        "lon": -1.62137125,
        "name": "ZI Sud Est (futur Charmilles)",
        "code": 2032
      },
      "arrival": 42180,
      "departure": 42180
    },
    {
      "stop": {
        "id": "2_2036",
        "lat": 48.10118579,
        "lon": -1.62396139,
        "name": "Bas Village",
        "code": 2036
      },
      "arrival": 42300,
      "departure": 42300
    },
    {
      "stop": {
        "id": "2_2034",
        "lat": 48.0996197,
        "lon": -1.62114642,
        "name": "Forum",
        "code": 2034
      },
      "arrival": 42300,
      "departure": 42300
    },
    {
      "stop": {
        "id": "2_3015",
        "lat": 48.09813047,
        "lon": -1.62296013,
        "name": "Breillou",
        "code": 3015
      },
      "arrival": 42360,
      "departure": 42360
    },
    {
      "stop": {
        "id": "2_1205",
        "lat": 48.09712076,
        "lon": -1.62923032,
        "name": "Veyettes",
        "code": 1205
      },
      "arrival": 42420,
      "departure": 42420
    },
    {
      "stop": {
        "id": "2_1206",
        "lat": 48.10015772,
        "lon": -1.6315419,
        "name": "Tremblaie",
        "code": 1206
      },
      "arrival": 42480,
      "departure": 42480
    },
    {
      "stop": {
        "id": "2_1207",
        "lat": 48.10349005,
        "lon": -1.63459292,
        "name": "Pré Garel",
        "code": 1207
      },
      "arrival": 42540,
      "departure": 42540
    },
    {
      "stop": {
        "id": "2_1208",
        "lat": 48.10411631,
        "lon": -1.63768938,
        "name": "Saint-Saëns",
        "code": 1208
      },
      "arrival": 42600,
      "departure": 42600
    },
    {
      "stop": {
        "id": "2_1209",
        "lat": 48.10500817,
        "lon": -1.64456415,
        "name": "Pavie",
        "code": 1209
      },
      "arrival": 42660,
      "departure": 42660
    },
    {
      "stop": {
        "id": "2_1210",
        "lat": 48.10429184,
        "lon": -1.64969605,
        "name": "Cimetière de l\u0027Est",
        "code": 1210
      },
      "arrival": 42720,
      "departure": 42720
    },
    {
      "stop": {
        "id": "2_1245",
        "lat": 48.10313609,
        "lon": -1.65250463,
        "name": "Serpette",
        "code": 1245
      },
      "arrival": 42780,
      "departure": 42780
    },
    {
      "stop": {
        "id": "2_1212",
        "lat": 48.10191268,
        "lon": -1.65652502,
        "name": "Mouézy",
        "code": 1212
      },
      "arrival": 42840,
      "departure": 42840
    },
    {
      "stop": {
        "id": "2_1213",
        "lat": 48.10287126,
        "lon": -1.66143906,
        "name": "Croix Saint-Hélier",
        "code": 1213
      },
      "arrival": 42900,
      "departure": 42900
    },
    {
      "stop": {
        "id": "2_1057",
        "lat": 48.10521928,
        "lon": -1.66612986,
        "name": "Laënnec",
        "code": 1057
      },
      "arrival": 43020,
      "departure": 43020
    },
    {
      "stop": {
        "id": "2_1056",
        "lat": 48.10398974,
        "lon": -1.67213136,
        "name": "Gares",
        "code": 1056
      },
      "arrival": 43140,
      "departure": 43140
    },
    {
      "stop": {
        "id": "2_1055",
        "lat": 48.1053351,
        "lon": -1.67389232,
        "name": "Champs Libres",
        "code": 1055
      },
      "arrival": 43260,
      "departure": 43260
    },
    {
      "stop": {
        "id": "2_1054",
        "lat": 48.10755037,
        "lon": -1.67508432,
        "name": "Liberté TNB",
        "code": 1054
      },
      "arrival": 43320,
      "departure": 43320
    },
    {
      "stop": {
        "id": "2_1214",
        "lat": 48.10990137,
        "lon": -1.6796669,
        "name": "République",
        "code": 1214
      },
      "arrival": 43560,
      "departure": 43560
    },
    {
      "stop": {
        "id": "2_1051",
        "lat": 48.10985855,
        "lon": -1.68327915,
        "name": "Place de Bretagne",
        "code": 1051
      },
      "arrival": 43620,
      "departure": 43620
    },
    {
      "stop": {
        "id": "2_1216",
        "lat": 48.10918893,
        "lon": -1.69030518,
        "name": "Le Mail",
        "code": 1216
      },
      "arrival": 43740,
      "departure": 43740
    },
    {
      "stop": {
        "id": "2_1217",
        "lat": 48.10845176,
        "lon": -1.69364366,
        "name": "Chèques Postaux",
        "code": 1217
      },
      "arrival": 43800,
      "departure": 43800
    },
    {
      "stop": {
        "id": "2_1218",
        "lat": 48.10910111,
        "lon": -1.69795527,
        "name": "Guilloux Lorient",
        "code": 1218
      },
      "arrival": 43920,
      "departure": 43920
    },
    {
      "stop": {
        "id": "2_1219",
        "lat": 48.10824735,
        "lon": -1.70376126,
        "name": "Papeteries",
        "code": 1219
      },
      "arrival": 43980,
      "departure": 43980
    },
    {
      "stop": {
        "id": "2_1220",
        "lat": 48.10914313,
        "lon": -1.70638498,
        "name": "Kerviler",
        "code": 1220
      },
      "arrival": 44040,
      "departure": 44040
    },
    {
      "stop": {
        "id": "2_1221",
        "lat": 48.10886588,
        "lon": -1.71061365,
        "name": "Géniaux",
        "code": 1221
      },
      "arrival": 44100,
      "departure": 44100
    },
    {
      "stop": {
        "id": "2_1222",
        "lat": 48.10807385,
        "lon": -1.71396182,
        "name": "Stade Rennais",
        "code": 1222
      },
      "arrival": 44160,
      "departure": 44160
    },
    {
      "stop": {
        "id": "2_1223",
        "lat": 48.10622122,
        "lon": -1.72383097,
        "name": "Le Hô",
        "code": 1223
      },
      "arrival": 44340,
      "departure": 44340
    },
    {
      "stop": {
        "id": "2_1224",
        "lat": 48.10306403,
        "lon": -1.72335303,
        "name": "Robinot de St Cyr",
        "code": 1224
      },
      "arrival": 44400,
      "departure": 44400
    },
    {
      "stop": {
        "id": "2_1225",
        "lat": 48.10218214,
        "lon": -1.72623505,
        "name": "Jardin Moderne",
        "code": 1225
      },
      "arrival": 44460,
      "departure": 44460
    },
    {
      "stop": {
        "id": "2_1226",
        "lat": 48.10122368,
        "lon": -1.73169411,
        "name": "Servigné",
        "code": 1226
      },
      "arrival": 44520,
      "departure": 44520
    },
    {
      "stop": {
        "id": "2_3768",
        "lat": 48.10412708,
        "lon": -1.73593806,
        "name": "Marais",
        "code": 3768
      },
      "arrival": 44580,
      "departure": 44580
    },
    {
      "stop": {
        "id": "2_3753",
        "lat": 48.10575046,
        "lon": -1.74001431,
        "name": "Trois Marches",
        "code": 3753
      },
      "arrival": 44640,
      "departure": 44640
    },
    {
      "stop": {
        "id": "2_3751",
        "lat": 48.10740152,
        "lon": -1.73924668,
        "name": "ZI Ouest",
        "code": 3751
      },
      "arrival": 44700,
      "departure": 44700
    }
  ],
  "route": {
    "id": "2_0011",
    "textColor": "FFFFFF",
    "color": "DC81AE",
    "description": "Urbaine",
    "longName": "ZI Ouest / Stade Rennais \u003c\u003e Saint-Saëns / ZI Sud-Est",
    "shortName": "11",
    "type": 3,
    "agencyId": "2"
  }
}