{
  "headsign": "9 | Saint-Laurent",
  "stopTimes": [
    {
      "stop": {
        "id": "2_1390",
        "lat": 48.10413591,
        "lon": -1.71347582,
        "name": "Cleunay",
        "code": 1390
      },
      "arrival": 57420,
      "departure": 57420
    },
    {
      "stop": {
        "id": "2_1391",
        "lat": 48.1008831,
        "lon": -1.71163792,
        "name": "Clinique La Sagesse",
        "code": 1391
      },
      "arrival": 57540,
      "departure": 57540
    },
    {
      "stop": {
        "id": "2_1388",
        "lat": 48.099342,
        "lon": -1.7111775,
        "name": "Montand",
        "code": 1388
      },
      "arrival": 57600,
      "departure": 57600
    },
    {
      "stop": {
        "id": "2_1393",
        "lat": 48.09789624,
        "lon": -1.70765735,
        "name": "Récipon",
        "code": 1393
      },
      "arrival": 57660,
      "departure": 57660
    },
    {
      "stop": {
        "id": "2_1394",
        "lat": 48.09900079,
        "lon": -1.70550837,
        "name": "Guérinais",
        "code": 1394
      },
      "arrival": 57720,
      "departure": 57720
    },
    {
      "stop": {
        "id": "2_1395",
        "lat": 48.10101371,
        "lon": -1.70702001,
        "name": "De Lesseps",
        "code": 1395
      },
      "arrival": 57780,
      "departure": 57780
    },
    {
      "stop": {
        "id": "2_1396",
        "lat": 48.10225768,
        "lon": -1.70499098,
        "name": "Champion de Cicé",
        "code": 1396
      },
      "arrival": 57840,
      "departure": 57840
    },
    {
      "stop": {
        "id": "2_1383",
        "lat": 48.10360722,
        "lon": -1.70009111,
        "name": "Dargent",
        "code": 1383
      },
      "arrival": 57900,
      "departure": 57900
    },
    {
      "stop": {
        "id": "2_1382",
        "lat": 48.10510437,
        "lon": -1.69871692,
        "name": "Voltaire",
        "code": 1382
      },
      "arrival": 57960,
      "departure": 57960
    },
    {
      "stop": {
        "id": "2_1399",
        "lat": 48.10503716,
        "lon": -1.69542273,
        "name": "Malakoff",
        "code": 1399
      },
      "arrival": 58020,
      "departure": 58020
    },
    {
      "stop": {
        "id": "2_1612",
        "lat": 48.10353902,
        "lon": -1.68842942,
        "name": "Saint-Conwoïon",
        "code": 1612
      },
      "arrival": 58200,
      "departure": 58200
    },
    {
      "stop": {
        "id": "2_1401",
        "lat": 48.10562192,
        "lon": -1.68776692,
        "name": "Inkermann",
        "code": 1401
      },
      "arrival": 58260,
      "departure": 58260
    },
    {
      "stop": {
        "id": "2_1021",
        "lat": 48.10550614,
        "lon": -1.68388047,
        "name": "Cité Judiciaire",
        "code": 1021
      },
      "arrival": 58320,
      "departure": 58320
    },
    {
      "stop": {
        "id": "2_1022",
        "lat": 48.10622878,
        "lon": -1.68080951,
        "name": "Plélo Colombier",
        "code": 1022
      },
      "arrival": 58440,
      "departure": 58440
    },
    {
      "stop": {
        "id": "2_1023",
        "lat": 48.10798151,
        "lon": -1.68011595,
        "name": "Les Halles",
        "code": 1023
      },
      "arrival": 58560,
      "departure": 58560
    },
    {
      "stop": {
        "id": "2_1016",
        "lat": 48.11007256,
        "lon": -1.6801671,
        "name": "République Nemours",
        "code": 1016
      },
      "arrival": 58740,
      "departure": 58740
    },
    {
      "stop": {
        "id": "2_1025",
        "lat": 48.11273566,
        "lon": -1.68025817,
        "name": "Champ Jacquet",
        "code": 1025
      },
      "arrival": 58860,
      "departure": 58860
    },
    {
      "stop": {
        "id": "2_1026",
        "lat": 48.11478452,
        "lon": -1.67927843,
        "name": "Sainte-Anne",
        "code": 1026
      },
      "arrival": 58920,
      "departure": 58920
    },
    {
      "stop": {
        "id": "2_1027",
        "lat": 48.11723114,
        "lon": -1.67736823,
        "name": "Hôtel Dieu",
        "code": 1027
      },
      "arrival": 59040,
      "departure": 59040
    },
    {
      "stop": {
        "id": "2_1028",
        "lat": 48.11750653,
        "lon": -1.67360984,
        "name": "Sévigné",
        "code": 1028
      },
      "arrival": 59100,
      "departure": 59100
    },
    {
      "stop": {
        "id": "2_1029",
        "lat": 48.11831975,
        "lon": -1.66969704,
        "name": "Fac de Droit",
        "code": 1029
      },
      "arrival": 59160,
      "departure": 59160
    },
    {
      "stop": {
        "id": "2_1030",
        "lat": 48.11947818,
        "lon": -1.66685122,
        "name": "Guéhenno",
        "code": 1030
      },
      "arrival": 59220,
      "departure": 59220
    },
    {
      "stop": {
        "id": "2_1031",
        "lat": 48.1220044,
        "lon": -1.66224129,
        "name": "Metz Volney",
        "code": 1031
      },
      "arrival": 59340,
      "departure": 59340
    },
    {
      "stop": {
        "id": "2_1403",
        "lat": 48.12522631,
        "lon": -1.66100436,
        "name": "Saint-Exupéry",
        "code": 1403
      },
      "arrival": 59460,
      "departure": 59460
    },
    {
      "stop": {
        "id": "2_1404",
        "lat": 48.12676756,
        "lon": -1.65850144,
        "name": "Trégain",
        "code": 1404
      },
      "arrival": 59460,
      "departure": 59460
    },
    {
      "stop": {
        "id": "2_1405",
        "lat": 48.12834452,
        "lon": -1.65714602,
        "name": "Europe",
        "code": 1405
      },
      "arrival": 59520,
      "departure": 59520
    },
    {
      "stop": {
        "id": "2_1406",
        "lat": 48.13074039,
        "lon": -1.65650905,
        "name": "Gast",
        "code": 1406
      },
      "arrival": 59580,
      "departure": 59580
    },
    {
      "stop": {
        "id": "2_1407",
        "lat": 48.13305845,
        "lon": -1.65670003,
        "name": "Longs Prés",
        "code": 1407
      },
      "arrival": 59640,
      "departure": 59640
    },
    {
      "stop": {
        "id": "2_1373",
        "lat": 48.13520527,
        "lon": -1.65938653,
        "name": "Hôtel de Région",
        "code": 1373
      },
      "arrival": 59700,
      "departure": 59700
    },
    {
      "stop": {
        "id": "2_1372",
        "lat": 48.13840918,
        "lon": -1.65907086,
        "name": "Saint-Laurent",
        "code": 1372
      },
      "arrival": 59820,
      "departure": 59820
    }
  ],
  "route": {
    "id": "2_0009",
    "textColor": "FFFFFF",
    "color": "004B9B",
    "description": "Majeure",
    "longName": "Saint-Laurent \u003c\u003e Cleunay",
    "shortName": "9",
    "type": 3,
    "agencyId": "2"
  }
}