{
  "headsign": "56 | Chavagne",
  "stopTimes": [
    {
      "stop": {
        "id": "2_1595",
        "lat": 48.10582657,
        "lon": -1.67734271,
        "name": "Charles de Gaulle",
        "code": 1595
      },
      "arrival": 55320,
      "departure": 55320
    },
    {
      "stop": {
        "id": "2_1214",
        "lat": 48.10990137,
        "lon": -1.6796669,
        "name": "République",
        "code": 1214
      },
      "arrival": 55500,
      "departure": 55500
    },
    {
      "stop": {
        "id": "2_1540",
        "lat": 48.1099522,
        "lon": -1.68519001,
        "name": "Pont de Bretagne",
        "code": 1540
      },
      "arrival": 55560,
      "departure": 55560
    },
    {
      "stop": {
        "id": "2_1217",
        "lat": 48.10823293,
        "lon": -1.69450077,
        "name": "Chèques Postaux",
        "code": 1217
      },
      "arrival": 55740,
      "departure": 55740
    },
    {
      "stop": {
        "id": "2_1218",
        "lat": 48.10910111,
        "lon": -1.69795527,
        "name": "Guilloux Lorient",
        "code": 1218
      },
      "arrival": 55800,
      "departure": 55800
    },
    {
      "stop": {
        "id": "2_1221",
        "lat": 48.10886589,
        "lon": -1.71061365,
        "name": "Géniaux",
        "code": 1221
      },
      "arrival": 55920,
      "departure": 55920
    },
    {
      "stop": {
        "id": "2_1539",
        "lat": 48.10723128,
        "lon": -1.72306614,
        "name": "Lemaistre",
        "code": 1539
      },
      "arrival": 56100,
      "departure": 56100
    },
    {
      "stop": {
        "id": "2_1506",
        "lat": 48.10648052,
        "lon": -1.73143819,
        "name": "Berthault",
        "code": 1506
      },
      "arrival": 56160,
      "departure": 56160
    },
    {
      "stop": {
        "id": "2_3766",
        "lat": 48.10499211,
        "lon": -1.74065229,
        "name": "Trois Marches",
        "code": 3766
      },
      "arrival": 56280,
      "departure": 56280
    },
    {
      "stop": {
        "id": "2_2512",
        "lat": 48.09623469,
        "lon": -1.76464809,
        "name": "Pont d\u0027Avoine",
        "code": 2512
      },
      "arrival": 56460,
      "departure": 56460
    },
    {
      "stop": {
        "id": "2_2523",
        "lat": 48.09407165,
        "lon": -1.77398049,
        "name": "Mahomat",
        "code": 2523
      },
      "arrival": 56520,
      "departure": 56520
    },
    {
      "stop": {
        "id": "2_2529",
        "lat": 48.0803048,
        "lon": -1.77444546,
        "name": "Moigné",
        "code": 2529
      },
      "arrival": 56640,
      "departure": 56640
    },
    {
      "stop": {
        "id": "2_2530",
        "lat": 48.07879295,
        "lon": -1.77215639,
        "name": "Haut Plessis",
        "code": 2530
      },
      "arrival": 56640,
      "departure": 56640
    },
    {
      "stop": {
        "id": "2_4207",
        "lat": 48.063395,
        "lon": -1.77238031,
        "name": "Mare Doux",
        "code": 4207
      },
      "arrival": 56880,
      "departure": 56880
    },
    {
      "stop": {
        "id": "2_4208",
        "lat": 48.05776112,
        "lon": -1.7763633,
        "name": "Grippay",
        "code": 4208
      },
      "arrival": 56940,
      "departure": 56940
    },
    {
      "stop": {
        "id": "2_4209",
        "lat": 48.05408189,
        "lon": -1.78370908,
        "name": "Avenir",
        "code": 4209
      },
      "arrival": 57000,
      "departure": 57000
    },
    {
      "stop": {
        "id": "2_4203",
        "lat": 48.05509706,
        "lon": -1.79000007,
        "name": "Alfred de Musset",
        "code": 4203
      },
      "arrival": 57120,
      "departure": 57120
    },
    {
      "stop": {
        "id": "2_4211",
        "lat": 48.05245322,
        "lon": -1.79050012,
        "name": "Calvaire",
        "code": 4211
      },
      "arrival": 57120,
      "departure": 57120
    },
    {
      "stop": {
        "id": "2_4201",
        "lat": 48.0519556,
        "lon": -1.79762199,
        "name": "Croix Blanche",
        "code": 4201
      },
      "arrival": 57240,
      "departure": 57240
    }
  ],
  "route": {
    "id": "2_0056",
    "textColor": "FFFFFF",
    "color": "009A47",
    "description": "Métropolitaine",
    "longName": "Rennes (Charles de Gaulle) \u003c\u003e Chavagne",
    "shortName": "56",
    "type": 3,
    "agencyId": "2"
  }
}