{
  "headsign": "1 | Cesson-Sévigné Champs Blancs",
  "stopTimes": [
    {
      "stop": {
        "id": "2_3028",
        "lat": 48.085464,
        "lon": -1.604031,
        "name": "Rosa Parks",
        "code": 3028
      },
      "arrival": 22920,
      "departure": 22920
    },
    {
      "stop": {
        "id": "2_3027",
        "lat": 48.085803,
        "lon": -1.608136,
        "name": "Touche Annette",
        "code": 3027
      },
      "arrival": 22980,
      "departure": 22980
    },
    {
      "stop": {
        "id": "2_3032",
        "lat": 48.085229,
        "lon": -1.610747,
        "name": "Gériatrie",
        "code": 3032
      },
      "arrival": 23040,
      "departure": 23040
    },
    {
      "stop": {
        "id": "2_3002",
        "lat": 48.085765,
        "lon": -1.614047,
        "name": "Deux Ruisseaux",
        "code": 3002
      },
      "arrival": 23100,
      "departure": 23100
    },
    {
      "stop": {
        "id": "2_3003",
        "lat": 48.089145,
        "lon": -1.612576,
        "name": "Bourgogne",
        "code": 3003
      },
      "arrival": 23160,
      "departure": 23160
    },
    {
      "stop": {
        "id": "2_3004",
        "lat": 48.090327,
        "lon": -1.615976,
        "name": "Hallouvry",
        "code": 3004
      },
      "arrival": 23220,
      "departure": 23220
    },
    {
      "stop": {
        "id": "2_3005",
        "lat": 48.088293,
        "lon": -1.61698,
        "name": "Chantepie Eglise",
        "code": 3005
      },
      "arrival": 23280,
      "departure": 23280
    },
    {
      "stop": {
        "id": "2_3006",
        "lat": 48.08848,
        "lon": -1.6192,
        "name": "Chantepie Mairie",
        "code": 3006
      },
      "arrival": 23340,
      "departure": 23340
    },
    {
      "stop": {
        "id": "2_3007",
        "lat": 48.090504,
        "lon": -1.623943,
        "name": "Loges",
        "code": 3007
      },
      "arrival": 23400,
      "departure": 23400
    },
    {
      "stop": {
        "id": "2_1322",
        "lat": 48.094297,
        "lon": -1.634589,
        "name": "Sauvaie",
        "code": 1322
      },
      "arrival": 23520,
      "departure": 23520
    },
    {
      "stop": {
        "id": "2_1323",
        "lat": 48.095474,
        "lon": -1.638069,
        "name": "CARSAT",
        "code": 1323
      },
      "arrival": 23580,
      "departure": 23580
    },
    {
      "stop": {
        "id": "2_1324",
        "lat": 48.09768,
        "lon": -1.642447,
        "name": "Domaine",
        "code": 1324
      },
      "arrival": 23640,
      "departure": 23640
    },
    {
      "stop": {
        "id": "2_1325",
        "lat": 48.099472,
        "lon": -1.646682,
        "name": "Landry",
        "code": 1325
      },
      "arrival": 23700,
      "departure": 23700
    },
    {
      "stop": {
        "id": "2_1470",
        "lat": 48.100631,
        "lon": -1.650392,
        "name": "Villebois-Mareuil",
        "code": 1470
      },
      "arrival": 23760,
      "departure": 23760
    },
    {
      "stop": {
        "id": "2_1327",
        "lat": 48.101402,
        "lon": -1.65357,
        "name": "Raison",
        "code": 1327
      },
      "arrival": 23820,
      "departure": 23820
    },
    {
      "stop": {
        "id": "2_1212",
        "lat": 48.101949,
        "lon": -1.656538,
        "name": "Mouézy",
        "code": 1212
      },
      "arrival": 23880,
      "departure": 23880
    },
    {
      "stop": {
        "id": "2_1213",
        "lat": 48.102902,
        "lon": -1.661403,
        "name": "Croix Saint-Hélier",
        "code": 1213
      },
      "arrival": 23940,
      "departure": 23940
    },
    {
      "stop": {
        "id": "2_1057",
        "lat": 48.104747,
        "lon": -1.667176,
        "name": "Laënnec",
        "code": 1057
      },
      "arrival": 24060,
      "departure": 24060
    },
    {
      "stop": {
        "id": "2_1056",
        "lat": 48.103956,
        "lon": -1.673185,
        "name": "Gares",
        "code": 1056
      },
      "arrival": 24180,
      "departure": 24180
    },
    {
      "stop": {
        "id": "2_1055",
        "lat": 48.106057,
        "lon": -1.67401,
        "name": "Champs Libres",
        "code": 1055
      },
      "arrival": 24240,
      "departure": 24240
    },
    {
      "stop": {
        "id": "2_1054",
        "lat": 48.107564,
        "lon": -1.675176,
        "name": "Liberté TNB",
        "code": 1054
      },
      "arrival": 24300,
      "departure": 24300
    },
    {
      "stop": {
        "id": "2_1023",
        "lat": 48.108066,
        "lon": -1.680048,
        "name": "Les Halles",
        "code": 1023
      },
      "arrival": 24420,
      "departure": 24420
    },
    {
      "stop": {
        "id": "2_1016",
        "lat": 48.110073,
        "lon": -1.680101,
        "name": "République Nemours",
        "code": 1016
      },
      "arrival": 24600,
      "departure": 24600
    },
    {
      "stop": {
        "id": "2_1025",
        "lat": 48.112738,
        "lon": -1.680211,
        "name": "Champ Jacquet",
        "code": 1025
      },
      "arrival": 24660,
      "departure": 24660
    },
    {
      "stop": {
        "id": "2_1026",
        "lat": 48.11482,
        "lon": -1.679242,
        "name": "Sainte-Anne",
        "code": 1026
      },
      "arrival": 24780,
      "departure": 24780
    },
    {
      "stop": {
        "id": "2_1027",
        "lat": 48.117163,
        "lon": -1.677351,
        "name": "Hôtel Dieu",
        "code": 1027
      },
      "arrival": 24840,
      "departure": 24840
    },
    {
      "stop": {
        "id": "2_1028",
        "lat": 48.117513,
        "lon": -1.673538,
        "name": "Sévigné",
        "code": 1028
      },
      "arrival": 24900,
      "departure": 24900
    },
    {
      "stop": {
        "id": "2_1029",
        "lat": 48.118281,
        "lon": -1.669591,
        "name": "Fac de Droit",
        "code": 1029
      },
      "arrival": 24960,
      "departure": 24960
    },
    {
      "stop": {
        "id": "2_1030",
        "lat": 48.119572,
        "lon": -1.666629,
        "name": "Guéhenno",
        "code": 1030
      },
      "arrival": 25020,
      "departure": 25020
    },
    {
      "stop": {
        "id": "2_1031",
        "lat": 48.121987,
        "lon": -1.662185,
        "name": "Metz Volney",
        "code": 1031
      },
      "arrival": 25080,
      "departure": 25080
    },
    {
      "stop": {
        "id": "2_1032",
        "lat": 48.123242,
        "lon": -1.659266,
        "name": "Painlevé",
        "code": 1032
      },
      "arrival": 25140,
      "departure": 25140
    },
    {
      "stop": {
        "id": "2_1033",
        "lat": 48.12128,
        "lon": -1.655029,
        "name": "Assomption",
        "code": 1033
      },
      "arrival": 25200,
      "departure": 25200
    },
    {
      "stop": {
        "id": "2_1034",
        "lat": 48.122185,
        "lon": -1.650619,
        "name": "Turmel",
        "code": 1034
      },
      "arrival": 25260,
      "departure": 25260
    },
    {
      "stop": {
        "id": "2_1035",
        "lat": 48.123677,
        "lon": -1.645158,
        "name": "Mirabeau",
        "code": 1035
      },
      "arrival": 25320,
      "departure": 25320
    },
    {
      "stop": {
        "id": "2_1036",
        "lat": 48.125556,
        "lon": -1.64198,
        "name": "Donzelot",
        "code": 1036
      },
      "arrival": 25380,
      "departure": 25380
    },
    {
      "stop": {
        "id": "2_1037",
        "lat": 48.127801,
        "lon": -1.639871,
        "name": "Gallets",
        "code": 1037
      },
      "arrival": 25380,
      "departure": 25380
    },
    {
      "stop": {
        "id": "2_1038",
        "lat": 48.128209,
        "lon": -1.637118,
        "name": "Bouzat",
        "code": 1038
      },
      "arrival": 25440,
      "departure": 25440
    },
    {
      "stop": {
        "id": "2_1039",
        "lat": 48.128998,
        "lon": -1.63238,
        "name": "Longs Champs",
        "code": 1039
      },
      "arrival": 25500,
      "departure": 25500
    },
    {
      "stop": {
        "id": "2_2003",
        "lat": 48.130071,
        "lon": -1.628026,
        "name": "Cesson Hôpital Privé",
        "code": 2003
      },
      "arrival": 25560,
      "departure": 25560
    },
    {
      "stop": {
        "id": "2_2125",
        "lat": 48.131892,
        "lon": -1.624417,
        "name": "Chêne Germain",
        "code": 2125
      },
      "arrival": 25620,
      "departure": 25620
    },
    {
      "stop": {
        "id": "2_2126",
        "lat": 48.134763,
        "lon": -1.621832,
        "name": "Champs Blancs",
        "code": 2126
      },
      "arrival": 25800,
      "departure": 25800
    }
  ],
  "route": {
    "id": "2_0001",
    "textColor": "1A171B",
    "color": "97BF0D",
    "description": "Majeure",
    "longName": "Cesson-Sévigné (Champs Blancs) \u003c\u003e Chantepie (Rosa Parks)",
    "shortName": "1",
    "type": 3,
    "agencyId": "2"
  }
}