{
  "headsign": "74 | Orgères Moc Souris",
  "stopTimes": [
    {
      "stop": {
        "id": "2_1534",
        "lat": 48.08831454,
        "lon": -1.67444337,
        "name": "Henri Fréville",
        "code": 1534
      },
      "arrival": 59400,
      "departure": 59400
    },
    {
      "stop": {
        "id": "2_4357",
        "lat": 48.01706446,
        "lon": -1.66466568,
        "name": "Croix du Pigeonnet",
        "code": 4357
      },
      "arrival": 60180,
      "departure": 60180
    },
    {
      "stop": {
        "id": "2_3249",
        "lat": 48.01492989,
        "lon": -1.66394359,
        "name": "Orgerblon",
        "code": 3249
      },
      "arrival": 60180,
      "departure": 60180
    },
    {
      "stop": {
        "id": "2_3216",
        "lat": 48.00912373,
        "lon": -1.66637371,
        "name": "Plardière",
        "code": 3216
      },
      "arrival": 60240,
      "departure": 60240
    },
    {
      "stop": {
        "id": "2_3217",
        "lat": 48.00045137,
        "lon": -1.66706223,
        "name": "Levant",
        "code": 3217
      },
      "arrival": 60360,
      "departure": 60360
    },
    {
      "stop": {
        "id": "2_3218",
        "lat": 47.99689445,
        "lon": -1.66900508,
        "name": "Groupe Scolaire",
        "code": 3218
      },
      "arrival": 60420,
      "departure": 60420
    },
    {
      "stop": {
        "id": "2_3219",
        "lat": 47.99494129,
        "lon": -1.67090261,
        "name": "Coteau",
        "code": 3219
      },
      "arrival": 60480,
      "departure": 60480
    },
    {
      "stop": {
        "id": "2_3220",
        "lat": 47.99225073,
        "lon": -1.66789719,
        "name": "Surcouf",
        "code": 3220
      },
      "arrival": 60540,
      "departure": 60540
    },
    {
      "stop": {
        "id": "2_3221",
        "lat": 47.99372623,
        "lon": -1.6652472,
        "name": "Chateaubriand",
        "code": 3221
      },
      "arrival": 60660,
      "departure": 60660
    },
    {
      "stop": {
        "id": "2_3204",
        "lat": 47.98326978,
        "lon": -1.66000223,
        "name": "Télégraphe",
        "code": 3204
      },
      "arrival": 60780,
      "departure": 60780
    },
    {
      "stop": {
        "id": "2_3205",
        "lat": 47.97611711,
        "lon": -1.65714416,
        "name": "Petite Rochelle",
        "code": 3205
      },
      "arrival": 60900,
      "departure": 60900
    },
    {
      "stop": {
        "id": "2_3206",
        "lat": 47.97543073,
        "lon": -1.65239827,
        "name": "Frogerais",
        "code": 3206
      },
      "arrival": 60900,
      "departure": 60900
    },
    {
      "stop": {
        "id": "2_3207",
        "lat": 47.96965315,
        "lon": -1.6457694,
        "name": "Fort Joual",
        "code": 3207
      },
      "arrival": 61020,
      "departure": 61020
    },
    {
      "stop": {
        "id": "2_3811",
        "lat": 47.95954125,
        "lon": -1.63703108,
        "name": "Sept Fours",
        "code": 3811
      },
      "arrival": 61140,
      "departure": 61140
    },
    {
      "stop": {
        "id": "2_3810",
        "lat": 47.95999343,
        "lon": -1.63242683,
        "name": "Moc Souris",
        "code": 3810
      },
      "arrival": 61200,
      "departure": 61200
    }
  ],
  "route": {
    "id": "2_0074",
    "textColor": "1A171B",
    "color": "FCC000",
    "description": "Métropolitaine",
    "longName": "Rennes (Henri Fréville) \u003c\u003e Orgères / Bourgbarré",
    "shortName": "74",
    "type": 3,
    "agencyId": "2"
  }
}