{
  "headsign": "67 | Brécé",
  "stopTimes": [
    {
      "stop": {
        "id": "2_1556",
        "lat": 48.10943229,
        "lon": -1.67763328,
        "name": "République",
        "code": 1556
      },
      "arrival": 33300,
      "departure": 33300
    },
    {
      "stop": {
        "id": "2_1169",
        "lat": 48.10985334,
        "lon": -1.67452094,
        "name": "Musée Beaux Arts",
        "code": 1169
      },
      "arrival": 33360,
      "departure": 33360
    },
    {
      "stop": {
        "id": "2_1172",
        "lat": 48.11007924,
        "lon": -1.65919453,
        "name": "Robidou",
        "code": 1172
      },
      "arrival": 33540,
      "departure": 33540
    },
    {
      "stop": {
        "id": "2_1525",
        "lat": 48.11355264,
        "lon": -1.6567289,
        "name": "Durafour Strasbourg",
        "code": 1525
      },
      "arrival": 33660,
      "departure": 33660
    },
    {
      "stop": {
        "id": "2_1524",
        "lat": 48.11467385,
        "lon": -1.65135039,
        "name": "Hôpital Régnier",
        "code": 1524
      },
      "arrival": 33720,
      "departure": 33720
    },
    {
      "stop": {
        "id": "2_1523",
        "lat": 48.11454875,
        "lon": -1.6499529,
        "name": "Moulin de Joué",
        "code": 1523
      },
      "arrival": 33780,
      "departure": 33780
    },
    {
      "stop": {
        "id": "2_1522",
        "lat": 48.11392882,
        "lon": -1.642818,
        "name": "Piletière",
        "code": 1522
      },
      "arrival": 33840,
      "departure": 33840
    },
    {
      "stop": {
        "id": "2_1610",
        "lat": 48.11406056,
        "lon": -1.63602668,
        "name": "Tournebride",
        "code": 1610
      },
      "arrival": 33900,
      "departure": 33900
    },
    {
      "stop": {
        "id": "2_2019",
        "lat": 48.1140789,
        "lon": -1.62801107,
        "name": "Champs Péans",
        "code": 2019
      },
      "arrival": 33960,
      "departure": 33960
    },
    {
      "stop": {
        "id": "2_2020",
        "lat": 48.11415,
        "lon": -1.62183892,
        "name": "Taillis",
        "code": 2020
      },
      "arrival": 34020,
      "departure": 34020
    },
    {
      "stop": {
        "id": "2_2062",
        "lat": 48.10782767,
        "lon": -1.61408468,
        "name": "Rond Point de Bray",
        "code": 2062
      },
      "arrival": 34140,
      "departure": 34140
    },
    {
      "stop": {
        "id": "2_2063",
        "lat": 48.1093024,
        "lon": -1.6089112,
        "name": "Monniais",
        "code": 2063
      },
      "arrival": 34200,
      "departure": 34200
    },
    {
      "stop": {
        "id": "2_2064",
        "lat": 48.11257019,
        "lon": -1.60740614,
        "name": "Peupliers",
        "code": 2064
      },
      "arrival": 34260,
      "departure": 34260
    },
    {
      "stop": {
        "id": "2_2065",
        "lat": 48.11382762,
        "lon": -1.60314125,
        "name": "Cesson Gare",
        "code": 2065
      },
      "arrival": 34320,
      "departure": 34320
    },
    {
      "stop": {
        "id": "2_2086",
        "lat": 48.11430452,
        "lon": -1.60048414,
        "name": "Bordage",
        "code": 2086
      },
      "arrival": 34380,
      "departure": 34380
    },
    {
      "stop": {
        "id": "2_2103",
        "lat": 48.11334833,
        "lon": -1.59001633,
        "name": "Rigourdière",
        "code": 2103
      },
      "arrival": 34440,
      "departure": 34440
    },
    {
      "stop": {
        "id": "2_4163",
        "lat": 48.10829229,
        "lon": -1.50738732,
        "name": "Turbanière",
        "code": 4163
      },
      "arrival": 34980,
      "departure": 34980
    },
    {
      "stop": {
        "id": "2_4157",
        "lat": 48.10929687,
        "lon": -1.50327411,
        "name": "Pâtis",
        "code": 4157
      },
      "arrival": 34980,
      "departure": 34980
    },
    {
      "stop": {
        "id": "2_4158",
        "lat": 48.10759324,
        "lon": -1.48603777,
        "name": "Destiers",
        "code": 4158
      },
      "arrival": 35100,
      "departure": 35100
    },
    {
      "stop": {
        "id": "2_4159",
        "lat": 48.10748041,
        "lon": -1.48261,
        "name": "Provence",
        "code": 4159
      },
      "arrival": 35160,
      "departure": 35160
    },
    {
      "stop": {
        "id": "2_4160",
        "lat": 48.10721432,
        "lon": -1.47846948,
        "name": "Saules",
        "code": 4160
      },
      "arrival": 35220,
      "departure": 35220
    },
    {
      "stop": {
        "id": "2_4161",
        "lat": 48.10901928,
        "lon": -1.47840717,
        "name": "Mainguère",
        "code": 4161
      },
      "arrival": 35220,
      "departure": 35220
    },
    {
      "stop": {
        "id": "2_4151",
        "lat": 48.10975091,
        "lon": -1.48097238,
        "name": "Anjou",
        "code": 4151
      },
      "arrival": 35280,
      "departure": 35280
    }
  ],
  "route": {
    "id": "2_0067",
    "textColor": "FFFFFF",
    "color": "E0083B",
    "description": "Métropolitaine",
    "longName": "Rennes (République) \u003c\u003e Cesson-Sévigné / Brécé",
    "shortName": "67",
    "type": 3,
    "agencyId": "2"
  }
}