{
  "headsign": "9 | Cleunay",
  "stopTimes": [
    {
      "stop": {
        "id": "2_1372",
        "lat": 48.138364,
        "lon": -1.659181,
        "name": "Saint-Laurent",
        "code": 1372
      },
      "arrival": 38520,
      "departure": 38520
    },
    {
      "stop": {
        "id": "2_1159",
        "lat": 48.134358,
        "lon": -1.658784,
        "name": "Hôtel de Région",
        "code": 1159
      },
      "arrival": 38580,
      "departure": 38580
    },
    {
      "stop": {
        "id": "2_1374",
        "lat": 48.133162,
        "lon": -1.65696,
        "name": "Longs Prés",
        "code": 1374
      },
      "arrival": 38640,
      "departure": 38640
    },
    {
      "stop": {
        "id": "2_1375",
        "lat": 48.130103,
        "lon": -1.656774,
        "name": "Gast",
        "code": 1375
      },
      "arrival": 38700,
      "departure": 38700
    },
    {
      "stop": {
        "id": "2_1376",
        "lat": 48.128579,
        "lon": -1.657192,
        "name": "Europe",
        "code": 1376
      },
      "arrival": 38760,
      "departure": 38760
    },
    {
      "stop": {
        "id": "2_1377",
        "lat": 48.126826,
        "lon": -1.65857,
        "name": "Trégain",
        "code": 1377
      },
      "arrival": 38820,
      "departure": 38820
    },
    {
      "stop": {
        "id": "2_1378",
        "lat": 48.124958,
        "lon": -1.661404,
        "name": "Saint-Exupéry",
        "code": 1378
      },
      "arrival": 38880,
      "departure": 38880
    },
    {
      "stop": {
        "id": "2_1009",
        "lat": 48.121635,
        "lon": -1.663186,
        "name": "Metz Volney",
        "code": 1009
      },
      "arrival": 39000,
      "departure": 39000
    },
    {
      "stop": {
        "id": "2_1010",
        "lat": 48.119241,
        "lon": -1.667693,
        "name": "Guéhenno",
        "code": 1010
      },
      "arrival": 39120,
      "departure": 39120
    },
    {
      "stop": {
        "id": "2_1011",
        "lat": 48.118312,
        "lon": -1.671315,
        "name": "Fac de Droit",
        "code": 1011
      },
      "arrival": 39180,
      "departure": 39180
    },
    {
      "stop": {
        "id": "2_1012",
        "lat": 48.11605,
        "lon": -1.674245,
        "name": "Sévigné",
        "code": 1012
      },
      "arrival": 39240,
      "departure": 39240
    },
    {
      "stop": {
        "id": "2_1014",
        "lat": 48.113739,
        "lon": -1.679038,
        "name": "Sainte-Anne",
        "code": 1014
      },
      "arrival": 39420,
      "departure": 39420
    },
    {
      "stop": {
        "id": "2_1015",
        "lat": 48.11252,
        "lon": -1.680352,
        "name": "Champ Jacquet",
        "code": 1015
      },
      "arrival": 39480,
      "departure": 39480
    },
    {
      "stop": {
        "id": "2_1024",
        "lat": 48.109977,
        "lon": -1.680268,
        "name": "République Nemours",
        "code": 1024
      },
      "arrival": 39660,
      "departure": 39660
    },
    {
      "stop": {
        "id": "2_1017",
        "lat": 48.108415,
        "lon": -1.680213,
        "name": "Les Halles",
        "code": 1017
      },
      "arrival": 39720,
      "departure": 39720
    },
    {
      "stop": {
        "id": "2_1018",
        "lat": 48.106204,
        "lon": -1.680999,
        "name": "Plélo Colombier",
        "code": 1018
      },
      "arrival": 39840,
      "departure": 39840
    },
    {
      "stop": {
        "id": "2_1402",
        "lat": 48.105647,
        "lon": -1.685188,
        "name": "Cité Judiciaire",
        "code": 1402
      },
      "arrival": 39960,
      "departure": 39960
    },
    {
      "stop": {
        "id": "2_1611",
        "lat": 48.105462,
        "lon": -1.688422,
        "name": "Redon",
        "code": 1611
      },
      "arrival": 40020,
      "departure": 40020
    },
    {
      "stop": {
        "id": "2_1616",
        "lat": 48.103307,
        "lon": -1.689206,
        "name": "Saint-Conwoïon",
        "code": 1616
      },
      "arrival": 40080,
      "departure": 40080
    },
    {
      "stop": {
        "id": "2_1381",
        "lat": 48.105128,
        "lon": -1.696468,
        "name": "Malakoff",
        "code": 1381
      },
      "arrival": 40260,
      "departure": 40260
    },
    {
      "stop": {
        "id": "2_1398",
        "lat": 48.105225,
        "lon": -1.698672,
        "name": "Voltaire",
        "code": 1398
      },
      "arrival": 40320,
      "departure": 40320
    },
    {
      "stop": {
        "id": "2_1397",
        "lat": 48.103598,
        "lon": -1.700369,
        "name": "Dargent",
        "code": 1397
      },
      "arrival": 40380,
      "departure": 40380
    },
    {
      "stop": {
        "id": "2_1384",
        "lat": 48.102651,
        "lon": -1.703856,
        "name": "Champion de Cicé",
        "code": 1384
      },
      "arrival": 40440,
      "departure": 40440
    },
    {
      "stop": {
        "id": "2_1385",
        "lat": 48.100655,
        "lon": -1.707006,
        "name": "De Lesseps",
        "code": 1385
      },
      "arrival": 40500,
      "departure": 40500
    },
    {
      "stop": {
        "id": "2_1386",
        "lat": 48.098922,
        "lon": -1.705488,
        "name": "Guérinais",
        "code": 1386
      },
      "arrival": 40560,
      "departure": 40560
    },
    {
      "stop": {
        "id": "2_1387",
        "lat": 48.098044,
        "lon": -1.708181,
        "name": "Récipon",
        "code": 1387
      },
      "arrival": 40620,
      "departure": 40620
    },
    {
      "stop": {
        "id": "2_1392",
        "lat": 48.099871,
        "lon": -1.711154,
        "name": "Montand",
        "code": 1392
      },
      "arrival": 40680,
      "departure": 40680
    },
    {
      "stop": {
        "id": "2_1389",
        "lat": 48.101249,
        "lon": -1.71181,
        "name": "Clinique La Sagesse",
        "code": 1389
      },
      "arrival": 40680,
      "departure": 40680
    },
    {
      "stop": {
        "id": "2_1390",
        "lat": 48.104175,
        "lon": -1.713394,
        "name": "Cleunay",
        "code": 1390
      },
      "arrival": 40800,
      "departure": 40800
    }
  ],
  "route": {
    "id": "2_0009",
    "textColor": "FFFFFF",
    "color": "00519E",
    "description": "Majeure",
    "longName": "Saint-Laurent \u003c\u003e Cleunay",
    "shortName": "9",
    "type": 3,
    "agencyId": "2"
  }
}