{
  "headsign": "228 | Montgermont La Chapelle",
  "stopTimes": [
    {
      "stop": {
        "id": "2_1640",
        "lat": 48.13371232,
        "lon": -1.6839414,
        "name": "Lycée Mendes France",
        "code": 1640
      },
      "arrival": 64200,
      "departure": 64200
    },
    {
      "stop": {
        "id": "2_3509",
        "lat": 48.15288114,
        "lon": -1.70885747,
        "name": "Métrie",
        "code": 3509
      },
      "arrival": 64800,
      "departure": 64800
    },
    {
      "stop": {
        "id": "2_3510",
        "lat": 48.15558798,
        "lon": -1.71082246,
        "name": "Belle Epine",
        "code": 3510
      },
      "arrival": 64860,
      "departure": 64860
    },
    {
      "stop": {
        "id": "2_3511",
        "lat": 48.15733411,
        "lon": -1.71460655,
        "name": "Courtines",
        "code": 3511
      },
      "arrival": 64920,
      "departure": 64920
    },
    {
      "stop": {
        "id": "2_3512",
        "lat": 48.15567997,
        "lon": -1.71663805,
        "name": "Montgermont Mairie",
        "code": 3512
      },
      "arrival": 64980,
      "departure": 64980
    },
    {
      "stop": {
        "id": "2_3513",
        "lat": 48.15568596,
        "lon": -1.72068225,
        "name": "Pierre Texier",
        "code": 3513
      },
      "arrival": 65040,
      "departure": 65040
    },
    {
      "stop": {
        "id": "2_3501",
        "lat": 48.15713428,
        "lon": -1.72329994,
        "name": "Fougerolle",
        "code": 3501
      },
      "arrival": 65100,
      "departure": 65100
    },
    {
      "stop": {
        "id": "2_3515",
        "lat": 48.16271981,
        "lon": -1.73059303,
        "name": "Silandière",
        "code": 3515
      },
      "arrival": 65220,
      "departure": 65220
    },
    {
      "stop": {
        "id": "2_4057",
        "lat": 48.17039595,
        "lon": -1.73622985,
        "name": "Sénestrais",
        "code": 4057
      },
      "arrival": 65280,
      "departure": 65280
    },
    {
      "stop": {
        "id": "2_4058",
        "lat": 48.17395236,
        "lon": -1.73523531,
        "name": "Viennais",
        "code": 4058
      },
      "arrival": 65340,
      "departure": 65340
    },
    {
      "stop": {
        "id": "2_4059",
        "lat": 48.17663681,
        "lon": -1.7328654,
        "name": "Mairie",
        "code": 4059
      },
      "arrival": 65400,
      "departure": 65400
    },
    {
      "stop": {
        "id": "2_4060",
        "lat": 48.1794217,
        "lon": -1.72905833,
        "name": "Métairie",
        "code": 4060
      },
      "arrival": 65460,
      "departure": 65460
    },
    {
      "stop": {
        "id": "2_4069",
        "lat": 48.18315711,
        "lon": -1.72604447,
        "name": "Besneraie",
        "code": 4069
      },
      "arrival": 65520,
      "departure": 65520
    }
  ],
  "route": {
    "id": "2_0228",
    "textColor": "1A171B",
    "color": "71BF44",
    "description": "Complémentaire",
    "longName": "La Chapelle-des-Fougeretz (Besneraie) \u003c\u003e Rennes (Lycée Mendès-France)",
    "shortName": "228",
    "type": 3,
    "agencyId": "2"
  }
}