{
  "headsign": "75 | Vern Nouvoitou",
  "stopTimes": [
    {
      "stop": {
        "id": "2_1511",
        "lat": 48.08753913,
        "lon": -1.64345457,
        "name": "La Poterie",
        "code": 1511
      },
      "arrival": 63000,
      "departure": 63000
    },
    {
      "stop": {
        "id": "2_2619",
        "lat": 48.04461606,
        "lon": -1.60388168,
        "name": "La Poste",
        "code": 2619
      },
      "arrival": 63480,
      "departure": 63480
    },
    {
      "stop": {
        "id": "2_2633",
        "lat": 48.0451444,
        "lon": -1.59868238,
        "name": "Maillardière",
        "code": 2633
      },
      "arrival": 63600,
      "departure": 63600
    },
    {
      "stop": {
        "id": "2_2632",
        "lat": 48.04805762,
        "lon": -1.59863994,
        "name": "Moulin",
        "code": 2632
      },
      "arrival": 63660,
      "departure": 63660
    },
    {
      "stop": {
        "id": "2_3406",
        "lat": 48.04445715,
        "lon": -1.56146795,
        "name": "Eclosel",
        "code": 3406
      },
      "arrival": 63840,
      "departure": 63840
    },
    {
      "stop": {
        "id": "2_3407",
        "lat": 48.04240225,
        "lon": -1.54982505,
        "name": "Grée Barel",
        "code": 3407
      },
      "arrival": 63900,
      "departure": 63900
    },
    {
      "stop": {
        "id": "2_3409",
        "lat": 48.04141632,
        "lon": -1.54525086,
        "name": "Menault",
        "code": 3409
      },
      "arrival": 63960,
      "departure": 63960
    },
    {
      "stop": {
        "id": "2_3403",
        "lat": 48.04021884,
        "lon": -1.54194902,
        "name": "Chêne Centenaire",
        "code": 3403
      },
      "arrival": 64020,
      "departure": 64020
    },
    {
      "stop": {
        "id": "2_3402",
        "lat": 48.04065867,
        "lon": -1.55015895,
        "name": "Langlois",
        "code": 3402
      },
      "arrival": 64200,
      "departure": 64200
    },
    {
      "stop": {
        "id": "2_3401",
        "lat": 48.04139981,
        "lon": -1.55336797,
        "name": "Parc des Sports",
        "code": 3401
      },
      "arrival": 64260,
      "departure": 64260
    }
  ],
  "route": {
    "id": "2_0075",
    "textColor": "201D21",
    "color": "F2973E",
    "description": "Métropolitaine",
    "longName": "Rennes (La Poterie) \u003c\u003e Nouvoitou",
    "shortName": "75",
    "type": 3,
    "agencyId": "2"
  }
}