{
  "headsign": "34 | La Poterie",
  "stopTimes": [
    {
      "stop": {
        "id": "2_2052",
        "lat": 48.13114133,
        "lon": -1.59694891,
        "name": "Saint-Etienne",
        "code": 2052
      },
      "arrival": 31500,
      "departure": 31500
    },
    {
      "stop": {
        "id": "2_2053",
        "lat": 48.12632414,
        "lon": -1.59912797,
        "name": "Cesson Cimetière",
        "code": 2053
      },
      "arrival": 31560,
      "departure": 31560
    },
    {
      "stop": {
        "id": "2_2054",
        "lat": 48.1231055,
        "lon": -1.60191712,
        "name": "Métairies Chalotais",
        "code": 2054
      },
      "arrival": 31620,
      "departure": 31620
    },
    {
      "stop": {
        "id": "2_2055",
        "lat": 48.12011007,
        "lon": -1.6022215,
        "name": "Cesson Piscine",
        "code": 2055
      },
      "arrival": 31680,
      "departure": 31680
    },
    {
      "stop": {
        "id": "2_2056",
        "lat": 48.11849755,
        "lon": -1.60450404,
        "name": "Cesson Mairie",
        "code": 2056
      },
      "arrival": 31740,
      "departure": 31740
    },
    {
      "stop": {
        "id": "2_2013",
        "lat": 48.11643917,
        "lon": -1.60735329,
        "name": "Vilaine",
        "code": 2013
      },
      "arrival": 31860,
      "departure": 31860
    },
    {
      "stop": {
        "id": "2_2014",
        "lat": 48.11468124,
        "lon": -1.60966321,
        "name": "Place Sévigné",
        "code": 2014
      },
      "arrival": 31920,
      "departure": 31920
    },
    {
      "stop": {
        "id": "2_2057",
        "lat": 48.1138863,
        "lon": -1.60325405,
        "name": "Cesson Gare",
        "code": 2057
      },
      "arrival": 31980,
      "departure": 31980
    },
    {
      "stop": {
        "id": "2_2058",
        "lat": 48.11260658,
        "lon": -1.60716704,
        "name": "Peupliers",
        "code": 2058
      },
      "arrival": 32040,
      "departure": 32040
    },
    {
      "stop": {
        "id": "2_2059",
        "lat": 48.1092987,
        "lon": -1.6090051,
        "name": "Monniais",
        "code": 2059
      },
      "arrival": 32160,
      "departure": 32160
    },
    {
      "stop": {
        "id": "2_2060",
        "lat": 48.10779161,
        "lon": -1.61466557,
        "name": "Rond Point de Bray",
        "code": 2060
      },
      "arrival": 32280,
      "departure": 32280
    },
    {
      "stop": {
        "id": "2_2032",
        "lat": 48.10649752,
        "lon": -1.62137125,
        "name": "ZI Sud-Est",
        "code": 2032
      },
      "arrival": 32460,
      "departure": 32460
    },
    {
      "stop": {
        "id": "2_2036",
        "lat": 48.10118579,
        "lon": -1.62396139,
        "name": "Bas Village",
        "code": 2036
      },
      "arrival": 32520,
      "departure": 32520
    },
    {
      "stop": {
        "id": "2_2034",
        "lat": 48.0996197,
        "lon": -1.62114642,
        "name": "Forum",
        "code": 2034
      },
      "arrival": 32580,
      "departure": 32580
    },
    {
      "stop": {
        "id": "2_1065",
        "lat": 48.08758723,
        "lon": -1.64393705,
        "name": "La Poterie",
        "code": 1065
      },
      "arrival": 33060,
      "departure": 33060
    }
  ],
  "route": {
    "id": "2_0034",
    "textColor": "DF171C",
    "color": "FEF466",
    "description": "Inter-quartiers",
    "longName": "ZI Sud-Est / La Poterie \u003c\u003e Cesson-Sévigné (Lycée Saint-Etienne)",
    "shortName": "34",
    "type": 3,
    "agencyId": "2"
  }
}