{
  "headsign": "74 | Orgères Bourgbarré",
  "stopTimes": [
    {
      "stop": {
        "id": "2_1534",
        "lat": 48.08831454,
        "lon": -1.67444337,
        "name": "Henri Fréville",
        "code": 1534
      },
      "arrival": 60600,
      "departure": 60600
    },
    {
      "stop": {
        "id": "2_4357",
        "lat": 48.01706446,
        "lon": -1.66466568,
        "name": "Croix du Pigeonnet",
        "code": 4357
      },
      "arrival": 61440,
      "departure": 61440
    },
    {
      "stop": {
        "id": "2_3249",
        "lat": 48.01492989,
        "lon": -1.66394359,
        "name": "Orgerblon",
        "code": 3249
      },
      "arrival": 61440,
      "departure": 61440
    },
    {
      "stop": {
        "id": "2_3216",
        "lat": 48.00912373,
        "lon": -1.66637371,
        "name": "Plardière",
        "code": 3216
      },
      "arrival": 61500,
      "departure": 61500
    },
    {
      "stop": {
        "id": "2_3217",
        "lat": 48.00045137,
        "lon": -1.66706223,
        "name": "Levant",
        "code": 3217
      },
      "arrival": 61620,
      "departure": 61620
    },
    {
      "stop": {
        "id": "2_3218",
        "lat": 47.99689445,
        "lon": -1.66900508,
        "name": "Groupe Scolaire",
        "code": 3218
      },
      "arrival": 61680,
      "departure": 61680
    },
    {
      "stop": {
        "id": "2_3219",
        "lat": 47.99494129,
        "lon": -1.67090261,
        "name": "Coteau",
        "code": 3219
      },
      "arrival": 61740,
      "departure": 61740
    },
    {
      "stop": {
        "id": "2_3220",
        "lat": 47.99225073,
        "lon": -1.66789719,
        "name": "Surcouf",
        "code": 3220
      },
      "arrival": 61800,
      "departure": 61800
    },
    {
      "stop": {
        "id": "2_3221",
        "lat": 47.99372623,
        "lon": -1.6652472,
        "name": "Chateaubriand",
        "code": 3221
      },
      "arrival": 61920,
      "departure": 61920
    },
    {
      "stop": {
        "id": "2_3806",
        "lat": 47.99442685,
        "lon": -1.63135702,
        "name": "Perelle",
        "code": 3806
      },
      "arrival": 62100,
      "departure": 62100
    },
    {
      "stop": {
        "id": "2_3807",
        "lat": 47.99512362,
        "lon": -1.62373584,
        "name": "La Basse Erable",
        "code": 3807
      },
      "arrival": 62160,
      "departure": 62160
    },
    {
      "stop": {
        "id": "2_3808",
        "lat": 47.99590317,
        "lon": -1.61766621,
        "name": "La Motte",
        "code": 3808
      },
      "arrival": 62280,
      "departure": 62280
    },
    {
      "stop": {
        "id": "2_3809",
        "lat": 47.99476166,
        "lon": -1.61410331,
        "name": "Bourgbarré Mairie",
        "code": 3809
      },
      "arrival": 62280,
      "departure": 62280
    },
    {
      "stop": {
        "id": "2_3801",
        "lat": 47.99009528,
        "lon": -1.6138293,
        "name": "Centre de Loisirs",
        "code": 3801
      },
      "arrival": 62460,
      "departure": 62460
    }
  ],
  "route": {
    "id": "2_0074",
    "textColor": "1A171B",
    "color": "FCC000",
    "description": "Métropolitaine",
    "longName": "Rennes (Henri Fréville) \u003c\u003e Orgères / Bourgbarré",
    "shortName": "74",
    "type": 3,
    "agencyId": "2"
  }
}