{
  "headsign": "11 | ZI Sud-Est",
  "stopTimes": [
    {
      "stop": {
        "id": "2_1234",
        "lat": 48.10775888,
        "lon": -1.71484897,
        "name": "Stade Rennais",
        "code": 1234
      },
      "arrival": 47460,
      "departure": 47460
    },
    {
      "stop": {
        "id": "2_1235",
        "lat": 48.10892663,
        "lon": -1.70977108,
        "name": "Géniaux",
        "code": 1235
      },
      "arrival": 47520,
      "departure": 47520
    },
    {
      "stop": {
        "id": "2_1236",
        "lat": 48.10881331,
        "lon": -1.7056153,
        "name": "Kerviler",
        "code": 1236
      },
      "arrival": 47580,
      "departure": 47580
    },
    {
      "stop": {
        "id": "2_1237",
        "lat": 48.10773621,
        "lon": -1.70211405,
        "name": "Papeteries",
        "code": 1237
      },
      "arrival": 47640,
      "departure": 47640
    },
    {
      "stop": {
        "id": "2_1238",
        "lat": 48.1086959,
        "lon": -1.69884796,
        "name": "Guilloux Lorient",
        "code": 1238
      },
      "arrival": 47700,
      "departure": 47700
    },
    {
      "stop": {
        "id": "2_1239",
        "lat": 48.10814248,
        "lon": -1.6948685,
        "name": "Chèques Postaux",
        "code": 1239
      },
      "arrival": 47760,
      "departure": 47760
    },
    {
      "stop": {
        "id": "2_1240",
        "lat": 48.10927186,
        "lon": -1.68970708,
        "name": "Le Mail",
        "code": 1240
      },
      "arrival": 47880,
      "departure": 47880
    },
    {
      "stop": {
        "id": "2_1091",
        "lat": 48.10977885,
        "lon": -1.68388248,
        "name": "Place de Bretagne",
        "code": 1091
      },
      "arrival": 48000,
      "departure": 48000
    },
    {
      "stop": {
        "id": "2_1242",
        "lat": 48.10980333,
        "lon": -1.6795219,
        "name": "République",
        "code": 1242
      },
      "arrival": 48180,
      "departure": 48180
    },
    {
      "stop": {
        "id": "2_1088",
        "lat": 48.10744897,
        "lon": -1.67491383,
        "name": "Liberté TNB",
        "code": 1088
      },
      "arrival": 48360,
      "departure": 48360
    },
    {
      "stop": {
        "id": "2_1087",
        "lat": 48.1060299,
        "lon": -1.67410184,
        "name": "Champs Libres",
        "code": 1087
      },
      "arrival": 48480,
      "departure": 48480
    },
    {
      "stop": {
        "id": "2_1086",
        "lat": 48.10400351,
        "lon": -1.67201145,
        "name": "Gares",
        "code": 1086
      },
      "arrival": 48540,
      "departure": 48540
    },
    {
      "stop": {
        "id": "2_1085",
        "lat": 48.10473324,
        "lon": -1.66565625,
        "name": "Laënnec",
        "code": 1085
      },
      "arrival": 48660,
      "departure": 48660
    },
    {
      "stop": {
        "id": "2_1243",
        "lat": 48.10254897,
        "lon": -1.66111869,
        "name": "Croix Saint-Hélier",
        "code": 1243
      },
      "arrival": 48720,
      "departure": 48720
    },
    {
      "stop": {
        "id": "2_1244",
        "lat": 48.10229227,
        "lon": -1.65513195,
        "name": "Mouézy",
        "code": 1244
      },
      "arrival": 48840,
      "departure": 48840
    },
    {
      "stop": {
        "id": "2_1211",
        "lat": 48.10317679,
        "lon": -1.65251241,
        "name": "Serpette",
        "code": 1211
      },
      "arrival": 48900,
      "departure": 48900
    },
    {
      "stop": {
        "id": "2_1246",
        "lat": 48.10439597,
        "lon": -1.64934184,
        "name": "Cimetière de l\u0027Est",
        "code": 1246
      },
      "arrival": 48960,
      "departure": 48960
    },
    {
      "stop": {
        "id": "2_1247",
        "lat": 48.10491097,
        "lon": -1.64382886,
        "name": "Pavie",
        "code": 1247
      },
      "arrival": 49020,
      "departure": 49020
    },
    {
      "stop": {
        "id": "2_1248",
        "lat": 48.10398522,
        "lon": -1.63598216,
        "name": "Saint-Saëns",
        "code": 1248
      },
      "arrival": 49080,
      "departure": 49080
    },
    {
      "stop": {
        "id": "2_1249",
        "lat": 48.1035598,
        "lon": -1.63465287,
        "name": "Pré Garel",
        "code": 1249
      },
      "arrival": 49080,
      "departure": 49080
    },
    {
      "stop": {
        "id": "2_1250",
        "lat": 48.09978888,
        "lon": -1.63129425,
        "name": "Tremblaie",
        "code": 1250
      },
      "arrival": 49200,
      "departure": 49200
    },
    {
      "stop": {
        "id": "2_1251",
        "lat": 48.09707861,
        "lon": -1.62913256,
        "name": "Veyettes",
        "code": 1251
      },
      "arrival": 49200,
      "departure": 49200
    },
    {
      "stop": {
        "id": "2_3014",
        "lat": 48.09828412,
        "lon": -1.6227924,
        "name": "Breillou",
        "code": 3014
      },
      "arrival": 49320,
      "departure": 49320
    },
    {
      "stop": {
        "id": "2_2035",
        "lat": 48.09961861,
        "lon": -1.62094448,
        "name": "Forum",
        "code": 2035
      },
      "arrival": 49320,
      "departure": 49320
    },
    {
      "stop": {
        "id": "2_2033",
        "lat": 48.1013897,
        "lon": -1.62358898,
        "name": "Bas Village",
        "code": 2033
      },
      "arrival": 49380,
      "departure": 49380
    },
    {
      "stop": {
        "id": "2_2037",
        "lat": 48.1060664,
        "lon": -1.62569408,
        "name": "Erbonière",
        "code": 2037
      },
      "arrival": 49500,
      "departure": 49500
    },
    {
      "stop": {
        "id": "2_2032",
        "lat": 48.10649752,
        "lon": -1.62137125,
        "name": "ZI Sud-Est",
        "code": 2032
      },
      "arrival": 49560,
      "departure": 49560
    }
  ],
  "route": {
    "id": "2_0011",
    "textColor": "FFFFFF",
    "color": "DC81AE",
    "description": "Urbaine",
    "longName": "ZI Ouest / Stade Rennais \u003c\u003e Saint-Saëns / ZI Sud-Est",
    "shortName": "11",
    "type": 3,
    "agencyId": "2"
  }
}