{
  "headsign": "200 | Cesson-Sévigné Acigné",
  "stopTimes": [
    {
      "stop": {
        "id": "2_1033",
        "lat": 48.12128,
        "lon": -1.655029,
        "name": "Assomption",
        "code": 1033
      },
      "arrival": 44400,
      "departure": 44400
    },
    {
      "stop": {
        "id": "2_1431",
        "lat": 48.119516,
        "lon": -1.65114,
        "name": "Vitré Péguy",
        "code": 1431
      },
      "arrival": 44460,
      "departure": 44460
    },
    {
      "stop": {
        "id": "2_1203",
        "lat": 48.122036,
        "lon": -1.639496,
        "name": "Beaulieu Restau U",
        "code": 1203
      },
      "arrival": 44640,
      "departure": 44640
    },
    {
      "stop": {
        "id": "2_2046",
        "lat": 48.127329,
        "lon": -1.62766,
        "name": "Clos Courtel",
        "code": 2046
      },
      "arrival": 44760,
      "departure": 44760
    },
    {
      "stop": {
        "id": "2_2081",
        "lat": 48.126799,
        "lon": -1.619769,
        "name": "Bouriande",
        "code": 2081
      },
      "arrival": 44880,
      "departure": 44880
    },
    {
      "stop": {
        "id": "2_2083",
        "lat": 48.12696,
        "lon": -1.614219,
        "name": "Gaudais",
        "code": 2083
      },
      "arrival": 44940,
      "departure": 44940
    },
    {
      "stop": {
        "id": "2_2084",
        "lat": 48.12903,
        "lon": -1.604741,
        "name": "Verger",
        "code": 2084
      },
      "arrival": 45000,
      "departure": 45000
    },
    {
      "stop": {
        "id": "2_3316",
        "lat": 48.13216,
        "lon": -1.596367,
        "name": "Saint-Etienne",
        "code": 3316
      },
      "arrival": 45120,
      "departure": 45120
    },
    {
      "stop": {
        "id": "2_3318",
        "lat": 48.140911,
        "lon": -1.573502,
        "name": "Pâtis du Moulinet",
        "code": 3318
      },
      "arrival": 45300,
      "departure": 45300
    },
    {
      "stop": {
        "id": "2_4008",
        "lat": 48.139504,
        "lon": -1.561471,
        "name": "Boulais",
        "code": 4008
      },
      "arrival": 45360,
      "departure": 45360
    },
    {
      "stop": {
        "id": "2_4009",
        "lat": 48.136816,
        "lon": -1.548448,
        "name": "Pont d\u0027Ohin",
        "code": 4009
      },
      "arrival": 45420,
      "departure": 45420
    },
    {
      "stop": {
        "id": "2_4010",
        "lat": 48.134632,
        "lon": -1.542142,
        "name": "Lande",
        "code": 4010
      },
      "arrival": 45540,
      "departure": 45540
    },
    {
      "stop": {
        "id": "2_4011",
        "lat": 48.13387,
        "lon": -1.537546,
        "name": "Foyer",
        "code": 4011
      },
      "arrival": 45600,
      "departure": 45600
    },
    {
      "stop": {
        "id": "2_4012",
        "lat": 48.134151,
        "lon": -1.534705,
        "name": "Acigné Mairie",
        "code": 4012
      },
      "arrival": 45660,
      "departure": 45660
    },
    {
      "stop": {
        "id": "2_4013",
        "lat": 48.137246,
        "lon": -1.532829,
        "name": "Verdaudais",
        "code": 4013
      },
      "arrival": 45720,
      "departure": 45720
    },
    {
      "stop": {
        "id": "2_4001",
        "lat": 48.137043,
        "lon": -1.526335,
        "name": "Timonière",
        "code": 4001
      },
      "arrival": 45900,
      "departure": 45900
    }
  ],
  "route": {
    "id": "2_0200",
    "textColor": "FFFFFF",
    "color": "BA67A6",
    "description": "Complémentaire",
    "longName": "Acigné (Timonière) \u003c\u003e Rennes (Lycée Assomption)",
    "shortName": "200",
    "type": 3,
    "agencyId": "2"
  }
}