{
  "headsign": "51 | Rennes Hoche",
  "stopTimes": [
    {
      "stop": {
        "id": "2_2401",
        "lat": 48.17703667,
        "lon": -1.65122928,
        "name": "Champ Devant",
        "code": 2401
      },
      "arrival": 67320,
      "departure": 67320
    },
    {
      "stop": {
        "id": "2_2402",
        "lat": 48.17926699,
        "lon": -1.65112944,
        "name": "Omblais",
        "code": 2402
      },
      "arrival": 67380,
      "departure": 67380
    },
    {
      "stop": {
        "id": "2_2403",
        "lat": 48.18066394,
        "lon": -1.65204781,
        "name": "Brocéliande",
        "code": 2403
      },
      "arrival": 67440,
      "departure": 67440
    },
    {
      "stop": {
        "id": "2_2404",
        "lat": 48.18305535,
        "lon": -1.64603174,
        "name": "Trégor",
        "code": 2404
      },
      "arrival": 67560,
      "departure": 67560
    },
    {
      "stop": {
        "id": "2_2405",
        "lat": 48.18191274,
        "lon": -1.64173916,
        "name": "Betton Mairie",
        "code": 2405
      },
      "arrival": 67620,
      "departure": 67620
    },
    {
      "stop": {
        "id": "2_2406",
        "lat": 48.18119826,
        "lon": -1.6380241,
        "name": "Betton Centre",
        "code": 2406
      },
      "arrival": 67680,
      "departure": 67680
    },
    {
      "stop": {
        "id": "2_2407",
        "lat": 48.18021327,
        "lon": -1.6348781,
        "name": "Haye Renaud Gare",
        "code": 2407
      },
      "arrival": 67740,
      "departure": 67740
    },
    {
      "stop": {
        "id": "2_2408",
        "lat": 48.17623356,
        "lon": -1.63729111,
        "name": "Marronniers",
        "code": 2408
      },
      "arrival": 67800,
      "departure": 67800
    },
    {
      "stop": {
        "id": "2_2409",
        "lat": 48.17240012,
        "lon": -1.63735842,
        "name": "Housset",
        "code": 2409
      },
      "arrival": 67860,
      "departure": 67860
    },
    {
      "stop": {
        "id": "2_2410",
        "lat": 48.17135339,
        "lon": -1.64196927,
        "name": "Enseigne Abbaye",
        "code": 2410
      },
      "arrival": 67920,
      "departure": 67920
    },
    {
      "stop": {
        "id": "2_2411",
        "lat": 48.16179617,
        "lon": -1.64775716,
        "name": "Betton Vallée",
        "code": 2411
      },
      "arrival": 68040,
      "departure": 68040
    },
    {
      "stop": {
        "id": "2_2827",
        "lat": 48.14906521,
        "lon": -1.65652284,
        "name": "Maison Blanche",
        "code": 2827
      },
      "arrival": 68160,
      "departure": 68160
    },
    {
      "stop": {
        "id": "2_1485",
        "lat": 48.13797172,
        "lon": -1.65873598,
        "name": "Saint-Laurent",
        "code": 1485
      },
      "arrival": 68280,
      "departure": 68280
    },
    {
      "stop": {
        "id": "2_1486",
        "lat": 48.13482757,
        "lon": -1.65983208,
        "name": "Hôtel de Région",
        "code": 1486
      },
      "arrival": 68340,
      "departure": 68340
    },
    {
      "stop": {
        "id": "2_1487",
        "lat": 48.13141312,
        "lon": -1.66229111,
        "name": "Patton Gast",
        "code": 1487
      },
      "arrival": 68400,
      "departure": 68400
    },
    {
      "stop": {
        "id": "2_1260",
        "lat": 48.12670281,
        "lon": -1.66538386,
        "name": "Gros Chêne",
        "code": 1260
      },
      "arrival": 68520,
      "departure": 68520
    },
    {
      "stop": {
        "id": "2_1261",
        "lat": 48.12528168,
        "lon": -1.66666402,
        "name": "Volney",
        "code": 1261
      },
      "arrival": 68520,
      "departure": 68520
    },
    {
      "stop": {
        "id": "2_1262",
        "lat": 48.12147137,
        "lon": -1.67091812,
        "name": "Jules Ferry",
        "code": 1262
      },
      "arrival": 68640,
      "departure": 68640
    },
    {
      "stop": {
        "id": "2_1011",
        "lat": 48.11830509,
        "lon": -1.67120349,
        "name": "Fac de Droit",
        "code": 1011
      },
      "arrival": 68700,
      "departure": 68700
    },
    {
      "stop": {
        "id": "2_1606",
        "lat": 48.11563108,
        "lon": -1.67670645,
        "name": "Hoche",
        "code": 1606
      },
      "arrival": 68820,
      "departure": 68820
    }
  ],
  "route": {
    "id": "2_0051",
    "textColor": "FFFFFF",
    "color": "93007C",
    "description": "Métropolitaine",
    "longName": "Rennes (Hoche) \u003c\u003e Betton (Champ Devant)",
    "shortName": "51",
    "type": 3,
    "agencyId": "2"
  }
}