{
  "headsign": "76 | Vezin Le Rheu",
  "stopTimes": [
    {
      "stop": {
        "id": "2_1566",
        "lat": 48.12537009,
        "lon": -1.69257643,
        "name": "Lycée Basch",
        "code": 1566
      },
      "arrival": 65700,
      "departure": 65700
    },
    {
      "stop": {
        "id": "2_1307",
        "lat": 48.12192614,
        "lon": -1.70388916,
        "name": "Villejean-Université",
        "code": 1307
      },
      "arrival": 66000,
      "departure": 66000
    },
    {
      "stop": {
        "id": "2_1309",
        "lat": 48.1167346,
        "lon": -1.70477296,
        "name": "Berger",
        "code": 1309
      },
      "arrival": 66240,
      "departure": 66240
    },
    {
      "stop": {
        "id": "2_1414",
        "lat": 48.11638524,
        "lon": -1.71215936,
        "name": "Merlin",
        "code": 1414
      },
      "arrival": 66420,
      "departure": 66420
    },
    {
      "stop": {
        "id": "2_3771",
        "lat": 48.11912564,
        "lon": -1.74955085,
        "name": "Champs Bleus",
        "code": 3771
      },
      "arrival": 66660,
      "departure": 66660
    },
    {
      "stop": {
        "id": "2_3762",
        "lat": 48.11918107,
        "lon": -1.75547076,
        "name": "Vezin Centre",
        "code": 3762
      },
      "arrival": 66720,
      "departure": 66720
    },
    {
      "stop": {
        "id": "2_3763",
        "lat": 48.11919235,
        "lon": -1.76128325,
        "name": "Lion d\u0027Or",
        "code": 3763
      },
      "arrival": 66840,
      "departure": 66840
    },
    {
      "stop": {
        "id": "2_2537",
        "lat": 48.10240737,
        "lon": -1.7873505,
        "name": "Gaston Bardet",
        "code": 2537
      },
      "arrival": 67320,
      "departure": 67320
    },
    {
      "stop": {
        "id": "2_2516",
        "lat": 48.10177606,
        "lon": -1.79491908,
        "name": "Bouleaux",
        "code": 2516
      },
      "arrival": 67380,
      "departure": 67380
    },
    {
      "stop": {
        "id": "2_2517",
        "lat": 48.0993953,
        "lon": -1.79670831,
        "name": "Brassens",
        "code": 2517
      },
      "arrival": 67440,
      "departure": 67440
    },
    {
      "stop": {
        "id": "2_2518",
        "lat": 48.09927491,
        "lon": -1.80209424,
        "name": "Champs Freslons",
        "code": 2518
      },
      "arrival": 67560,
      "departure": 67560
    },
    {
      "stop": {
        "id": "2_2519",
        "lat": 48.10084549,
        "lon": -1.80690728,
        "name": "Lycée Monod",
        "code": 2519
      },
      "arrival": 67620,
      "departure": 67620
    }
  ],
  "route": {
    "id": "2_0076",
    "textColor": "0063B0",
    "color": "FCE000",
    "description": "Express métropolitaine",
    "longName": "Rennes (Villejean-Université) \u003c\u003e Vezin-le-Coquet / Le Rheu",
    "shortName": "76",
    "type": 3,
    "agencyId": "2"
  }
}