{
  "headsign": "151 | Rennes Hoche",
  "stopTimes": [
    {
      "stop": {
        "id": "2_2401",
        "lat": 48.177029,
        "lon": -1.651134,
        "name": "Champ Devant",
        "code": 2401
      },
      "arrival": 27600,
      "departure": 27600
    },
    {
      "stop": {
        "id": "2_2402",
        "lat": 48.179301,
        "lon": -1.651047,
        "name": "Omblais",
        "code": 2402
      },
      "arrival": 27660,
      "departure": 27660
    },
    {
      "stop": {
        "id": "2_2403",
        "lat": 48.180722,
        "lon": -1.651937,
        "name": "Brocéliande",
        "code": 2403
      },
      "arrival": 27660,
      "departure": 27660
    },
    {
      "stop": {
        "id": "2_2404",
        "lat": 48.183007,
        "lon": -1.646075,
        "name": "Trégor",
        "code": 2404
      },
      "arrival": 27780,
      "departure": 27780
    },
    {
      "stop": {
        "id": "2_2405",
        "lat": 48.181894,
        "lon": -1.641783,
        "name": "Betton Mairie",
        "code": 2405
      },
      "arrival": 27840,
      "departure": 27840
    },
    {
      "stop": {
        "id": "2_2406",
        "lat": 48.181123,
        "lon": -1.637898,
        "name": "Betton Centre",
        "code": 2406
      },
      "arrival": 27900,
      "departure": 27900
    },
    {
      "stop": {
        "id": "2_2430",
        "lat": 48.175999,
        "lon": -1.639619,
        "name": "Betton Rue de Rennes",
        "code": 2430
      },
      "arrival": 28020,
      "departure": 28020
    },
    {
      "stop": {
        "id": "2_1485",
        "lat": 48.137957,
        "lon": -1.658769,
        "name": "Saint-Laurent",
        "code": 1485
      },
      "arrival": 28380,
      "departure": 28380
    },
    {
      "stop": {
        "id": "2_1011",
        "lat": 48.118312,
        "lon": -1.671315,
        "name": "Fac de Droit",
        "code": 1011
      },
      "arrival": 29040,
      "departure": 29040
    },
    {
      "stop": {
        "id": "2_1606",
        "lat": 48.115697,
        "lon": -1.676699,
        "name": "Hoche",
        "code": 1606
      },
      "arrival": 29220,
      "departure": 29220
    }
  ],
  "route": {
    "id": "2_0151",
    "textColor": "3D3C3F",
    "color": "FFDD00",
    "description": "Express métropolitaine",
    "longName": "Rennes (Hoche) \u003c\u003e Betton (Champ Devant)",
    "shortName": "151",
    "type": 3,
    "agencyId": "2"
  }
}