{
  "headsign": "52 | Montgermont Chapelle Gévezé",
  "stopTimes": [
    {
      "stop": {
        "id": "2_1494",
        "lat": 48.12125284,
        "lon": -1.70296746,
        "name": "Villejean-Université",
        "code": 1494
      },
      "arrival": 55200,
      "departure": 55200
    },
    {
      "stop": {
        "id": "2_1495",
        "lat": 48.12663856,
        "lon": -1.69309309,
        "name": "Lycée Basch",
        "code": 1495
      },
      "arrival": 55440,
      "departure": 55440
    },
    {
      "stop": {
        "id": "2_1537",
        "lat": 48.13157496,
        "lon": -1.69170144,
        "name": "Léonard",
        "code": 1537
      },
      "arrival": 55500,
      "departure": 55500
    },
    {
      "stop": {
        "id": "2_2830",
        "lat": 48.13432722,
        "lon": -1.69446335,
        "name": "Grand Quartier",
        "code": 2830
      },
      "arrival": 55560,
      "departure": 55560
    },
    {
      "stop": {
        "id": "2_3508",
        "lat": 48.14826699,
        "lon": -1.70363701,
        "name": "Vizeule",
        "code": 3508
      },
      "arrival": 55680,
      "departure": 55680
    },
    {
      "stop": {
        "id": "2_3509",
        "lat": 48.15288114,
        "lon": -1.70885747,
        "name": "Métrie",
        "code": 3509
      },
      "arrival": 55800,
      "departure": 55800
    },
    {
      "stop": {
        "id": "2_3510",
        "lat": 48.15558798,
        "lon": -1.71082246,
        "name": "Belle Epine",
        "code": 3510
      },
      "arrival": 55800,
      "departure": 55800
    },
    {
      "stop": {
        "id": "2_3511",
        "lat": 48.15733411,
        "lon": -1.71460655,
        "name": "Courtines",
        "code": 3511
      },
      "arrival": 55860,
      "departure": 55860
    },
    {
      "stop": {
        "id": "2_3512",
        "lat": 48.15567997,
        "lon": -1.71663805,
        "name": "Montgermont Mairie",
        "code": 3512
      },
      "arrival": 55920,
      "departure": 55920
    },
    {
      "stop": {
        "id": "2_3513",
        "lat": 48.15568596,
        "lon": -1.72068225,
        "name": "Pierre Texier",
        "code": 3513
      },
      "arrival": 55980,
      "departure": 55980
    },
    {
      "stop": {
        "id": "2_3501",
        "lat": 48.15713428,
        "lon": -1.72329994,
        "name": "Fougerolle",
        "code": 3501
      },
      "arrival": 56040,
      "departure": 56040
    },
    {
      "stop": {
        "id": "2_3515",
        "lat": 48.16271981,
        "lon": -1.73059303,
        "name": "Silandière",
        "code": 3515
      },
      "arrival": 56100,
      "departure": 56100
    },
    {
      "stop": {
        "id": "2_4057",
        "lat": 48.17039595,
        "lon": -1.73622985,
        "name": "Sénestrais",
        "code": 4057
      },
      "arrival": 56220,
      "departure": 56220
    },
    {
      "stop": {
        "id": "2_4058",
        "lat": 48.17395236,
        "lon": -1.73523531,
        "name": "Viennais",
        "code": 4058
      },
      "arrival": 56280,
      "departure": 56280
    },
    {
      "stop": {
        "id": "2_4059",
        "lat": 48.17663681,
        "lon": -1.7328654,
        "name": "Mairie",
        "code": 4059
      },
      "arrival": 56280,
      "departure": 56280
    },
    {
      "stop": {
        "id": "2_4060",
        "lat": 48.1794217,
        "lon": -1.72905833,
        "name": "Métairie",
        "code": 4060
      },
      "arrival": 56340,
      "departure": 56340
    },
    {
      "stop": {
        "id": "2_4069",
        "lat": 48.18315711,
        "lon": -1.72604447,
        "name": "Besneraie",
        "code": 4069
      },
      "arrival": 56460,
      "departure": 56460
    },
    {
      "stop": {
        "id": "2_4503",
        "lat": 48.21863623,
        "lon": -1.78399508,
        "name": "Flume",
        "code": 4503
      },
      "arrival": 56940,
      "departure": 56940
    },
    {
      "stop": {
        "id": "2_4505",
        "lat": 48.22096598,
        "lon": -1.78811849,
        "name": "Gévezé Mairie",
        "code": 4505
      },
      "arrival": 56940,
      "departure": 56940
    },
    {
      "stop": {
        "id": "2_4511",
        "lat": 48.22396408,
        "lon": -1.79380552,
        "name": "Prés Verts",
        "code": 4511
      },
      "arrival": 57000,
      "departure": 57000
    },
    {
      "stop": {
        "id": "2_4509",
        "lat": 48.22459945,
        "lon": -1.80043882,
        "name": "Coualeuc",
        "code": 4509
      },
      "arrival": 57120,
      "departure": 57120
    },
    {
      "stop": {
        "id": "2_4507",
        "lat": 48.22177695,
        "lon": -1.80238235,
        "name": "Cheval Blanc",
        "code": 4507
      },
      "arrival": 57180,
      "departure": 57180
    }
  ],
  "route": {
    "id": "2_0052",
    "textColor": "FFFFFF",
    "color": "007C77",
    "description": "Métropolitaine",
    "longName": "Saint-Gilles / Pacé \u003c\u003e Rennes (Villejean-Université) \u003c\u003e Montgermont / La Chapelle-des-Fougeretz",
    "shortName": "52",
    "type": 3,
    "agencyId": "2"
  }
}