{
  "headsign": "203 | Lycée Joliot-Curie",
  "stopTimes": [
    {
      "stop": {
        "id": "2_1477",
        "lat": 48.103839,
        "lon": -1.67286,
        "name": "Gares",
        "code": 1477
      },
      "arrival": 27300,
      "departure": 27300
    },
    {
      "stop": {
        "id": "2_1171",
        "lat": 48.110016,
        "lon": -1.663623,
        "name": "Pont de Châteaudun",
        "code": 1171
      },
      "arrival": 27600,
      "departure": 27600
    },
    {
      "stop": {
        "id": "2_1151",
        "lat": 48.118733,
        "lon": -1.651589,
        "name": "Vitré Danton",
        "code": 1151
      },
      "arrival": 27900,
      "departure": 27900
    },
    {
      "stop": {
        "id": "2_1638",
        "lat": 48.122545,
        "lon": -1.651088,
        "name": "Lycée Chateaubriand",
        "code": 1638
      },
      "arrival": 28080,
      "departure": 28080
    },
    {
      "stop": {
        "id": "2_1619",
        "lat": 48.125198,
        "lon": -1.652864,
        "name": "Joliot-Curie",
        "code": 1619
      },
      "arrival": 28200,
      "departure": 28200
    }
  ],
  "route": {
    "id": "2_0203",
    "textColor": "FFFFFF",
    "color": "F39200",
    "description": "Complémentaire",
    "longName": "Gares \u003c\u003e Lycée Joliot-Curie",
    "shortName": "203",
    "type": 3,
    "agencyId": "2"
  }
}