{
  "headsign": "71 | Betton Chevaigné",
  "stopTimes": [
    {
      "stop": {
        "id": "2_1606",
        "lat": 48.115697,
        "lon": -1.676699,
        "name": "Hoche",
        "code": 1606
      },
      "arrival": 65700,
      "departure": 65700
    },
    {
      "stop": {
        "id": "2_1279",
        "lat": 48.119451,
        "lon": -1.674371,
        "name": "Rectorat",
        "code": 1279
      },
      "arrival": 65880,
      "departure": 65880
    },
    {
      "stop": {
        "id": "2_1280",
        "lat": 48.121404,
        "lon": -1.670825,
        "name": "Jules Ferry",
        "code": 1280
      },
      "arrival": 65940,
      "departure": 65940
    },
    {
      "stop": {
        "id": "2_1281",
        "lat": 48.125362,
        "lon": -1.66626,
        "name": "Volney",
        "code": 1281
      },
      "arrival": 66120,
      "departure": 66120
    },
    {
      "stop": {
        "id": "2_1490",
        "lat": 48.136021,
        "lon": -1.659114,
        "name": "Hôtel de Région",
        "code": 1490
      },
      "arrival": 66420,
      "departure": 66420
    },
    {
      "stop": {
        "id": "2_1491",
        "lat": 48.13892,
        "lon": -1.658273,
        "name": "Saint-Laurent",
        "code": 1491
      },
      "arrival": 66480,
      "departure": 66480
    },
    {
      "stop": {
        "id": "2_2829",
        "lat": 48.149378,
        "lon": -1.656411,
        "name": "Maison Blanche",
        "code": 2829
      },
      "arrival": 66600,
      "departure": 66600
    },
    {
      "stop": {
        "id": "2_2412",
        "lat": 48.162059,
        "lon": -1.647356,
        "name": "Betton Vallée",
        "code": 2412
      },
      "arrival": 66720,
      "departure": 66720
    },
    {
      "stop": {
        "id": "2_2413",
        "lat": 48.171155,
        "lon": -1.641673,
        "name": "Enseigne Abbaye",
        "code": 2413
      },
      "arrival": 66780,
      "departure": 66780
    },
    {
      "stop": {
        "id": "2_2436",
        "lat": 48.175974,
        "lon": -1.63946,
        "name": "Betton Rue de Rennes",
        "code": 2436
      },
      "arrival": 66840,
      "departure": 66840
    },
    {
      "stop": {
        "id": "2_2417",
        "lat": 48.181747,
        "lon": -1.638457,
        "name": "Betton Centre",
        "code": 2417
      },
      "arrival": 67020,
      "departure": 67020
    },
    {
      "stop": {
        "id": "2_2435",
        "lat": 48.18312,
        "lon": -1.637107,
        "name": "Mozart",
        "code": 2435
      },
      "arrival": 67020,
      "departure": 67020
    },
    {
      "stop": {
        "id": "2_2434",
        "lat": 48.186441,
        "lon": -1.633092,
        "name": "J. Sébastien Bach",
        "code": 2434
      },
      "arrival": 67140,
      "departure": 67140
    },
    {
      "stop": {
        "id": "2_2458",
        "lat": 48.190991,
        "lon": -1.628981,
        "name": "Gentilhommière",
        "code": 2458
      },
      "arrival": 67260,
      "departure": 67260
    },
    {
      "stop": {
        "id": "2_4610",
        "lat": 48.199223,
        "lon": -1.627788,
        "name": "Chopinais",
        "code": 4610
      },
      "arrival": 67380,
      "departure": 67380
    },
    {
      "stop": {
        "id": "2_4608",
        "lat": 48.207963,
        "lon": -1.630549,
        "name": "Chevaigné Gare",
        "code": 4608
      },
      "arrival": 67560,
      "departure": 67560
    },
    {
      "stop": {
        "id": "2_4601",
        "lat": 48.211782,
        "lon": -1.630337,
        "name": "Chevaigné Mairie",
        "code": 4601
      },
      "arrival": 67620,
      "departure": 67620
    },
    {
      "stop": {
        "id": "2_4602",
        "lat": 48.214316,
        "lon": -1.628818,
        "name": "Fonderies",
        "code": 4602
      },
      "arrival": 67680,
      "departure": 67680
    },
    {
      "stop": {
        "id": "2_4603",
        "lat": 48.210932,
        "lon": -1.626041,
        "name": "Pommiers",
        "code": 4603
      },
      "arrival": 67740,
      "departure": 67740
    }
  ],
  "route": {
    "id": "2_0071",
    "textColor": "FFFFFF",
    "color": "A9701E",
    "description": "Métropolitaine",
    "longName": "Rennes (Hoche) \u003c\u003e Betton / Chevaigné",
    "shortName": "71",
    "type": 3,
    "agencyId": "2"
  }
}