{
  "headsign": "52 | Rennes Villejean-Université",
  "stopTimes": [
    {
      "stop": {
        "id": "2_4069",
        "lat": 48.18312865,
        "lon": -1.72600138,
        "name": "Besneraie",
        "code": 4069
      },
      "arrival": 30600,
      "departure": 30600
    },
    {
      "stop": {
        "id": "2_4053",
        "lat": 48.17949446,
        "lon": -1.72926703,
        "name": "Métairie",
        "code": 4053
      },
      "arrival": 30720,
      "departure": 30720
    },
    {
      "stop": {
        "id": "2_4054",
        "lat": 48.17710926,
        "lon": -1.73209913,
        "name": "Mairie",
        "code": 4054
      },
      "arrival": 30840,
      "departure": 30840
    },
    {
      "stop": {
        "id": "2_4055",
        "lat": 48.17409345,
        "lon": -1.73514392,
        "name": "Viennais",
        "code": 4055
      },
      "arrival": 30900,
      "departure": 30900
    },
    {
      "stop": {
        "id": "2_4056",
        "lat": 48.17016448,
        "lon": -1.73615498,
        "name": "Sénestrais",
        "code": 4056
      },
      "arrival": 30960,
      "departure": 30960
    },
    {
      "stop": {
        "id": "2_3500",
        "lat": 48.16399131,
        "lon": -1.73170413,
        "name": "Silandière",
        "code": 3500
      },
      "arrival": 31020,
      "departure": 31020
    },
    {
      "stop": {
        "id": "2_3514",
        "lat": 48.15717857,
        "lon": -1.7233011,
        "name": "Fougerolle",
        "code": 3514
      },
      "arrival": 31140,
      "departure": 31140
    },
    {
      "stop": {
        "id": "2_3502",
        "lat": 48.15565719,
        "lon": -1.72061072,
        "name": "Pierre Texier",
        "code": 3502
      },
      "arrival": 31200,
      "departure": 31200
    },
    {
      "stop": {
        "id": "2_3503",
        "lat": 48.15574059,
        "lon": -1.71658864,
        "name": "Montgermont Mairie",
        "code": 3503
      },
      "arrival": 31260,
      "departure": 31260
    },
    {
      "stop": {
        "id": "2_3504",
        "lat": 48.15726126,
        "lon": -1.71446656,
        "name": "Courtines",
        "code": 3504
      },
      "arrival": 31380,
      "departure": 31380
    },
    {
      "stop": {
        "id": "2_3505",
        "lat": 48.15531129,
        "lon": -1.7108321,
        "name": "Belle Epine",
        "code": 3505
      },
      "arrival": 31440,
      "departure": 31440
    },
    {
      "stop": {
        "id": "2_3506",
        "lat": 48.15311386,
        "lon": -1.706642,
        "name": "Décoparc",
        "code": 3506
      },
      "arrival": 31500,
      "departure": 31500
    },
    {
      "stop": {
        "id": "2_3507",
        "lat": 48.14897164,
        "lon": -1.70405003,
        "name": "Vizeule",
        "code": 3507
      },
      "arrival": 31560,
      "departure": 31560
    },
    {
      "stop": {
        "id": "2_1492",
        "lat": 48.13384612,
        "lon": -1.69386845,
        "name": "Grand Quartier",
        "code": 1492
      },
      "arrival": 31800,
      "departure": 31800
    },
    {
      "stop": {
        "id": "2_1537",
        "lat": 48.13157495,
        "lon": -1.69170144,
        "name": "Léonard",
        "code": 1537
      },
      "arrival": 31860,
      "departure": 31860
    },
    {
      "stop": {
        "id": "2_1493",
        "lat": 48.12716785,
        "lon": -1.69331906,
        "name": "Lycée Basch",
        "code": 1493
      },
      "arrival": 31980,
      "departure": 31980
    },
    {
      "stop": {
        "id": "2_1497",
        "lat": 48.12102411,
        "lon": -1.70300103,
        "name": "Villejean-Université",
        "code": 1497
      },
      "arrival": 32400,
      "departure": 32400
    }
  ],
  "route": {
    "id": "2_0052",
    "textColor": "ffffff",
    "color": "007a76",
    "description": "Métropolitaine",
    "longName": "Saint-Gilles / Pacé \u003c\u003e Rennes (Villejean-Université) \u003c\u003e Montgermont / La Chapelle-des-Fougeretz",
    "shortName": "52",
    "type": 3,
    "agencyId": "2"
  }
}