{
  "headsign": "50 | Rennes République",
  "stopTimes": [
    {
      "stop": {
        "id": "2_3301",
        "lat": 48.15515021,
        "lon": -1.57316318,
        "name": "Landelles",
        "code": 3301
      },
      "arrival": 57900,
      "departure": 57900
    },
    {
      "stop": {
        "id": "2_3322",
        "lat": 48.14927631,
        "lon": -1.57750308,
        "name": "Curien",
        "code": 3322
      },
      "arrival": 58080,
      "departure": 58080
    },
    {
      "stop": {
        "id": "2_3315",
        "lat": 48.15354799,
        "lon": -1.5798402,
        "name": "Thorigné Mairie",
        "code": 3315
      },
      "arrival": 58140,
      "departure": 58140
    },
    {
      "stop": {
        "id": "2_3314",
        "lat": 48.15594837,
        "lon": -1.58069511,
        "name": "Anne de Bretagne",
        "code": 3314
      },
      "arrival": 58200,
      "departure": 58200
    },
    {
      "stop": {
        "id": "2_3305",
        "lat": 48.15897926,
        "lon": -1.57970534,
        "name": "Bocage",
        "code": 3305
      },
      "arrival": 58260,
      "departure": 58260
    },
    {
      "stop": {
        "id": "2_3306",
        "lat": 48.16417683,
        "lon": -1.57932113,
        "name": "Juteauderies",
        "code": 3306
      },
      "arrival": 58320,
      "departure": 58320
    },
    {
      "stop": {
        "id": "2_3307",
        "lat": 48.16041314,
        "lon": -1.58594602,
        "name": "Fouillard",
        "code": 3307
      },
      "arrival": 58440,
      "departure": 58440
    },
    {
      "stop": {
        "id": "2_3309",
        "lat": 48.15626165,
        "lon": -1.59233418,
        "name": "Portail",
        "code": 3309
      },
      "arrival": 58500,
      "departure": 58500
    },
    {
      "stop": {
        "id": "2_2070",
        "lat": 48.14510684,
        "lon": -1.6086299,
        "name": "Victoire",
        "code": 2070
      },
      "arrival": 58680,
      "departure": 58680
    },
    {
      "stop": {
        "id": "2_2071",
        "lat": 48.14041548,
        "lon": -1.61679887,
        "name": "Calendrou",
        "code": 2071
      },
      "arrival": 58740,
      "departure": 58740
    },
    {
      "stop": {
        "id": "2_2114",
        "lat": 48.13740352,
        "lon": -1.62243661,
        "name": "Château de Vaux",
        "code": 2114
      },
      "arrival": 58800,
      "departure": 58800
    },
    {
      "stop": {
        "id": "2_2076",
        "lat": 48.13406638,
        "lon": -1.6290629,
        "name": "Lande Bouhard",
        "code": 2076
      },
      "arrival": 58860,
      "departure": 58860
    },
    {
      "stop": {
        "id": "2_1484",
        "lat": 48.13185966,
        "lon": -1.63589821,
        "name": "ZA Saint-Sulpice (ex Gaudinais)",
        "code": 1484
      },
      "arrival": 58920,
      "departure": 58920
    },
    {
      "stop": {
        "id": "2_1530",
        "lat": 48.12899468,
        "lon": -1.64272897,
        "name": "Pâtis Tatelin (ex ZAC Saint-Sulpice)",
        "code": 1530
      },
      "arrival": 59040,
      "departure": 59040
    },
    {
      "stop": {
        "id": "2_1004",
        "lat": 48.12528847,
        "lon": -1.64253775,
        "name": "Donzelot",
        "code": 1004
      },
      "arrival": 59100,
      "departure": 59100
    },
    {
      "stop": {
        "id": "2_1005",
        "lat": 48.1233588,
        "lon": -1.64623199,
        "name": "Mirabeau",
        "code": 1005
      },
      "arrival": 59100,
      "departure": 59100
    },
    {
      "stop": {
        "id": "2_1006",
        "lat": 48.12226259,
        "lon": -1.65069568,
        "name": "Turmel",
        "code": 1006
      },
      "arrival": 59160,
      "departure": 59160
    },
    {
      "stop": {
        "id": "2_1111",
        "lat": 48.12024278,
        "lon": -1.65071004,
        "name": "Docteur Quentin",
        "code": 1111
      },
      "arrival": 59220,
      "departure": 59220
    },
    {
      "stop": {
        "id": "2_1432",
        "lat": 48.11876913,
        "lon": -1.64990717,
        "name": "Vitré Foulon",
        "code": 1432
      },
      "arrival": 59280,
      "departure": 59280
    },
    {
      "stop": {
        "id": "2_1513",
        "lat": 48.1153356,
        "lon": -1.64843846,
        "name": "Bois Perrin",
        "code": 1513
      },
      "arrival": 59340,
      "departure": 59340
    },
    {
      "stop": {
        "id": "2_1514",
        "lat": 48.11333583,
        "lon": -1.64760506,
        "name": "Moulin de Joué",
        "code": 1514
      },
      "arrival": 59340,
      "departure": 59340
    },
    {
      "stop": {
        "id": "2_1163",
        "lat": 48.1101066,
        "lon": -1.66054614,
        "name": "Robidou",
        "code": 1163
      },
      "arrival": 59520,
      "departure": 59520
    },
    {
      "stop": {
        "id": "2_1166",
        "lat": 48.10988328,
        "lon": -1.67512929,
        "name": "Musée Beaux Arts",
        "code": 1166
      },
      "arrival": 59700,
      "departure": 59700
    },
    {
      "stop": {
        "id": "2_1563",
        "lat": 48.10969683,
        "lon": -1.67818363,
        "name": "République",
        "code": 1563
      },
      "arrival": 59760,
      "departure": 59760
    }
  ],
  "route": {
    "id": "2_0050",
    "textColor": "FFFFFF",
    "color": "8DA6D2",
    "description": "Métropolitaine",
    "longName": "Rennes (République) \u003c\u003e Thorigné-Fouillard",
    "shortName": "50",
    "type": 3,
    "agencyId": "2"
  }
}