{
  "headsign": "51 | Betton Champ Devant",
  "stopTimes": [
    {
      "stop": {
        "id": "2_1606",
        "lat": 48.11563108,
        "lon": -1.67670645,
        "name": "Hoche",
        "code": 1606
      },
      "arrival": 44400,
      "departure": 44400
    },
    {
      "stop": {
        "id": "2_1279",
        "lat": 48.11946401,
        "lon": -1.67448311,
        "name": "Rectorat",
        "code": 1279
      },
      "arrival": 44520,
      "departure": 44520
    },
    {
      "stop": {
        "id": "2_1280",
        "lat": 48.12141907,
        "lon": -1.67087311,
        "name": "Jules Ferry",
        "code": 1280
      },
      "arrival": 44580,
      "departure": 44580
    },
    {
      "stop": {
        "id": "2_1281",
        "lat": 48.12528439,
        "lon": -1.66636805,
        "name": "Volney",
        "code": 1281
      },
      "arrival": 44640,
      "departure": 44640
    },
    {
      "stop": {
        "id": "2_1282",
        "lat": 48.12661537,
        "lon": -1.66533269,
        "name": "Gros Chêne",
        "code": 1282
      },
      "arrival": 44700,
      "departure": 44700
    },
    {
      "stop": {
        "id": "2_1489",
        "lat": 48.13230625,
        "lon": -1.66158898,
        "name": "Patton Gast",
        "code": 1489
      },
      "arrival": 44820,
      "departure": 44820
    },
    {
      "stop": {
        "id": "2_1490",
        "lat": 48.13593467,
        "lon": -1.65918915,
        "name": "Hôtel de Région",
        "code": 1490
      },
      "arrival": 44880,
      "departure": 44880
    },
    {
      "stop": {
        "id": "2_1491",
        "lat": 48.13884258,
        "lon": -1.65836842,
        "name": "Saint-Laurent",
        "code": 1491
      },
      "arrival": 44940,
      "departure": 44940
    },
    {
      "stop": {
        "id": "2_2829",
        "lat": 48.14928398,
        "lon": -1.65646132,
        "name": "Maison Blanche",
        "code": 2829
      },
      "arrival": 45060,
      "departure": 45060
    },
    {
      "stop": {
        "id": "2_2412",
        "lat": 48.16199698,
        "lon": -1.64746497,
        "name": "Betton Vallée",
        "code": 2412
      },
      "arrival": 45180,
      "departure": 45180
    },
    {
      "stop": {
        "id": "2_2413",
        "lat": 48.17110928,
        "lon": -1.64175914,
        "name": "Enseigne Abbaye",
        "code": 2413
      },
      "arrival": 45240,
      "departure": 45240
    },
    {
      "stop": {
        "id": "2_2414",
        "lat": 48.17259985,
        "lon": -1.63732208,
        "name": "Housset",
        "code": 2414
      },
      "arrival": 45300,
      "departure": 45300
    },
    {
      "stop": {
        "id": "2_2415",
        "lat": 48.17681478,
        "lon": -1.63718049,
        "name": "Marronniers",
        "code": 2415
      },
      "arrival": 45420,
      "departure": 45420
    },
    {
      "stop": {
        "id": "2_2416",
        "lat": 48.18021697,
        "lon": -1.63478408,
        "name": "Haye Renaud Gare",
        "code": 2416
      },
      "arrival": 45480,
      "departure": 45480
    },
    {
      "stop": {
        "id": "2_2437",
        "lat": 48.18157224,
        "lon": -1.63928389,
        "name": "Betton Centre",
        "code": 2437
      },
      "arrival": 45540,
      "departure": 45540
    },
    {
      "stop": {
        "id": "2_2418",
        "lat": 48.18191157,
        "lon": -1.64120022,
        "name": "Betton Mairie",
        "code": 2418
      },
      "arrival": 45540,
      "departure": 45540
    },
    {
      "stop": {
        "id": "2_2419",
        "lat": 48.1831832,
        "lon": -1.64644735,
        "name": "Trégor",
        "code": 2419
      },
      "arrival": 45660,
      "departure": 45660
    },
    {
      "stop": {
        "id": "2_2420",
        "lat": 48.18060633,
        "lon": -1.65213707,
        "name": "Brocéliande",
        "code": 2420
      },
      "arrival": 45720,
      "departure": 45720
    },
    {
      "stop": {
        "id": "2_2421",
        "lat": 48.17922788,
        "lon": -1.65120686,
        "name": "Omblais",
        "code": 2421
      },
      "arrival": 45780,
      "departure": 45780
    },
    {
      "stop": {
        "id": "2_2401",
        "lat": 48.17703667,
        "lon": -1.65122928,
        "name": "Champ Devant",
        "code": 2401
      },
      "arrival": 45840,
      "departure": 45840
    }
  ],
  "route": {
    "id": "2_0051",
    "textColor": "FFFFFF",
    "color": "93007C",
    "description": "Métropolitaine",
    "longName": "Rennes (Hoche) \u003c\u003e Betton (Champ Devant)",
    "shortName": "51",
    "type": 3,
    "agencyId": "2"
  }
}