{
  "headsign": "31 | Beaulieu Chimie",
  "stopTimes": [
    {
      "stop": {
        "id": "2_1190",
        "lat": 48.11740687,
        "lon": -1.70825224,
        "name": "Villejean-Churchill",
        "code": 1190
      },
      "arrival": 31200,
      "departure": 31200
    },
    {
      "stop": {
        "id": "2_1191",
        "lat": 48.11557372,
        "lon": -1.70472339,
        "name": "Languedoc",
        "code": 1191
      },
      "arrival": 31320,
      "departure": 31320
    },
    {
      "stop": {
        "id": "2_1188",
        "lat": 48.11498492,
        "lon": -1.70208633,
        "name": "La Salle",
        "code": 1188
      },
      "arrival": 31380,
      "departure": 31380
    },
    {
      "stop": {
        "id": "2_1193",
        "lat": 48.11377696,
        "lon": -1.6980212,
        "name": "Maison Diocésaine",
        "code": 1193
      },
      "arrival": 31440,
      "departure": 31440
    },
    {
      "stop": {
        "id": "2_1094",
        "lat": 48.11309647,
        "lon": -1.69338394,
        "name": "Brest Verdun",
        "code": 1094
      },
      "arrival": 31560,
      "departure": 31560
    },
    {
      "stop": {
        "id": "2_1095",
        "lat": 48.11646144,
        "lon": -1.69082908,
        "name": "La Touche",
        "code": 1095
      },
      "arrival": 31680,
      "departure": 31680
    },
    {
      "stop": {
        "id": "2_1194",
        "lat": 48.1182104,
        "lon": -1.68720155,
        "name": "Anatole France",
        "code": 1194
      },
      "arrival": 31800,
      "departure": 31800
    },
    {
      "stop": {
        "id": "2_1195",
        "lat": 48.11776089,
        "lon": -1.6850048,
        "name": "Legraverend",
        "code": 1195
      },
      "arrival": 31860,
      "departure": 31860
    },
    {
      "stop": {
        "id": "2_1196",
        "lat": 48.11720566,
        "lon": -1.68231994,
        "name": "Dinan",
        "code": 1196
      },
      "arrival": 31980,
      "departure": 31980
    },
    {
      "stop": {
        "id": "2_1027",
        "lat": 48.11723114,
        "lon": -1.67736823,
        "name": "Hôtel Dieu",
        "code": 1027
      },
      "arrival": 32160,
      "departure": 32160
    },
    {
      "stop": {
        "id": "2_1197",
        "lat": 48.11640279,
        "lon": -1.67325639,
        "name": "Sévigné",
        "code": 1197
      },
      "arrival": 32220,
      "departure": 32220
    },
    {
      "stop": {
        "id": "2_1198",
        "lat": 48.11631466,
        "lon": -1.66888706,
        "name": "George Sand",
        "code": 1198
      },
      "arrival": 32280,
      "departure": 32280
    },
    {
      "stop": {
        "id": "2_1181",
        "lat": 48.11619452,
        "lon": -1.66258994,
        "name": "Musset Cité U.",
        "code": 1181
      },
      "arrival": 32400,
      "departure": 32400
    },
    {
      "stop": {
        "id": "2_1200",
        "lat": 48.11682755,
        "lon": -1.6563862,
        "name": "Jeanne d\u0027Arc",
        "code": 1200
      },
      "arrival": 32520,
      "departure": 32520
    },
    {
      "stop": {
        "id": "2_1201",
        "lat": 48.11911266,
        "lon": -1.64919701,
        "name": "Vitré Foulon",
        "code": 1201
      },
      "arrival": 32640,
      "departure": 32640
    },
    {
      "stop": {
        "id": "2_1202",
        "lat": 48.12062049,
        "lon": -1.64433521,
        "name": "Beaulieu Cité U.",
        "code": 1202
      },
      "arrival": 32700,
      "departure": 32700
    },
    {
      "stop": {
        "id": "2_1203",
        "lat": 48.12203302,
        "lon": -1.6395994,
        "name": "Beaulieu Restau. U.",
        "code": 1203
      },
      "arrival": 32760,
      "departure": 32760
    },
    {
      "stop": {
        "id": "2_1176",
        "lat": 48.11901733,
        "lon": -1.63514782,
        "name": "Beaulieu INSA",
        "code": 1176
      },
      "arrival": 32820,
      "departure": 32820
    },
    {
      "stop": {
        "id": "2_1312",
        "lat": 48.1166495,
        "lon": -1.63393042,
        "name": "Beaulieu Chimie",
        "code": 1312
      },
      "arrival": 32880,
      "departure": 32880
    }
  ],
  "route": {
    "id": "2_0031",
    "textColor": "DF171C",
    "color": "FEF466",
    "description": "Inter-quartiers",
    "longName": "Villejean-Churchill \u003c\u003e Beaulieu Ecole de Chimie",
    "shortName": "31",
    "type": 3,
    "agencyId": "2"
  }
}