{
  "headsign": "2 | Grand Quartier",
  "stopTimes": [
    {
      "stop": {
        "id": "2_1071",
        "lat": 48.096225,
        "lon": -1.636899,
        "name": "Haut Sancé",
        "code": 1071
      },
      "arrival": 24300,
      "departure": 24300
    },
    {
      "stop": {
        "id": "2_1072",
        "lat": 48.094922,
        "lon": -1.638,
        "name": "CARSAT",
        "code": 1072
      },
      "arrival": 24360,
      "departure": 24360
    },
    {
      "stop": {
        "id": "2_1073",
        "lat": 48.092528,
        "lon": -1.639658,
        "name": "Ronceray",
        "code": 1073
      },
      "arrival": 24420,
      "departure": 24420
    },
    {
      "stop": {
        "id": "2_1074",
        "lat": 48.091827,
        "lon": -1.636274,
        "name": "Gohier",
        "code": 1074
      },
      "arrival": 24480,
      "departure": 24480
    },
    {
      "stop": {
        "id": "2_1075",
        "lat": 48.089486,
        "lon": -1.635568,
        "name": "Bourgueil",
        "code": 1075
      },
      "arrival": 24540,
      "departure": 24540
    },
    {
      "stop": {
        "id": "2_1076",
        "lat": 48.087986,
        "lon": -1.638421,
        "name": "Monnet",
        "code": 1076
      },
      "arrival": 24600,
      "departure": 24600
    },
    {
      "stop": {
        "id": "2_1065",
        "lat": 48.087621,
        "lon": -1.64393,
        "name": "La Poterie",
        "code": 1065
      },
      "arrival": 24660,
      "departure": 24660
    },
    {
      "stop": {
        "id": "2_1078",
        "lat": 48.089972,
        "lon": -1.64466,
        "name": "Lycée Descartes",
        "code": 1078
      },
      "arrival": 24720,
      "departure": 24720
    },
    {
      "stop": {
        "id": "2_1079",
        "lat": 48.092772,
        "lon": -1.647205,
        "name": "Monsieur Vincent",
        "code": 1079
      },
      "arrival": 24780,
      "departure": 24780
    },
    {
      "stop": {
        "id": "2_1080",
        "lat": 48.095953,
        "lon": -1.651543,
        "name": "Calmette",
        "code": 1080
      },
      "arrival": 24900,
      "departure": 24900
    },
    {
      "stop": {
        "id": "2_1081",
        "lat": 48.09806,
        "lon": -1.655275,
        "name": "Bourgeois",
        "code": 1081
      },
      "arrival": 24960,
      "departure": 24960
    },
    {
      "stop": {
        "id": "2_1082",
        "lat": 48.099871,
        "lon": -1.657775,
        "name": "Piré",
        "code": 1082
      },
      "arrival": 25020,
      "departure": 25020
    },
    {
      "stop": {
        "id": "2_1213",
        "lat": 48.102902,
        "lon": -1.661403,
        "name": "Croix Saint-Hélier",
        "code": 1213
      },
      "arrival": 25080,
      "departure": 25080
    },
    {
      "stop": {
        "id": "2_1057",
        "lat": 48.104747,
        "lon": -1.667176,
        "name": "Laënnec",
        "code": 1057
      },
      "arrival": 25200,
      "departure": 25200
    },
    {
      "stop": {
        "id": "2_1056",
        "lat": 48.103956,
        "lon": -1.673185,
        "name": "Gares",
        "code": 1056
      },
      "arrival": 25320,
      "departure": 25320
    },
    {
      "stop": {
        "id": "2_1055",
        "lat": 48.106057,
        "lon": -1.67401,
        "name": "Champs Libres",
        "code": 1055
      },
      "arrival": 25380,
      "departure": 25380
    },
    {
      "stop": {
        "id": "2_1054",
        "lat": 48.107564,
        "lon": -1.675176,
        "name": "Liberté TNB",
        "code": 1054
      },
      "arrival": 25440,
      "departure": 25440
    },
    {
      "stop": {
        "id": "2_1315",
        "lat": 48.109698,
        "lon": -1.678048,
        "name": "République",
        "code": 1315
      },
      "arrival": 25620,
      "departure": 25620
    },
    {
      "stop": {
        "id": "2_1051",
        "lat": 48.109888,
        "lon": -1.68328,
        "name": "Place de Bretagne",
        "code": 1051
      },
      "arrival": 25680,
      "departure": 25680
    },
    {
      "stop": {
        "id": "2_1092",
        "lat": 48.111759,
        "lon": -1.686216,
        "name": "Les Lices",
        "code": 1092
      },
      "arrival": 25740,
      "departure": 25740
    },
    {
      "stop": {
        "id": "2_1093",
        "lat": 48.111757,
        "lon": -1.689653,
        "name": "Horizons",
        "code": 1093
      },
      "arrival": 25860,
      "departure": 25860
    },
    {
      "stop": {
        "id": "2_1094",
        "lat": 48.113208,
        "lon": -1.69329,
        "name": "Brest Verdun",
        "code": 1094
      },
      "arrival": 25920,
      "departure": 25920
    },
    {
      "stop": {
        "id": "2_1095",
        "lat": 48.116505,
        "lon": -1.690744,
        "name": "La Touche",
        "code": 1095
      },
      "arrival": 25980,
      "departure": 25980
    },
    {
      "stop": {
        "id": "2_1096",
        "lat": 48.118193,
        "lon": -1.689248,
        "name": "Anatole France",
        "code": 1096
      },
      "arrival": 26040,
      "departure": 26040
    },
    {
      "stop": {
        "id": "2_1097",
        "lat": 48.121017,
        "lon": -1.686759,
        "name": "ESPE",
        "code": 1097
      },
      "arrival": 26100,
      "departure": 26100
    },
    {
      "stop": {
        "id": "2_1099",
        "lat": 48.123587,
        "lon": -1.683606,
        "name": "Saint-Martin",
        "code": 1099
      },
      "arrival": 26160,
      "departure": 26160
    },
    {
      "stop": {
        "id": "2_1100",
        "lat": 48.12503,
        "lon": -1.681973,
        "name": "Cimetière Nord",
        "code": 1100
      },
      "arrival": 26220,
      "departure": 26220
    },
    {
      "stop": {
        "id": "2_1041",
        "lat": 48.128749,
        "lon": -1.6836,
        "name": "Trois Croix",
        "code": 1041
      },
      "arrival": 26280,
      "departure": 26280
    },
    {
      "stop": {
        "id": "2_1102",
        "lat": 48.131357,
        "lon": -1.684599,
        "name": "Donelière",
        "code": 1102
      },
      "arrival": 26340,
      "departure": 26340
    },
    {
      "stop": {
        "id": "2_1371",
        "lat": 48.133171,
        "lon": -1.68511,
        "name": "Lycée Mendès France",
        "code": 1371
      },
      "arrival": 26340,
      "departure": 26340
    },
    {
      "stop": {
        "id": "2_2803",
        "lat": 48.137419,
        "lon": -1.68861,
        "name": "La Plesse",
        "code": 2803
      },
      "arrival": 26460,
      "departure": 26460
    },
    {
      "stop": {
        "id": "2_2801",
        "lat": 48.135818,
        "lon": -1.693158,
        "name": "Grand Quartier",
        "code": 2801
      },
      "arrival": 26520,
      "departure": 26520
    }
  ],
  "route": {
    "id": "2_0002",
    "textColor": "FFFFFF",
    "color": "008BCF",
    "description": "Majeure",
    "longName": "Grand Quartier \u003c\u003e La Poterie / Haut Sancé",
    "shortName": "2",
    "type": 3,
    "agencyId": "2"
  }
}