{
  "headsign": "57 | Bruz Lavoisier",
  "stopTimes": [
    {
      "stop": {
        "id": "2_1501",
        "lat": 48.10936833,
        "lon": -1.6797666,
        "name": "République Pré Botté",
        "code": 1501
      },
      "arrival": 80100,
      "departure": 80100
    },
    {
      "stop": {
        "id": "2_1017",
        "lat": 48.10834874,
        "lon": -1.6801754,
        "name": "Les Halles",
        "code": 1017
      },
      "arrival": 80160,
      "departure": 80160
    },
    {
      "stop": {
        "id": "2_1018",
        "lat": 48.10618372,
        "lon": -1.68095249,
        "name": "Plélo Colombier",
        "code": 1018
      },
      "arrival": 80220,
      "departure": 80220
    },
    {
      "stop": {
        "id": "2_1019",
        "lat": 48.10515761,
        "lon": -1.68471093,
        "name": "Cité Judiciaire",
        "code": 1019
      },
      "arrival": 80340,
      "departure": 80340
    },
    {
      "stop": {
        "id": "2_1264",
        "lat": 48.10211461,
        "lon": -1.68438725,
        "name": "Pont de Nantes",
        "code": 1264
      },
      "arrival": 80400,
      "departure": 80400
    },
    {
      "stop": {
        "id": "2_1265",
        "lat": 48.0997896,
        "lon": -1.68708791,
        "name": "Foyer Rennais",
        "code": 1265
      },
      "arrival": 80460,
      "departure": 80460
    },
    {
      "stop": {
        "id": "2_1020",
        "lat": 48.09739351,
        "lon": -1.68956282,
        "name": "Mermoz",
        "code": 1020
      },
      "arrival": 80520,
      "departure": 80520
    },
    {
      "stop": {
        "id": "2_2208",
        "lat": 48.09571589,
        "lon": -1.69476004,
        "name": "Commeurec",
        "code": 2208
      },
      "arrival": 80580,
      "departure": 80580
    },
    {
      "stop": {
        "id": "2_2207",
        "lat": 48.09353292,
        "lon": -1.70134791,
        "name": "Lilas",
        "code": 2207
      },
      "arrival": 80640,
      "departure": 80640
    },
    {
      "stop": {
        "id": "2_2211",
        "lat": 48.0872716,
        "lon": -1.70734318,
        "name": "Gaité",
        "code": 2211
      },
      "arrival": 80760,
      "departure": 80760
    },
    {
      "stop": {
        "id": "2_2241",
        "lat": 48.08052746,
        "lon": -1.71255409,
        "name": "Malraux",
        "code": 2241
      },
      "arrival": 80880,
      "departure": 80880
    },
    {
      "stop": {
        "id": "2_2245",
        "lat": 48.07762901,
        "lon": -1.71267231,
        "name": "Haut Bois",
        "code": 2245
      },
      "arrival": 80880,
      "departure": 80880
    },
    {
      "stop": {
        "id": "2_2233",
        "lat": 48.06738312,
        "lon": -1.71730011,
        "name": "Abbé Grimault",
        "code": 2233
      },
      "arrival": 81060,
      "departure": 81060
    },
    {
      "stop": {
        "id": "2_2243",
        "lat": 48.06692895,
        "lon": -1.72233003,
        "name": "Aire Libre Aéroport",
        "code": 2243
      },
      "arrival": 81120,
      "departure": 81120
    },
    {
      "stop": {
        "id": "2_2242",
        "lat": 48.06503505,
        "lon": -1.72459513,
        "name": "Centre Météo",
        "code": 2242
      },
      "arrival": 81180,
      "departure": 81180
    },
    {
      "stop": {
        "id": "2_2244",
        "lat": 48.05988123,
        "lon": -1.73439523,
        "name": "Parc Expo",
        "code": 2244
      },
      "arrival": 81240,
      "departure": 81240
    },
    {
      "stop": {
        "id": "2_2315",
        "lat": 48.05279251,
        "lon": -1.7383715,
        "name": "Lande du Pont",
        "code": 2315
      },
      "arrival": 81360,
      "departure": 81360
    },
    {
      "stop": {
        "id": "2_2316",
        "lat": 48.04936083,
        "lon": -1.74065996,
        "name": "Etangs",
        "code": 2316
      },
      "arrival": 81420,
      "departure": 81420
    },
    {
      "stop": {
        "id": "2_2317",
        "lat": 48.04740124,
        "lon": -1.74208422,
        "name": "Coeur de Campus",
        "code": 2317
      },
      "arrival": 81480,
      "departure": 81480
    },
    {
      "stop": {
        "id": "2_2309",
        "lat": 48.04459244,
        "lon": -1.74645711,
        "name": "Schuman",
        "code": 2309
      },
      "arrival": 81540,
      "departure": 81540
    },
    {
      "stop": {
        "id": "2_2320",
        "lat": 48.04033666,
        "lon": -1.75517612,
        "name": "Croix Madame",
        "code": 2320
      },
      "arrival": 81600,
      "departure": 81600
    },
    {
      "stop": {
        "id": "2_2321",
        "lat": 48.03121202,
        "lon": -1.75955139,
        "name": "Gavrinis",
        "code": 2321
      },
      "arrival": 81720,
      "departure": 81720
    },
    {
      "stop": {
        "id": "2_2305",
        "lat": 48.02937675,
        "lon": -1.758008,
        "name": "Vert Buisson",
        "code": 2305
      },
      "arrival": 81780,
      "departure": 81780
    },
    {
      "stop": {
        "id": "2_2323",
        "lat": 48.02564107,
        "lon": -1.76076309,
        "name": "Rabine",
        "code": 2323
      },
      "arrival": 81900,
      "departure": 81900
    },
    {
      "stop": {
        "id": "2_2324",
        "lat": 48.02463005,
        "lon": -1.7572317,
        "name": "Haut Launay",
        "code": 2324
      },
      "arrival": 81960,
      "departure": 81960
    },
    {
      "stop": {
        "id": "2_2325",
        "lat": 48.02481885,
        "lon": -1.75055599,
        "name": "Herverie",
        "code": 2325
      },
      "arrival": 82080,
      "departure": 82080
    },
    {
      "stop": {
        "id": "2_2361",
        "lat": 48.02442778,
        "lon": -1.7448362,
        "name": "Bruz Centre",
        "code": 2361
      },
      "arrival": 82140,
      "departure": 82140
    },
    {
      "stop": {
        "id": "2_2331",
        "lat": 48.0215012,
        "lon": -1.75234104,
        "name": "Noë",
        "code": 2331
      },
      "arrival": 82260,
      "departure": 82260
    },
    {
      "stop": {
        "id": "2_2332",
        "lat": 48.01951953,
        "lon": -1.74505273,
        "name": "Epalet",
        "code": 2332
      },
      "arrival": 82320,
      "departure": 82320
    },
    {
      "stop": {
        "id": "2_2333",
        "lat": 48.02094067,
        "lon": -1.73809815,
        "name": "Du Guesclin",
        "code": 2333
      },
      "arrival": 82440,
      "departure": 82440
    },
    {
      "stop": {
        "id": "2_2334",
        "lat": 48.02378686,
        "lon": -1.73611312,
        "name": "Pasteur",
        "code": 2334
      },
      "arrival": 82440,
      "departure": 82440
    },
    {
      "stop": {
        "id": "2_2335",
        "lat": 48.02625491,
        "lon": -1.73452897,
        "name": "Bobinais",
        "code": 2335
      },
      "arrival": 82500,
      "departure": 82500
    },
    {
      "stop": {
        "id": "2_2336",
        "lat": 48.03021172,
        "lon": -1.73446075,
        "name": "Champ Niguel",
        "code": 2336
      },
      "arrival": 82560,
      "departure": 82560
    },
    {
      "stop": {
        "id": "2_2337",
        "lat": 48.03296043,
        "lon": -1.73309587,
        "name": "Lavoisier",
        "code": 2337
      },
      "arrival": 82680,
      "departure": 82680
    }
  ],
  "route": {
    "id": "2_0057",
    "textColor": "FFFFFF",
    "color": "A9701E",
    "description": "Métropolitaine",
    "longName": "Rennes (République) \u003c\u003e Saint-Jacques-de-la-Lande / Bruz (Centre)",
    "shortName": "57",
    "type": 3,
    "agencyId": "2"
  }
}