{
  "headsign": "2 | Haut Sancé",
  "stopTimes": [
    {
      "stop": {
        "id": "2_2801",
        "lat": 48.135818,
        "lon": -1.693158,
        "name": "Grand Quartier",
        "code": 2801
      },
      "arrival": 37260,
      "departure": 37260
    },
    {
      "stop": {
        "id": "2_2815",
        "lat": 48.13715,
        "lon": -1.686401,
        "name": "La Plesse",
        "code": 2815
      },
      "arrival": 37380,
      "departure": 37380
    },
    {
      "stop": {
        "id": "2_1328",
        "lat": 48.133338,
        "lon": -1.685372,
        "name": "Lycée Mendès France",
        "code": 1328
      },
      "arrival": 37440,
      "departure": 37440
    },
    {
      "stop": {
        "id": "2_1040",
        "lat": 48.130069,
        "lon": -1.684377,
        "name": "Donelière",
        "code": 1040
      },
      "arrival": 37500,
      "departure": 37500
    },
    {
      "stop": {
        "id": "2_1101",
        "lat": 48.127266,
        "lon": -1.68326,
        "name": "Trois Croix",
        "code": 1101
      },
      "arrival": 37560,
      "departure": 37560
    },
    {
      "stop": {
        "id": "2_1042",
        "lat": 48.124255,
        "lon": -1.681766,
        "name": "Cimetière Nord",
        "code": 1042
      },
      "arrival": 37620,
      "departure": 37620
    },
    {
      "stop": {
        "id": "2_1043",
        "lat": 48.123614,
        "lon": -1.684238,
        "name": "Saint-Martin",
        "code": 1043
      },
      "arrival": 37680,
      "departure": 37680
    },
    {
      "stop": {
        "id": "2_1044",
        "lat": 48.122179,
        "lon": -1.685924,
        "name": "ESPE",
        "code": 1044
      },
      "arrival": 37740,
      "departure": 37740
    },
    {
      "stop": {
        "id": "2_1046",
        "lat": 48.11824,
        "lon": -1.689403,
        "name": "Anatole France",
        "code": 1046
      },
      "arrival": 37860,
      "departure": 37860
    },
    {
      "stop": {
        "id": "2_1047",
        "lat": 48.11612,
        "lon": -1.691288,
        "name": "La Touche",
        "code": 1047
      },
      "arrival": 37920,
      "departure": 37920
    },
    {
      "stop": {
        "id": "2_1048",
        "lat": 48.113357,
        "lon": -1.693476,
        "name": "Brest Verdun",
        "code": 1048
      },
      "arrival": 37980,
      "departure": 37980
    },
    {
      "stop": {
        "id": "2_1049",
        "lat": 48.111632,
        "lon": -1.689371,
        "name": "Horizons",
        "code": 1049
      },
      "arrival": 38100,
      "departure": 38100
    },
    {
      "stop": {
        "id": "2_1050",
        "lat": 48.111647,
        "lon": -1.686999,
        "name": "Les Lices",
        "code": 1050
      },
      "arrival": 38160,
      "departure": 38160
    },
    {
      "stop": {
        "id": "2_1091",
        "lat": 48.109734,
        "lon": -1.68385,
        "name": "Place de Bretagne",
        "code": 1091
      },
      "arrival": 38280,
      "departure": 38280
    },
    {
      "stop": {
        "id": "2_1090",
        "lat": 48.109526,
        "lon": -1.677947,
        "name": "République",
        "code": 1090
      },
      "arrival": 38460,
      "departure": 38460
    },
    {
      "stop": {
        "id": "2_1088",
        "lat": 48.107377,
        "lon": -1.674981,
        "name": "Liberté TNB",
        "code": 1088
      },
      "arrival": 38580,
      "departure": 38580
    },
    {
      "stop": {
        "id": "2_1087",
        "lat": 48.105276,
        "lon": -1.673939,
        "name": "Champs Libres",
        "code": 1087
      },
      "arrival": 38700,
      "departure": 38700
    },
    {
      "stop": {
        "id": "2_1477",
        "lat": 48.103839,
        "lon": -1.67286,
        "name": "Gares",
        "code": 1477
      },
      "arrival": 38760,
      "departure": 38760
    },
    {
      "stop": {
        "id": "2_1085",
        "lat": 48.10471,
        "lon": -1.666557,
        "name": "Laënnec",
        "code": 1085
      },
      "arrival": 38880,
      "departure": 38880
    },
    {
      "stop": {
        "id": "2_1243",
        "lat": 48.102515,
        "lon": -1.661094,
        "name": "Croix Saint-Hélier",
        "code": 1243
      },
      "arrival": 38940,
      "departure": 38940
    },
    {
      "stop": {
        "id": "2_1060",
        "lat": 48.099452,
        "lon": -1.657522,
        "name": "Piré",
        "code": 1060
      },
      "arrival": 39000,
      "departure": 39000
    },
    {
      "stop": {
        "id": "2_1061",
        "lat": 48.097255,
        "lon": -1.654254,
        "name": "Bourgeois",
        "code": 1061
      },
      "arrival": 39060,
      "departure": 39060
    },
    {
      "stop": {
        "id": "2_1062",
        "lat": 48.09511,
        "lon": -1.650566,
        "name": "Calmette",
        "code": 1062
      },
      "arrival": 39180,
      "departure": 39180
    },
    {
      "stop": {
        "id": "2_1063",
        "lat": 48.09273,
        "lon": -1.64749,
        "name": "Monsieur Vincent",
        "code": 1063
      },
      "arrival": 39240,
      "departure": 39240
    },
    {
      "stop": {
        "id": "2_1064",
        "lat": 48.090281,
        "lon": -1.645018,
        "name": "Lycée Descartes",
        "code": 1064
      },
      "arrival": 39300,
      "departure": 39300
    },
    {
      "stop": {
        "id": "2_1077",
        "lat": 48.087413,
        "lon": -1.643436,
        "name": "La Poterie",
        "code": 1077
      },
      "arrival": 39360,
      "departure": 39360
    },
    {
      "stop": {
        "id": "2_1066",
        "lat": 48.087788,
        "lon": -1.638596,
        "name": "Monnet",
        "code": 1066
      },
      "arrival": 39420,
      "departure": 39420
    },
    {
      "stop": {
        "id": "2_1067",
        "lat": 48.089455,
        "lon": -1.635281,
        "name": "Bourgueil",
        "code": 1067
      },
      "arrival": 39480,
      "departure": 39480
    },
    {
      "stop": {
        "id": "2_1068",
        "lat": 48.092067,
        "lon": -1.636471,
        "name": "Gohier",
        "code": 1068
      },
      "arrival": 39540,
      "departure": 39540
    },
    {
      "stop": {
        "id": "2_1069",
        "lat": 48.092756,
        "lon": -1.63962,
        "name": "Ronceray",
        "code": 1069
      },
      "arrival": 39600,
      "departure": 39600
    },
    {
      "stop": {
        "id": "2_1070",
        "lat": 48.094492,
        "lon": -1.637889,
        "name": "CARSAT",
        "code": 1070
      },
      "arrival": 39600,
      "departure": 39600
    },
    {
      "stop": {
        "id": "2_1071",
        "lat": 48.096225,
        "lon": -1.636899,
        "name": "Haut Sancé",
        "code": 1071
      },
      "arrival": 39660,
      "departure": 39660
    }
  ],
  "route": {
    "id": "2_0002",
    "textColor": "FFFFFF",
    "color": "008BCF",
    "description": "Majeure",
    "longName": "Grand Quartier \u003c\u003e La Poterie / Haut Sancé",
    "shortName": "2",
    "type": 3,
    "agencyId": "2"
  }
}