{
  "headsign": "51 | Betton Champ Devant",
  "stopTimes": [
    {
      "stop": {
        "id": "2_1606",
        "lat": 48.115697,
        "lon": -1.676699,
        "name": "Hoche",
        "code": 1606
      },
      "arrival": 30600,
      "departure": 30600
    },
    {
      "stop": {
        "id": "2_1279",
        "lat": 48.119451,
        "lon": -1.674371,
        "name": "Rectorat",
        "code": 1279
      },
      "arrival": 30720,
      "departure": 30720
    },
    {
      "stop": {
        "id": "2_1280",
        "lat": 48.121404,
        "lon": -1.670825,
        "name": "Jules Ferry",
        "code": 1280
      },
      "arrival": 30840,
      "departure": 30840
    },
    {
      "stop": {
        "id": "2_1281",
        "lat": 48.125362,
        "lon": -1.66626,
        "name": "Volney",
        "code": 1281
      },
      "arrival": 30960,
      "departure": 30960
    },
    {
      "stop": {
        "id": "2_1282",
        "lat": 48.126594,
        "lon": -1.665268,
        "name": "Gros Chêne",
        "code": 1282
      },
      "arrival": 31020,
      "departure": 31020
    },
    {
      "stop": {
        "id": "2_1489",
        "lat": 48.132299,
        "lon": -1.661521,
        "name": "Patton Gast",
        "code": 1489
      },
      "arrival": 31140,
      "departure": 31140
    },
    {
      "stop": {
        "id": "2_1490",
        "lat": 48.136021,
        "lon": -1.659114,
        "name": "Hôtel de Région",
        "code": 1490
      },
      "arrival": 31200,
      "departure": 31200
    },
    {
      "stop": {
        "id": "2_1491",
        "lat": 48.13892,
        "lon": -1.658273,
        "name": "Saint-Laurent",
        "code": 1491
      },
      "arrival": 31260,
      "departure": 31260
    },
    {
      "stop": {
        "id": "2_2829",
        "lat": 48.149378,
        "lon": -1.656411,
        "name": "Maison Blanche",
        "code": 2829
      },
      "arrival": 31380,
      "departure": 31380
    },
    {
      "stop": {
        "id": "2_2412",
        "lat": 48.162059,
        "lon": -1.647356,
        "name": "Betton Vallée",
        "code": 2412
      },
      "arrival": 31500,
      "departure": 31500
    },
    {
      "stop": {
        "id": "2_2413",
        "lat": 48.171155,
        "lon": -1.641673,
        "name": "Enseigne Abbaye",
        "code": 2413
      },
      "arrival": 31620,
      "departure": 31620
    },
    {
      "stop": {
        "id": "2_2414",
        "lat": 48.172685,
        "lon": -1.637284,
        "name": "Housset",
        "code": 2414
      },
      "arrival": 31680,
      "departure": 31680
    },
    {
      "stop": {
        "id": "2_2415",
        "lat": 48.176867,
        "lon": -1.637055,
        "name": "Marronniers",
        "code": 2415
      },
      "arrival": 31800,
      "departure": 31800
    },
    {
      "stop": {
        "id": "2_2416",
        "lat": 48.180198,
        "lon": -1.634708,
        "name": "Haye Renaud Gare",
        "code": 2416
      },
      "arrival": 31860,
      "departure": 31860
    },
    {
      "stop": {
        "id": "2_2417",
        "lat": 48.181747,
        "lon": -1.638457,
        "name": "Betton Centre",
        "code": 2417
      },
      "arrival": 31920,
      "departure": 31920
    },
    {
      "stop": {
        "id": "2_2451",
        "lat": 48.19085,
        "lon": -1.629331,
        "name": "Gentilhommière",
        "code": 2451
      },
      "arrival": 32160,
      "departure": 32160
    },
    {
      "stop": {
        "id": "2_2432",
        "lat": 48.186271,
        "lon": -1.633356,
        "name": "J. Sébastien Bach",
        "code": 2432
      },
      "arrival": 32220,
      "departure": 32220
    },
    {
      "stop": {
        "id": "2_2431",
        "lat": 48.182984,
        "lon": -1.637374,
        "name": "Mozart",
        "code": 2431
      },
      "arrival": 32280,
      "departure": 32280
    },
    {
      "stop": {
        "id": "2_2437",
        "lat": 48.181703,
        "lon": -1.639251,
        "name": "Betton Centre",
        "code": 2437
      },
      "arrival": 32340,
      "departure": 32340
    },
    {
      "stop": {
        "id": "2_2418",
        "lat": 48.181986,
        "lon": -1.641399,
        "name": "Betton Mairie",
        "code": 2418
      },
      "arrival": 32340,
      "departure": 32340
    },
    {
      "stop": {
        "id": "2_2419",
        "lat": 48.183195,
        "lon": -1.646546,
        "name": "Trégor",
        "code": 2419
      },
      "arrival": 32400,
      "departure": 32400
    },
    {
      "stop": {
        "id": "2_2420",
        "lat": 48.180579,
        "lon": -1.652229,
        "name": "Brocéliande",
        "code": 2420
      },
      "arrival": 32520,
      "departure": 32520
    },
    {
      "stop": {
        "id": "2_2421",
        "lat": 48.179175,
        "lon": -1.65123,
        "name": "Omblais",
        "code": 2421
      },
      "arrival": 32580,
      "departure": 32580
    },
    {
      "stop": {
        "id": "2_2401",
        "lat": 48.177029,
        "lon": -1.651134,
        "name": "Champ Devant",
        "code": 2401
      },
      "arrival": 32640,
      "departure": 32640
    }
  ],
  "route": {
    "id": "2_0051",
    "textColor": "FFFFFF",
    "color": "93117E",
    "description": "Métropolitaine",
    "longName": "Rennes (Hoche) \u003c\u003e Betton (Champ Devant)",
    "shortName": "51",
    "type": 3,
    "agencyId": "2"
  }
}