{
  "headsign": "1 | Rennes République",
  "stopTimes": [
    {
      "stop": {
        "id": "2_2126",
        "lat": 48.134763,
        "lon": -1.621832,
        "name": "Champs Blancs",
        "code": 2126
      },
      "arrival": 85320,
      "departure": 85320
    },
    {
      "stop": {
        "id": "2_2124",
        "lat": 48.131589,
        "lon": -1.624653,
        "name": "Chêne Germain",
        "code": 2124
      },
      "arrival": 85440,
      "departure": 85440
    },
    {
      "stop": {
        "id": "2_2002",
        "lat": 48.130233,
        "lon": -1.627664,
        "name": "Cesson Hôpital Privé",
        "code": 2002
      },
      "arrival": 85500,
      "departure": 85500
    },
    {
      "stop": {
        "id": "2_1001",
        "lat": 48.129077,
        "lon": -1.63253,
        "name": "Longs Champs",
        "code": 1001
      },
      "arrival": 85560,
      "departure": 85560
    },
    {
      "stop": {
        "id": "2_1002",
        "lat": 48.128283,
        "lon": -1.637782,
        "name": "Bouzat",
        "code": 1002
      },
      "arrival": 85620,
      "departure": 85620
    },
    {
      "stop": {
        "id": "2_1003",
        "lat": 48.127369,
        "lon": -1.640433,
        "name": "Gallets",
        "code": 1003
      },
      "arrival": 85680,
      "departure": 85680
    },
    {
      "stop": {
        "id": "2_1004",
        "lat": 48.125244,
        "lon": -1.642676,
        "name": "Donzelot",
        "code": 1004
      },
      "arrival": 85740,
      "departure": 85740
    },
    {
      "stop": {
        "id": "2_1005",
        "lat": 48.123363,
        "lon": -1.646317,
        "name": "Mirabeau",
        "code": 1005
      },
      "arrival": 85800,
      "departure": 85800
    },
    {
      "stop": {
        "id": "2_1006",
        "lat": 48.12229,
        "lon": -1.650742,
        "name": "Turmel",
        "code": 1006
      },
      "arrival": 85860,
      "departure": 85860
    },
    {
      "stop": {
        "id": "2_1007",
        "lat": 48.121446,
        "lon": -1.655036,
        "name": "Assomption",
        "code": 1007
      },
      "arrival": 85920,
      "departure": 85920
    },
    {
      "stop": {
        "id": "2_1008",
        "lat": 48.123212,
        "lon": -1.660216,
        "name": "Painlevé",
        "code": 1008
      },
      "arrival": 85980,
      "departure": 85980
    },
    {
      "stop": {
        "id": "2_1009",
        "lat": 48.121635,
        "lon": -1.663186,
        "name": "Metz Volney",
        "code": 1009
      },
      "arrival": 86040,
      "departure": 86040
    },
    {
      "stop": {
        "id": "2_1010",
        "lat": 48.119241,
        "lon": -1.667693,
        "name": "Guéhenno",
        "code": 1010
      },
      "arrival": 86100,
      "departure": 86100
    },
    {
      "stop": {
        "id": "2_1011",
        "lat": 48.118312,
        "lon": -1.671315,
        "name": "Fac de Droit",
        "code": 1011
      },
      "arrival": 86160,
      "departure": 86160
    },
    {
      "stop": {
        "id": "2_1012",
        "lat": 48.11605,
        "lon": -1.674245,
        "name": "Sévigné",
        "code": 1012
      },
      "arrival": 86220,
      "departure": 86220
    },
    {
      "stop": {
        "id": "2_1014",
        "lat": 48.113739,
        "lon": -1.679038,
        "name": "Sainte-Anne",
        "code": 1014
      },
      "arrival": 86340,
      "departure": 86340
    },
    {
      "stop": {
        "id": "2_1015",
        "lat": 48.11252,
        "lon": -1.680352,
        "name": "Champ Jacquet",
        "code": 1015
      },
      "arrival": 86400,
      "departure": 86400
    },
    {
      "stop": {
        "id": "2_1024",
        "lat": 48.109977,
        "lon": -1.680268,
        "name": "République Nemours",
        "code": 1024
      },
      "arrival": 86520,
      "departure": 86520
    }
  ],
  "route": {
    "id": "2_0001",
    "textColor": "1A171B",
    "color": "97BF0D",
    "description": "Majeure",
    "longName": "Cesson-Sévigné (Champs Blancs) \u003c\u003e Chantepie (Rosa Parks)",
    "shortName": "1",
    "type": 3,
    "agencyId": "2"
  }
}