{
  "headsign": "5 | Lycée Bréquigny",
  "stopTimes": [
    {
      "stop": {
        "id": "2_1252",
        "lat": 48.138782,
        "lon": -1.66602,
        "name": "Patton",
        "code": 1252
      },
      "arrival": 19500,
      "departure": 19500
    },
    {
      "stop": {
        "id": "2_1253",
        "lat": 48.136711,
        "lon": -1.667527,
        "name": "Monts d\u0027Arrée",
        "code": 1253
      },
      "arrival": 19560,
      "departure": 19560
    },
    {
      "stop": {
        "id": "2_1254",
        "lat": 48.136796,
        "lon": -1.671078,
        "name": "Neruda",
        "code": 1254
      },
      "arrival": 19560,
      "departure": 19560
    },
    {
      "stop": {
        "id": "2_1255",
        "lat": 48.134477,
        "lon": -1.673097,
        "name": "Condate",
        "code": 1255
      },
      "arrival": 19620,
      "departure": 19620
    },
    {
      "stop": {
        "id": "2_1256",
        "lat": 48.132591,
        "lon": -1.671614,
        "name": "Bellangerais",
        "code": 1256
      },
      "arrival": 19680,
      "departure": 19680
    },
    {
      "stop": {
        "id": "2_1257",
        "lat": 48.13267,
        "lon": -1.667599,
        "name": "Morbihan",
        "code": 1257
      },
      "arrival": 19740,
      "departure": 19740
    },
    {
      "stop": {
        "id": "2_1258",
        "lat": 48.130788,
        "lon": -1.663953,
        "name": "Houx Cité U",
        "code": 1258
      },
      "arrival": 19800,
      "departure": 19800
    },
    {
      "stop": {
        "id": "2_1259",
        "lat": 48.129452,
        "lon": -1.663592,
        "name": "Rochester",
        "code": 1259
      },
      "arrival": 19860,
      "departure": 19860
    },
    {
      "stop": {
        "id": "2_1260",
        "lat": 48.126715,
        "lon": -1.665432,
        "name": "Gros Chêne",
        "code": 1260
      },
      "arrival": 19920,
      "departure": 19920
    },
    {
      "stop": {
        "id": "2_1261",
        "lat": 48.125322,
        "lon": -1.666645,
        "name": "Volney",
        "code": 1261
      },
      "arrival": 19980,
      "departure": 19980
    },
    {
      "stop": {
        "id": "2_1262",
        "lat": 48.121471,
        "lon": -1.67097,
        "name": "Jules Ferry",
        "code": 1262
      },
      "arrival": 20100,
      "departure": 20100
    },
    {
      "stop": {
        "id": "2_1263",
        "lat": 48.119629,
        "lon": -1.674316,
        "name": "Rectorat",
        "code": 1263
      },
      "arrival": 20160,
      "departure": 20160
    },
    {
      "stop": {
        "id": "2_1027",
        "lat": 48.117163,
        "lon": -1.677351,
        "name": "Hôtel Dieu",
        "code": 1027
      },
      "arrival": 20220,
      "departure": 20220
    },
    {
      "stop": {
        "id": "2_1014",
        "lat": 48.113739,
        "lon": -1.679038,
        "name": "Sainte-Anne",
        "code": 1014
      },
      "arrival": 20400,
      "departure": 20400
    },
    {
      "stop": {
        "id": "2_1015",
        "lat": 48.11252,
        "lon": -1.680352,
        "name": "Champ Jacquet",
        "code": 1015
      },
      "arrival": 20460,
      "departure": 20460
    },
    {
      "stop": {
        "id": "2_1024",
        "lat": 48.109977,
        "lon": -1.680268,
        "name": "République Nemours",
        "code": 1024
      },
      "arrival": 20580,
      "departure": 20700
    },
    {
      "stop": {
        "id": "2_1017",
        "lat": 48.108415,
        "lon": -1.680213,
        "name": "Les Halles",
        "code": 1017
      },
      "arrival": 20760,
      "departure": 20760
    },
    {
      "stop": {
        "id": "2_1018",
        "lat": 48.106204,
        "lon": -1.680999,
        "name": "Plélo Colombier",
        "code": 1018
      },
      "arrival": 20880,
      "departure": 20880
    },
    {
      "stop": {
        "id": "2_1019",
        "lat": 48.105084,
        "lon": -1.684731,
        "name": "Cité Judiciaire",
        "code": 1019
      },
      "arrival": 20940,
      "departure": 20940
    },
    {
      "stop": {
        "id": "2_1264",
        "lat": 48.10206,
        "lon": -1.684417,
        "name": "Pont de Nantes",
        "code": 1264
      },
      "arrival": 21000,
      "departure": 21000
    },
    {
      "stop": {
        "id": "2_1265",
        "lat": 48.099809,
        "lon": -1.687123,
        "name": "Foyer Rennais",
        "code": 1265
      },
      "arrival": 21060,
      "departure": 21060
    },
    {
      "stop": {
        "id": "2_1266",
        "lat": 48.09714,
        "lon": -1.689057,
        "name": "Mermoz",
        "code": 1266
      },
      "arrival": 21120,
      "departure": 21120
    },
    {
      "stop": {
        "id": "2_2219",
        "lat": 48.09408,
        "lon": -1.690642,
        "name": "Pilate",
        "code": 2219
      },
      "arrival": 21120,
      "departure": 21120
    },
    {
      "stop": {
        "id": "2_2218",
        "lat": 48.092405,
        "lon": -1.69168,
        "name": "Saint-Yves",
        "code": 2218
      },
      "arrival": 21180,
      "departure": 21180
    },
    {
      "stop": {
        "id": "2_2228",
        "lat": 48.089797,
        "lon": -1.693146,
        "name": "Pigeon Blanc",
        "code": 2228
      },
      "arrival": 21240,
      "departure": 21240
    },
    {
      "stop": {
        "id": "2_2216",
        "lat": 48.08731,
        "lon": -1.69473,
        "name": "Pressoirs",
        "code": 2216
      },
      "arrival": 21300,
      "departure": 21300
    },
    {
      "stop": {
        "id": "2_1267",
        "lat": 48.085707,
        "lon": -1.693903,
        "name": "Félix Eboué",
        "code": 1267
      },
      "arrival": 21300,
      "departure": 21300
    },
    {
      "stop": {
        "id": "2_1268",
        "lat": 48.083743,
        "lon": -1.693637,
        "name": "Boberil",
        "code": 1268
      },
      "arrival": 21360,
      "departure": 21360
    },
    {
      "stop": {
        "id": "2_1269",
        "lat": 48.084081,
        "lon": -1.692043,
        "name": "Lycée Bréquigny",
        "code": 1269
      },
      "arrival": 21420,
      "departure": 21420
    }
  ],
  "route": {
    "id": "2_0005",
    "textColor": "FFFFFF",
    "color": "EE7F01",
    "description": "Majeure",
    "longName": "Patton \u003c\u003e Lycée Bréquigny",
    "shortName": "5",
    "type": 3,
    "agencyId": "2"
  }
}