{
  "headsign": "50 | Rennes République",
  "stopTimes": [
    {
      "stop": {
        "id": "2_3301",
        "lat": 48.155188,
        "lon": -1.573107,
        "name": "Landelles",
        "code": 3301
      },
      "arrival": 33000,
      "departure": 33000
    },
    {
      "stop": {
        "id": "2_3322",
        "lat": 48.149328,
        "lon": -1.577527,
        "name": "Curien",
        "code": 3322
      },
      "arrival": 33180,
      "departure": 33180
    },
    {
      "stop": {
        "id": "2_3315",
        "lat": 48.153606,
        "lon": -1.579768,
        "name": "Thorigné Mairie",
        "code": 3315
      },
      "arrival": 33240,
      "departure": 33240
    },
    {
      "stop": {
        "id": "2_3314",
        "lat": 48.156034,
        "lon": -1.580608,
        "name": "Anne de Bretagne",
        "code": 3314
      },
      "arrival": 33300,
      "departure": 33300
    },
    {
      "stop": {
        "id": "2_3305",
        "lat": 48.158973,
        "lon": -1.579631,
        "name": "Bocage",
        "code": 3305
      },
      "arrival": 33360,
      "departure": 33360
    },
    {
      "stop": {
        "id": "2_3306",
        "lat": 48.164176,
        "lon": -1.579265,
        "name": "Juteauderies",
        "code": 3306
      },
      "arrival": 33480,
      "departure": 33480
    },
    {
      "stop": {
        "id": "2_3307",
        "lat": 48.160412,
        "lon": -1.586021,
        "name": "Fouillard",
        "code": 3307
      },
      "arrival": 33600,
      "departure": 33600
    },
    {
      "stop": {
        "id": "2_3309",
        "lat": 48.156271,
        "lon": -1.592376,
        "name": "Portail",
        "code": 3309
      },
      "arrival": 33660,
      "departure": 33660
    },
    {
      "stop": {
        "id": "2_2070",
        "lat": 48.145148,
        "lon": -1.608661,
        "name": "Victoire",
        "code": 2070
      },
      "arrival": 33840,
      "departure": 33840
    },
    {
      "stop": {
        "id": "2_2071",
        "lat": 48.140415,
        "lon": -1.616907,
        "name": "Calendrou",
        "code": 2071
      },
      "arrival": 33900,
      "departure": 33900
    },
    {
      "stop": {
        "id": "2_2114",
        "lat": 48.137351,
        "lon": -1.62275,
        "name": "Château de Vaux",
        "code": 2114
      },
      "arrival": 33960,
      "departure": 33960
    },
    {
      "stop": {
        "id": "2_2076",
        "lat": 48.134108,
        "lon": -1.62911,
        "name": "Lande Bouhard",
        "code": 2076
      },
      "arrival": 34080,
      "departure": 34080
    },
    {
      "stop": {
        "id": "2_1484",
        "lat": 48.131875,
        "lon": -1.635896,
        "name": "ZA Saint-Sulpice",
        "code": 1484
      },
      "arrival": 34200,
      "departure": 34200
    },
    {
      "stop": {
        "id": "2_1530",
        "lat": 48.128911,
        "lon": -1.642714,
        "name": "Pâtis Tatelin",
        "code": 1530
      },
      "arrival": 34320,
      "departure": 34320
    },
    {
      "stop": {
        "id": "2_1004",
        "lat": 48.125244,
        "lon": -1.642676,
        "name": "Donzelot",
        "code": 1004
      },
      "arrival": 34380,
      "departure": 34380
    },
    {
      "stop": {
        "id": "2_1005",
        "lat": 48.123363,
        "lon": -1.646317,
        "name": "Mirabeau",
        "code": 1005
      },
      "arrival": 34440,
      "departure": 34440
    },
    {
      "stop": {
        "id": "2_1006",
        "lat": 48.12229,
        "lon": -1.650742,
        "name": "Turmel",
        "code": 1006
      },
      "arrival": 34500,
      "departure": 34500
    },
    {
      "stop": {
        "id": "2_1111",
        "lat": 48.120189,
        "lon": -1.65077,
        "name": "Docteur Quentin",
        "code": 1111
      },
      "arrival": 34560,
      "departure": 34560
    },
    {
      "stop": {
        "id": "2_1432",
        "lat": 48.118675,
        "lon": -1.649887,
        "name": "Vitré Foulon",
        "code": 1432
      },
      "arrival": 34620,
      "departure": 34620
    },
    {
      "stop": {
        "id": "2_1513",
        "lat": 48.115378,
        "lon": -1.648495,
        "name": "Bois Perrin",
        "code": 1513
      },
      "arrival": 34680,
      "departure": 34680
    },
    {
      "stop": {
        "id": "2_1514",
        "lat": 48.113326,
        "lon": -1.647648,
        "name": "Moulin de Joué",
        "code": 1514
      },
      "arrival": 34740,
      "departure": 34740
    },
    {
      "stop": {
        "id": "2_1163",
        "lat": 48.110164,
        "lon": -1.660479,
        "name": "Robidou",
        "code": 1163
      },
      "arrival": 34920,
      "departure": 34920
    },
    {
      "stop": {
        "id": "2_1166",
        "lat": 48.109914,
        "lon": -1.675145,
        "name": "Musée Beaux Arts",
        "code": 1166
      },
      "arrival": 35100,
      "departure": 35100
    },
    {
      "stop": {
        "id": "2_1563",
        "lat": 48.109698,
        "lon": -1.67815,
        "name": "République",
        "code": 1563
      },
      "arrival": 35160,
      "departure": 35160
    }
  ],
  "route": {
    "id": "2_0050",
    "textColor": "FFFFFF",
    "color": "8DA6D2",
    "description": "Métropolitaine",
    "longName": "Rennes (République) \u003c\u003e Thorigné-Fouillard",
    "shortName": "50",
    "type": 3,
    "agencyId": "2"
  }
}