{
  "headsign": "79 | Pont-Péan Laillé",
  "stopTimes": [
    {
      "stop": {
        "id": "2_1510",
        "lat": 48.08777947,
        "lon": -1.67446532,
        "name": "Henri Fréville",
        "code": 1510
      },
      "arrival": 26880,
      "departure": 26880
    },
    {
      "stop": {
        "id": "2_3910",
        "lat": 48.0169427,
        "lon": -1.7051982,
        "name": "Fontaine Blanche",
        "code": 3910
      },
      "arrival": 27600,
      "departure": 27600
    },
    {
      "stop": {
        "id": "2_3911",
        "lat": 48.01367131,
        "lon": -1.70764824,
        "name": "Rivaudière",
        "code": 3911
      },
      "arrival": 27660,
      "departure": 27660
    },
    {
      "stop": {
        "id": "2_3912",
        "lat": 48.01082475,
        "lon": -1.706468,
        "name": "Pont Péan Mairie",
        "code": 3912
      },
      "arrival": 27720,
      "departure": 27720
    },
    {
      "stop": {
        "id": "2_3904",
        "lat": 48.01295576,
        "lon": -1.70300304,
        "name": "Chemin Vert",
        "code": 3904
      },
      "arrival": 27780,
      "departure": 27780
    },
    {
      "stop": {
        "id": "2_3914",
        "lat": 48.01038435,
        "lon": -1.70102798,
        "name": "Mouton Blanc",
        "code": 3914
      },
      "arrival": 27840,
      "departure": 27840
    },
    {
      "stop": {
        "id": "2_4701",
        "lat": 47.97856568,
        "lon": -1.71297883,
        "name": "Point du Jour",
        "code": 4701
      },
      "arrival": 28320,
      "departure": 28320
    },
    {
      "stop": {
        "id": "2_4703",
        "lat": 47.97548188,
        "lon": -1.71714821,
        "name": "Orée du Bois",
        "code": 4703
      },
      "arrival": 28440,
      "departure": 28440
    },
    {
      "stop": {
        "id": "2_4705",
        "lat": 47.97801567,
        "lon": -1.71969708,
        "name": "Laillé Eglise",
        "code": 4705
      },
      "arrival": 28500,
      "departure": 28500
    },
    {
      "stop": {
        "id": "2_4707",
        "lat": 47.9792529,
        "lon": -1.72433022,
        "name": "Châtaigneraie",
        "code": 4707
      },
      "arrival": 28560,
      "departure": 28560
    },
    {
      "stop": {
        "id": "2_4708",
        "lat": 47.98011176,
        "lon": -1.73091351,
        "name": "Gingouillère",
        "code": 4708
      },
      "arrival": 28620,
      "departure": 28620
    }
  ],
  "route": {
    "id": "2_0079",
    "textColor": "26171B",
    "color": "62C3D5",
    "description": "Métropolitaine",
    "longName": "Rennes (Henri Fréville) \u003c\u003e Laillé",
    "shortName": "79",
    "type": 3,
    "agencyId": "2"
  }
}