{
  "headsign": "67 | Rennes République",
  "stopTimes": [
    {
      "stop": {
        "id": "2_4151",
        "lat": 48.10975091,
        "lon": -1.48097238,
        "name": "Anjou",
        "code": 4151
      },
      "arrival": 59400,
      "departure": 59400
    },
    {
      "stop": {
        "id": "2_4152",
        "lat": 48.10905522,
        "lon": -1.47841022,
        "name": "Mainguère",
        "code": 4152
      },
      "arrival": 59460,
      "departure": 59460
    },
    {
      "stop": {
        "id": "2_4153",
        "lat": 48.10706253,
        "lon": -1.47914293,
        "name": "Saules",
        "code": 4153
      },
      "arrival": 59520,
      "departure": 59520
    },
    {
      "stop": {
        "id": "2_4154",
        "lat": 48.10749969,
        "lon": -1.48292686,
        "name": "Provence",
        "code": 4154
      },
      "arrival": 59520,
      "departure": 59520
    },
    {
      "stop": {
        "id": "2_4155",
        "lat": 48.10758916,
        "lon": -1.48614508,
        "name": "Destiers",
        "code": 4155
      },
      "arrival": 59580,
      "departure": 59580
    },
    {
      "stop": {
        "id": "2_4156",
        "lat": 48.10941494,
        "lon": -1.50301501,
        "name": "Pâtis",
        "code": 4156
      },
      "arrival": 59700,
      "departure": 59700
    },
    {
      "stop": {
        "id": "2_4162",
        "lat": 48.10839196,
        "lon": -1.5077338,
        "name": "Turbanière",
        "code": 4162
      },
      "arrival": 59760,
      "departure": 59760
    },
    {
      "stop": {
        "id": "2_1556",
        "lat": 48.10943229,
        "lon": -1.67763328,
        "name": "République",
        "code": 1556
      },
      "arrival": 61080,
      "departure": 61080
    }
  ],
  "route": {
    "id": "2_0067",
    "textColor": "FFFFFF",
    "color": "E2003B",
    "description": "Métropolitaine",
    "longName": "Rennes (République) \u003c\u003e Cesson-Sévigné / Brécé",
    "shortName": "67",
    "type": 3,
    "agencyId": "2"
  }
}