{
  "headsign": "2 | Haut Sancé",
  "stopTimes": [
    {
      "stop": {
        "id": "2_2801",
        "lat": 48.135818,
        "lon": -1.693158,
        "name": "Grand Quartier",
        "code": 2801
      },
      "arrival": 54420,
      "departure": 54420
    },
    {
      "stop": {
        "id": "2_2815",
        "lat": 48.13715,
        "lon": -1.686401,
        "name": "La Plesse",
        "code": 2815
      },
      "arrival": 54600,
      "departure": 54600
    },
    {
      "stop": {
        "id": "2_1328",
        "lat": 48.133338,
        "lon": -1.685372,
        "name": "Lycée Mendès France",
        "code": 1328
      },
      "arrival": 54660,
      "departure": 54660
    },
    {
      "stop": {
        "id": "2_1040",
        "lat": 48.130069,
        "lon": -1.684377,
        "name": "Donelière",
        "code": 1040
      },
      "arrival": 54720,
      "departure": 54720
    },
    {
      "stop": {
        "id": "2_1101",
        "lat": 48.127266,
        "lon": -1.68326,
        "name": "Trois Croix",
        "code": 1101
      },
      "arrival": 54780,
      "departure": 54780
    },
    {
      "stop": {
        "id": "2_1042",
        "lat": 48.124255,
        "lon": -1.681766,
        "name": "Cimetière Nord",
        "code": 1042
      },
      "arrival": 54840,
      "departure": 54840
    },
    {
      "stop": {
        "id": "2_1043",
        "lat": 48.123614,
        "lon": -1.684238,
        "name": "Saint-Martin",
        "code": 1043
      },
      "arrival": 54900,
      "departure": 54900
    },
    {
      "stop": {
        "id": "2_1044",
        "lat": 48.122179,
        "lon": -1.685924,
        "name": "ESPE",
        "code": 1044
      },
      "arrival": 54960,
      "departure": 54960
    },
    {
      "stop": {
        "id": "2_1046",
        "lat": 48.11824,
        "lon": -1.689403,
        "name": "Anatole France",
        "code": 1046
      },
      "arrival": 55080,
      "departure": 55080
    },
    {
      "stop": {
        "id": "2_1047",
        "lat": 48.11612,
        "lon": -1.691288,
        "name": "La Touche",
        "code": 1047
      },
      "arrival": 55140,
      "departure": 55140
    },
    {
      "stop": {
        "id": "2_1048",
        "lat": 48.113357,
        "lon": -1.693476,
        "name": "Brest Verdun",
        "code": 1048
      },
      "arrival": 55200,
      "departure": 55200
    },
    {
      "stop": {
        "id": "2_1049",
        "lat": 48.111632,
        "lon": -1.689371,
        "name": "Horizons",
        "code": 1049
      },
      "arrival": 55320,
      "departure": 55320
    },
    {
      "stop": {
        "id": "2_1050",
        "lat": 48.111647,
        "lon": -1.686999,
        "name": "Les Lices",
        "code": 1050
      },
      "arrival": 55380,
      "departure": 55380
    },
    {
      "stop": {
        "id": "2_1091",
        "lat": 48.109734,
        "lon": -1.68385,
        "name": "Place de Bretagne",
        "code": 1091
      },
      "arrival": 55500,
      "departure": 55500
    },
    {
      "stop": {
        "id": "2_1090",
        "lat": 48.109526,
        "lon": -1.677947,
        "name": "République",
        "code": 1090
      },
      "arrival": 55740,
      "departure": 55740
    },
    {
      "stop": {
        "id": "2_1088",
        "lat": 48.107377,
        "lon": -1.674981,
        "name": "Liberté TNB",
        "code": 1088
      },
      "arrival": 55920,
      "departure": 55920
    },
    {
      "stop": {
        "id": "2_1087",
        "lat": 48.105276,
        "lon": -1.673939,
        "name": "Champs Libres",
        "code": 1087
      },
      "arrival": 55980,
      "departure": 55980
    },
    {
      "stop": {
        "id": "2_1477",
        "lat": 48.103839,
        "lon": -1.67286,
        "name": "Gares",
        "code": 1477
      },
      "arrival": 56100,
      "departure": 56100
    },
    {
      "stop": {
        "id": "2_1085",
        "lat": 48.10471,
        "lon": -1.666557,
        "name": "Laënnec",
        "code": 1085
      },
      "arrival": 56220,
      "departure": 56220
    },
    {
      "stop": {
        "id": "2_1243",
        "lat": 48.102515,
        "lon": -1.661094,
        "name": "Croix Saint-Hélier",
        "code": 1243
      },
      "arrival": 56340,
      "departure": 56340
    },
    {
      "stop": {
        "id": "2_1060",
        "lat": 48.099452,
        "lon": -1.657522,
        "name": "Piré",
        "code": 1060
      },
      "arrival": 56400,
      "departure": 56400
    },
    {
      "stop": {
        "id": "2_1061",
        "lat": 48.097255,
        "lon": -1.654254,
        "name": "Bourgeois",
        "code": 1061
      },
      "arrival": 56460,
      "departure": 56460
    },
    {
      "stop": {
        "id": "2_1062",
        "lat": 48.09511,
        "lon": -1.650566,
        "name": "Calmette",
        "code": 1062
      },
      "arrival": 56580,
      "departure": 56580
    },
    {
      "stop": {
        "id": "2_1063",
        "lat": 48.09273,
        "lon": -1.64749,
        "name": "Monsieur Vincent",
        "code": 1063
      },
      "arrival": 56640,
      "departure": 56640
    },
    {
      "stop": {
        "id": "2_1064",
        "lat": 48.090281,
        "lon": -1.645018,
        "name": "Lycée Descartes",
        "code": 1064
      },
      "arrival": 56700,
      "departure": 56700
    },
    {
      "stop": {
        "id": "2_1077",
        "lat": 48.087413,
        "lon": -1.643436,
        "name": "La Poterie",
        "code": 1077
      },
      "arrival": 56760,
      "departure": 56760
    },
    {
      "stop": {
        "id": "2_1066",
        "lat": 48.087788,
        "lon": -1.638596,
        "name": "Monnet",
        "code": 1066
      },
      "arrival": 56820,
      "departure": 56820
    },
    {
      "stop": {
        "id": "2_1067",
        "lat": 48.089455,
        "lon": -1.635281,
        "name": "Bourgueil",
        "code": 1067
      },
      "arrival": 56880,
      "departure": 56880
    },
    {
      "stop": {
        "id": "2_1068",
        "lat": 48.092067,
        "lon": -1.636471,
        "name": "Gohier",
        "code": 1068
      },
      "arrival": 56940,
      "departure": 56940
    },
    {
      "stop": {
        "id": "2_1069",
        "lat": 48.092756,
        "lon": -1.63962,
        "name": "Ronceray",
        "code": 1069
      },
      "arrival": 57000,
      "departure": 57000
    },
    {
      "stop": {
        "id": "2_1070",
        "lat": 48.094492,
        "lon": -1.637889,
        "name": "CARSAT",
        "code": 1070
      },
      "arrival": 57000,
      "departure": 57000
    },
    {
      "stop": {
        "id": "2_1071",
        "lat": 48.096225,
        "lon": -1.636899,
        "name": "Haut Sancé",
        "code": 1071
      },
      "arrival": 57060,
      "departure": 57060
    }
  ],
  "route": {
    "id": "2_0002",
    "textColor": "FFFFFF",
    "color": "008BCF",
    "description": "Majeure",
    "longName": "Grand Quartier \u003c\u003e La Poterie / Haut Sancé",
    "shortName": "2",
    "type": 3,
    "agencyId": "2"
  }
}