{
  "headsign": "94 | Chevaigné Saint-Sulpice-la-F.",
  "stopTimes": [
    {
      "stop": {
        "id": "2_2417",
        "lat": 48.181747,
        "lon": -1.638457,
        "name": "Betton Centre",
        "code": 2417
      },
      "arrival": 40980,
      "departure": 40980
    },
    {
      "stop": {
        "id": "2_2435",
        "lat": 48.18312,
        "lon": -1.637107,
        "name": "Mozart",
        "code": 2435
      },
      "arrival": 41040,
      "departure": 41040
    },
    {
      "stop": {
        "id": "2_2434",
        "lat": 48.186441,
        "lon": -1.633092,
        "name": "J. Sébastien Bach",
        "code": 2434
      },
      "arrival": 41100,
      "departure": 41100
    },
    {
      "stop": {
        "id": "2_2458",
        "lat": 48.190991,
        "lon": -1.628981,
        "name": "Gentilhommière",
        "code": 2458
      },
      "arrival": 41220,
      "departure": 41220
    },
    {
      "stop": {
        "id": "2_4610",
        "lat": 48.199223,
        "lon": -1.627788,
        "name": "Chopinais",
        "code": 4610
      },
      "arrival": 41340,
      "departure": 41340
    },
    {
      "stop": {
        "id": "2_4608",
        "lat": 48.207963,
        "lon": -1.630549,
        "name": "Chevaigné Gare",
        "code": 4608
      },
      "arrival": 41460,
      "departure": 41460
    },
    {
      "stop": {
        "id": "2_4601",
        "lat": 48.211782,
        "lon": -1.630337,
        "name": "Chevaigné Mairie",
        "code": 4601
      },
      "arrival": 41520,
      "departure": 41520
    },
    {
      "stop": {
        "id": "2_4602",
        "lat": 48.214316,
        "lon": -1.628818,
        "name": "Fonderies",
        "code": 4602
      },
      "arrival": 41580,
      "departure": 41580
    },
    {
      "stop": {
        "id": "2_4603",
        "lat": 48.210932,
        "lon": -1.626041,
        "name": "Pommiers",
        "code": 4603
      },
      "arrival": 41640,
      "departure": 41640
    },
    {
      "stop": {
        "id": "2_3959",
        "lat": 48.211771,
        "lon": -1.590509,
        "name": "Tronchay",
        "code": 3959
      },
      "arrival": 41940,
      "departure": 41940
    },
    {
      "stop": {
        "id": "2_3954",
        "lat": 48.21475,
        "lon": -1.586501,
        "name": "Terrain des Sports",
        "code": 3954
      },
      "arrival": 42000,
      "departure": 42000
    },
    {
      "stop": {
        "id": "2_3961",
        "lat": 48.217752,
        "lon": -1.581363,
        "name": "Bourg",
        "code": 3961
      },
      "arrival": 42060,
      "departure": 42060
    },
    {
      "stop": {
        "id": "2_3962",
        "lat": 48.223126,
        "lon": -1.576679,
        "name": "Chesnais",
        "code": 3962
      },
      "arrival": 42120,
      "departure": 42120
    },
    {
      "stop": {
        "id": "2_3951",
        "lat": 48.225212,
        "lon": -1.570409,
        "name": "Cropy",
        "code": 3951
      },
      "arrival": 42180,
      "departure": 42180
    }
  ],
  "route": {
    "id": "2_0094",
    "textColor": "1A171B",
    "color": "AECC52",
    "description": "Intercommunale",
    "longName": "Saint-Sulpice-la-Forêt / Chevaigné \u003c\u003e Betton (Centre)",
    "shortName": "94",
    "type": 3,
    "agencyId": "2"
  }
}