{
  "headsign": "37 | Saint-Jacques Morinais",
  "stopTimes": [
    {
      "stop": {
        "id": "2_1447",
        "lat": 48.08731589,
        "lon": -1.6750163,
        "name": "Henri Fréville",
        "code": 1447
      },
      "arrival": 27000,
      "departure": 27000
    },
    {
      "stop": {
        "id": "2_2217",
        "lat": 48.09062505,
        "lon": -1.69500771,
        "name": "25 Fusillés",
        "code": 2217
      },
      "arrival": 27240,
      "departure": 27240
    },
    {
      "stop": {
        "id": "2_2231",
        "lat": 48.08691375,
        "lon": -1.70659822,
        "name": "Gaité",
        "code": 2231
      },
      "arrival": 27420,
      "departure": 27420
    },
    {
      "stop": {
        "id": "2_2251",
        "lat": 48.08662772,
        "lon": -1.7130712,
        "name": "Maffeys",
        "code": 2251
      },
      "arrival": 27480,
      "departure": 27480
    },
    {
      "stop": {
        "id": "2_2250",
        "lat": 48.08669367,
        "lon": -1.7219974,
        "name": "Reuzerais",
        "code": 2250
      },
      "arrival": 27600,
      "departure": 27600
    },
    {
      "stop": {
        "id": "2_2254",
        "lat": 48.08380838,
        "lon": -1.73009441,
        "name": "Le Pâtis",
        "code": 2254
      },
      "arrival": 27660,
      "departure": 27660
    },
    {
      "stop": {
        "id": "2_2255",
        "lat": 48.07927938,
        "lon": -1.73326336,
        "name": "Bellevue",
        "code": 2255
      },
      "arrival": 27780,
      "departure": 27780
    },
    {
      "stop": {
        "id": "2_2268",
        "lat": 48.07511694,
        "lon": -1.72878397,
        "name": "Auriol",
        "code": 2268
      },
      "arrival": 27900,
      "departure": 27900
    },
    {
      "stop": {
        "id": "2_2201",
        "lat": 48.07546226,
        "lon": -1.71635318,
        "name": "Morinais",
        "code": 2201
      },
      "arrival": 28020,
      "departure": 28020
    }
  ],
  "route": {
    "id": "2_0037",
    "textColor": "E2001A",
    "color": "FFF164",
    "description": "Inter-quartiers",
    "longName": "Henri Fréville \u003c\u003e Saint-Jacques-de-la-Lande (Morinais)",
    "shortName": "37",
    "type": 3,
    "agencyId": "2"
  }
}