{
  "headsign": "71 | Betton Chevaigné",
  "stopTimes": [
    {
      "stop": {
        "id": "2_1606",
        "lat": 48.115697,
        "lon": -1.676699,
        "name": "Hoche",
        "code": 1606
      },
      "arrival": 67800,
      "departure": 67800
    },
    {
      "stop": {
        "id": "2_1279",
        "lat": 48.119451,
        "lon": -1.674371,
        "name": "Rectorat",
        "code": 1279
      },
      "arrival": 67920,
      "departure": 67920
    },
    {
      "stop": {
        "id": "2_1280",
        "lat": 48.121404,
        "lon": -1.670825,
        "name": "Jules Ferry",
        "code": 1280
      },
      "arrival": 68040,
      "departure": 68040
    },
    {
      "stop": {
        "id": "2_1281",
        "lat": 48.125362,
        "lon": -1.66626,
        "name": "Volney",
        "code": 1281
      },
      "arrival": 68160,
      "departure": 68160
    },
    {
      "stop": {
        "id": "2_1490",
        "lat": 48.136021,
        "lon": -1.659114,
        "name": "Hôtel de Région",
        "code": 1490
      },
      "arrival": 68400,
      "departure": 68400
    },
    {
      "stop": {
        "id": "2_1491",
        "lat": 48.13892,
        "lon": -1.658273,
        "name": "Saint-Laurent",
        "code": 1491
      },
      "arrival": 68460,
      "departure": 68460
    },
    {
      "stop": {
        "id": "2_2829",
        "lat": 48.149378,
        "lon": -1.656411,
        "name": "Maison Blanche",
        "code": 2829
      },
      "arrival": 68580,
      "departure": 68580
    },
    {
      "stop": {
        "id": "2_2412",
        "lat": 48.162059,
        "lon": -1.647356,
        "name": "Betton Vallée",
        "code": 2412
      },
      "arrival": 68700,
      "departure": 68700
    },
    {
      "stop": {
        "id": "2_2413",
        "lat": 48.171155,
        "lon": -1.641673,
        "name": "Enseigne Abbaye",
        "code": 2413
      },
      "arrival": 68760,
      "departure": 68760
    },
    {
      "stop": {
        "id": "2_2436",
        "lat": 48.175974,
        "lon": -1.63946,
        "name": "Betton Rue de Rennes",
        "code": 2436
      },
      "arrival": 68820,
      "departure": 68820
    },
    {
      "stop": {
        "id": "2_2417",
        "lat": 48.181747,
        "lon": -1.638457,
        "name": "Betton Centre",
        "code": 2417
      },
      "arrival": 68940,
      "departure": 68940
    },
    {
      "stop": {
        "id": "2_2435",
        "lat": 48.18312,
        "lon": -1.637107,
        "name": "Mozart",
        "code": 2435
      },
      "arrival": 69000,
      "departure": 69000
    },
    {
      "stop": {
        "id": "2_2434",
        "lat": 48.186441,
        "lon": -1.633092,
        "name": "J. Sébastien Bach",
        "code": 2434
      },
      "arrival": 69060,
      "departure": 69060
    },
    {
      "stop": {
        "id": "2_2458",
        "lat": 48.190991,
        "lon": -1.628981,
        "name": "Gentilhommière",
        "code": 2458
      },
      "arrival": 69180,
      "departure": 69180
    },
    {
      "stop": {
        "id": "2_4610",
        "lat": 48.199223,
        "lon": -1.627788,
        "name": "Chopinais",
        "code": 4610
      },
      "arrival": 69300,
      "departure": 69300
    },
    {
      "stop": {
        "id": "2_4608",
        "lat": 48.207963,
        "lon": -1.630549,
        "name": "Chevaigné Gare",
        "code": 4608
      },
      "arrival": 69480,
      "departure": 69480
    },
    {
      "stop": {
        "id": "2_4601",
        "lat": 48.211782,
        "lon": -1.630337,
        "name": "Chevaigné Mairie",
        "code": 4601
      },
      "arrival": 69540,
      "departure": 69540
    },
    {
      "stop": {
        "id": "2_4602",
        "lat": 48.214316,
        "lon": -1.628818,
        "name": "Fonderies",
        "code": 4602
      },
      "arrival": 69600,
      "departure": 69600
    },
    {
      "stop": {
        "id": "2_4603",
        "lat": 48.210932,
        "lon": -1.626041,
        "name": "Pommiers",
        "code": 4603
      },
      "arrival": 69660,
      "departure": 69660
    }
  ],
  "route": {
    "id": "2_0071",
    "textColor": "FFFFFF",
    "color": "A9701E",
    "description": "Métropolitaine",
    "longName": "Rennes (Hoche) \u003c\u003e Betton / Chevaigné",
    "shortName": "71",
    "type": 3,
    "agencyId": "2"
  }
}