{
  "headsign": "151 | Betton Champ Devant",
  "stopTimes": [
    {
      "stop": {
        "id": "2_1606",
        "lat": 48.115697,
        "lon": -1.676699,
        "name": "Hoche",
        "code": 1606
      },
      "arrival": 65100,
      "departure": 65100
    },
    {
      "stop": {
        "id": "2_1280",
        "lat": 48.121404,
        "lon": -1.670825,
        "name": "Jules Ferry",
        "code": 1280
      },
      "arrival": 65340,
      "departure": 65340
    },
    {
      "stop": {
        "id": "2_1491",
        "lat": 48.13892,
        "lon": -1.658273,
        "name": "Saint-Laurent",
        "code": 1491
      },
      "arrival": 65880,
      "departure": 65880
    },
    {
      "stop": {
        "id": "2_2436",
        "lat": 48.175974,
        "lon": -1.63946,
        "name": "Betton Rue de Rennes",
        "code": 2436
      },
      "arrival": 66180,
      "departure": 66180
    },
    {
      "stop": {
        "id": "2_2437",
        "lat": 48.181703,
        "lon": -1.639251,
        "name": "Betton Centre",
        "code": 2437
      },
      "arrival": 66360,
      "departure": 66360
    },
    {
      "stop": {
        "id": "2_2418",
        "lat": 48.181986,
        "lon": -1.641399,
        "name": "Betton Mairie",
        "code": 2418
      },
      "arrival": 66420,
      "departure": 66420
    },
    {
      "stop": {
        "id": "2_2419",
        "lat": 48.183195,
        "lon": -1.646546,
        "name": "Trégor",
        "code": 2419
      },
      "arrival": 66480,
      "departure": 66480
    },
    {
      "stop": {
        "id": "2_2420",
        "lat": 48.180579,
        "lon": -1.652229,
        "name": "Brocéliande",
        "code": 2420
      },
      "arrival": 66660,
      "departure": 66660
    },
    {
      "stop": {
        "id": "2_2421",
        "lat": 48.179175,
        "lon": -1.65123,
        "name": "Omblais",
        "code": 2421
      },
      "arrival": 66660,
      "departure": 66660
    },
    {
      "stop": {
        "id": "2_2401",
        "lat": 48.177029,
        "lon": -1.651134,
        "name": "Champ Devant",
        "code": 2401
      },
      "arrival": 66780,
      "departure": 66780
    }
  ],
  "route": {
    "id": "2_0151",
    "textColor": "3D3C3F",
    "color": "FFDD00",
    "description": "Express métropolitaine",
    "longName": "Rennes (Hoche) \u003c\u003e Betton (Champ Devant)",
    "shortName": "151",
    "type": 3,
    "agencyId": "2"
  }
}