{
  "headsign": "151 | Rennes Hoche",
  "stopTimes": [
    {
      "stop": {
        "id": "2_2401",
        "lat": 48.177029,
        "lon": -1.651134,
        "name": "Champ Devant",
        "code": 2401
      },
      "arrival": 29700,
      "departure": 29700
    },
    {
      "stop": {
        "id": "2_2402",
        "lat": 48.179301,
        "lon": -1.651047,
        "name": "Omblais",
        "code": 2402
      },
      "arrival": 29760,
      "departure": 29760
    },
    {
      "stop": {
        "id": "2_2403",
        "lat": 48.180722,
        "lon": -1.651937,
        "name": "Brocéliande",
        "code": 2403
      },
      "arrival": 29760,
      "departure": 29760
    },
    {
      "stop": {
        "id": "2_2404",
        "lat": 48.183007,
        "lon": -1.646075,
        "name": "Trégor",
        "code": 2404
      },
      "arrival": 29880,
      "departure": 29880
    },
    {
      "stop": {
        "id": "2_2405",
        "lat": 48.181894,
        "lon": -1.641783,
        "name": "Betton Mairie",
        "code": 2405
      },
      "arrival": 29940,
      "departure": 29940
    },
    {
      "stop": {
        "id": "2_2406",
        "lat": 48.181123,
        "lon": -1.637898,
        "name": "Betton Centre",
        "code": 2406
      },
      "arrival": 30000,
      "departure": 30000
    },
    {
      "stop": {
        "id": "2_2430",
        "lat": 48.175999,
        "lon": -1.639619,
        "name": "Betton Rue de Rennes",
        "code": 2430
      },
      "arrival": 30120,
      "departure": 30120
    },
    {
      "stop": {
        "id": "2_1485",
        "lat": 48.137957,
        "lon": -1.658769,
        "name": "Saint-Laurent",
        "code": 1485
      },
      "arrival": 30480,
      "departure": 30480
    },
    {
      "stop": {
        "id": "2_1011",
        "lat": 48.118312,
        "lon": -1.671315,
        "name": "Fac de Droit",
        "code": 1011
      },
      "arrival": 31260,
      "departure": 31260
    },
    {
      "stop": {
        "id": "2_1606",
        "lat": 48.115697,
        "lon": -1.676699,
        "name": "Hoche",
        "code": 1606
      },
      "arrival": 31440,
      "departure": 31440
    }
  ],
  "route": {
    "id": "2_0151",
    "textColor": "3D3C3F",
    "color": "FFDD00",
    "description": "Express métropolitaine",
    "longName": "Rennes (Hoche) \u003c\u003e Betton (Champ Devant)",
    "shortName": "151",
    "type": 3,
    "agencyId": "2"
  }
}