{
  "headsign": "1 | Chantepie Rosa Parks",
  "stopTimes": [
    {
      "stop": {
        "id": "2_2126",
        "lat": 48.13476313,
        "lon": -1.62183196,
        "name": "Champs Blancs",
        "code": 2126
      },
      "arrival": 66660,
      "departure": 66660
    },
    {
      "stop": {
        "id": "2_2124",
        "lat": 48.1315893,
        "lon": -1.62465329,
        "name": "Chêne Germain",
        "code": 2124
      },
      "arrival": 66780,
      "departure": 66780
    },
    {
      "stop": {
        "id": "2_2002",
        "lat": 48.13019422,
        "lon": -1.62766711,
        "name": "Cesson Hôpital Privé",
        "code": 2002
      },
      "arrival": 66840,
      "departure": 66840
    },
    {
      "stop": {
        "id": "2_1001",
        "lat": 48.12903716,
        "lon": -1.6325079,
        "name": "Longs Champs",
        "code": 1001
      },
      "arrival": 66900,
      "departure": 66900
    },
    {
      "stop": {
        "id": "2_1002",
        "lat": 48.12826604,
        "lon": -1.6376562,
        "name": "Bouzat",
        "code": 1002
      },
      "arrival": 66960,
      "departure": 66960
    },
    {
      "stop": {
        "id": "2_1003",
        "lat": 48.12744122,
        "lon": -1.64029002,
        "name": "Gallets",
        "code": 1003
      },
      "arrival": 67020,
      "departure": 67020
    },
    {
      "stop": {
        "id": "2_1004",
        "lat": 48.12528847,
        "lon": -1.64253775,
        "name": "Donzelot",
        "code": 1004
      },
      "arrival": 67080,
      "departure": 67080
    },
    {
      "stop": {
        "id": "2_1005",
        "lat": 48.1233588,
        "lon": -1.64623199,
        "name": "Mirabeau",
        "code": 1005
      },
      "arrival": 67140,
      "departure": 67140
    },
    {
      "stop": {
        "id": "2_1006",
        "lat": 48.12226259,
        "lon": -1.65069568,
        "name": "Turmel",
        "code": 1006
      },
      "arrival": 67200,
      "departure": 67200
    },
    {
      "stop": {
        "id": "2_1007",
        "lat": 48.12141888,
        "lon": -1.65505801,
        "name": "Assomption",
        "code": 1007
      },
      "arrival": 67260,
      "departure": 67260
    },
    {
      "stop": {
        "id": "2_1008",
        "lat": 48.12317413,
        "lon": -1.6602443,
        "name": "Painlevé",
        "code": 1008
      },
      "arrival": 67380,
      "departure": 67380
    },
    {
      "stop": {
        "id": "2_1009",
        "lat": 48.12162483,
        "lon": -1.6631771,
        "name": "Metz Volney",
        "code": 1009
      },
      "arrival": 67440,
      "departure": 67440
    },
    {
      "stop": {
        "id": "2_1010",
        "lat": 48.11917575,
        "lon": -1.66765915,
        "name": "Guéhenno",
        "code": 1010
      },
      "arrival": 67560,
      "departure": 67560
    },
    {
      "stop": {
        "id": "2_1011",
        "lat": 48.11830509,
        "lon": -1.67120349,
        "name": "Fac de Droit",
        "code": 1011
      },
      "arrival": 67620,
      "departure": 67620
    },
    {
      "stop": {
        "id": "2_1012",
        "lat": 48.11603572,
        "lon": -1.67418235,
        "name": "Sévigné",
        "code": 1012
      },
      "arrival": 67680,
      "departure": 67680
    },
    {
      "stop": {
        "id": "2_1014",
        "lat": 48.11371104,
        "lon": -1.67903599,
        "name": "Sainte-Anne",
        "code": 1014
      },
      "arrival": 67860,
      "departure": 67860
    },
    {
      "stop": {
        "id": "2_1015",
        "lat": 48.11252173,
        "lon": -1.68031651,
        "name": "Champ Jacquet",
        "code": 1015
      },
      "arrival": 67920,
      "departure": 67920
    },
    {
      "stop": {
        "id": "2_1024",
        "lat": 48.10997886,
        "lon": -1.68021216,
        "name": "République Nemours",
        "code": 1024
      },
      "arrival": 68100,
      "departure": 68100
    },
    {
      "stop": {
        "id": "2_1017",
        "lat": 48.10834874,
        "lon": -1.6801754,
        "name": "Les Halles",
        "code": 1017
      },
      "arrival": 68160,
      "departure": 68160
    },
    {
      "stop": {
        "id": "2_1088",
        "lat": 48.10744897,
        "lon": -1.67491383,
        "name": "Liberté TNB",
        "code": 1088
      },
      "arrival": 68340,
      "departure": 68340
    },
    {
      "stop": {
        "id": "2_1087",
        "lat": 48.1060299,
        "lon": -1.67410184,
        "name": "Champs Libres",
        "code": 1087
      },
      "arrival": 68400,
      "departure": 68400
    },
    {
      "stop": {
        "id": "2_1575",
        "lat": 48.10375866,
        "lon": -1.67132416,
        "name": "Gares",
        "code": 1575
      },
      "arrival": 68520,
      "departure": 68520
    },
    {
      "stop": {
        "id": "2_1085",
        "lat": 48.10476768,
        "lon": -1.66658594,
        "name": "Laënnec",
        "code": 1085
      },
      "arrival": 68640,
      "departure": 68640
    },
    {
      "stop": {
        "id": "2_1243",
        "lat": 48.10254897,
        "lon": -1.66111869,
        "name": "Croix Saint-Hélier",
        "code": 1243
      },
      "arrival": 68700,
      "departure": 68700
    },
    {
      "stop": {
        "id": "2_1316",
        "lat": 48.10120612,
        "lon": -1.65296379,
        "name": "Raison",
        "code": 1316
      },
      "arrival": 68760,
      "departure": 68760
    },
    {
      "stop": {
        "id": "2_1317",
        "lat": 48.10013962,
        "lon": -1.64938444,
        "name": "Villebois-Mareuil",
        "code": 1317
      },
      "arrival": 68820,
      "departure": 68820
    },
    {
      "stop": {
        "id": "2_1318",
        "lat": 48.0991475,
        "lon": -1.64597327,
        "name": "Landry",
        "code": 1318
      },
      "arrival": 68880,
      "departure": 68880
    },
    {
      "stop": {
        "id": "2_1319",
        "lat": 48.09705567,
        "lon": -1.64164476,
        "name": "Domaine",
        "code": 1319
      },
      "arrival": 68940,
      "departure": 68940
    },
    {
      "stop": {
        "id": "2_1320",
        "lat": 48.09498429,
        "lon": -1.63725113,
        "name": "CARSAT",
        "code": 1320
      },
      "arrival": 69000,
      "departure": 69000
    },
    {
      "stop": {
        "id": "2_1321",
        "lat": 48.09387292,
        "lon": -1.63388392,
        "name": "Sauvaie",
        "code": 1321
      },
      "arrival": 69060,
      "departure": 69060
    },
    {
      "stop": {
        "id": "2_3008",
        "lat": 48.09037236,
        "lon": -1.62410496,
        "name": "Loges",
        "code": 3008
      },
      "arrival": 69240,
      "departure": 69240
    },
    {
      "stop": {
        "id": "2_3009",
        "lat": 48.08836667,
        "lon": -1.61906683,
        "name": "Chantepie Mairie",
        "code": 3009
      },
      "arrival": 69300,
      "departure": 69300
    },
    {
      "stop": {
        "id": "2_3010",
        "lat": 48.08826039,
        "lon": -1.61687329,
        "name": "Chantepie Eglise",
        "code": 3010
      },
      "arrival": 69360,
      "departure": 69360
    },
    {
      "stop": {
        "id": "2_3011",
        "lat": 48.09043747,
        "lon": -1.61532491,
        "name": "Hallouvry",
        "code": 3011
      },
      "arrival": 69420,
      "departure": 69420
    },
    {
      "stop": {
        "id": "2_3012",
        "lat": 48.08828195,
        "lon": -1.61236516,
        "name": "Bourgogne",
        "code": 3012
      },
      "arrival": 69480,
      "departure": 69480
    },
    {
      "stop": {
        "id": "2_3013",
        "lat": 48.08586496,
        "lon": -1.61469687,
        "name": "Deux Ruisseaux",
        "code": 3013
      },
      "arrival": 69540,
      "departure": 69540
    },
    {
      "stop": {
        "id": "2_3001",
        "lat": 48.08507081,
        "lon": -1.61034947,
        "name": "Gériatrie",
        "code": 3001
      },
      "arrival": 69600,
      "departure": 69600
    },
    {
      "stop": {
        "id": "2_3029",
        "lat": 48.08573322,
        "lon": -1.60747448,
        "name": "Touche Annette",
        "code": 3029
      },
      "arrival": 69720,
      "departure": 69720
    },
    {
      "stop": {
        "id": "2_3028",
        "lat": 48.08547293,
        "lon": -1.60397916,
        "name": "Rosa Parks",
        "code": 3028
      },
      "arrival": 69780,
      "departure": 69780
    }
  ],
  "route": {
    "id": "2_0001",
    "textColor": "1A171B",
    "color": "97BF0D",
    "description": "Majeure",
    "longName": "Cesson-Sévigné (Champs Blancs) \u003c\u003e Chantepie (Rosa Parks)",
    "shortName": "1",
    "type": 3,
    "agencyId": "2"
  }
}