{
  "headsign": "76 | Rennes Lycée Basch",
  "stopTimes": [
    {
      "stop": {
        "id": "2_2502",
        "lat": 48.1005527,
        "lon": -1.80657108,
        "name": "Lycée Monod",
        "code": 2502
      },
      "arrival": 27600,
      "departure": 27600
    },
    {
      "stop": {
        "id": "2_2503",
        "lat": 48.09895196,
        "lon": -1.80139197,
        "name": "Champs Freslons",
        "code": 2503
      },
      "arrival": 27720,
      "departure": 27720
    },
    {
      "stop": {
        "id": "2_2504",
        "lat": 48.0989712,
        "lon": -1.79693897,
        "name": "Brassens",
        "code": 2504
      },
      "arrival": 27780,
      "departure": 27780
    },
    {
      "stop": {
        "id": "2_2505",
        "lat": 48.10163022,
        "lon": -1.79451553,
        "name": "Bouleaux",
        "code": 2505
      },
      "arrival": 27840,
      "departure": 27840
    },
    {
      "stop": {
        "id": "2_2538",
        "lat": 48.10227061,
        "lon": -1.78737929,
        "name": "Gaston Bardet",
        "code": 2538
      },
      "arrival": 27900,
      "departure": 27900
    },
    {
      "stop": {
        "id": "2_3756",
        "lat": 48.1190811,
        "lon": -1.76101447,
        "name": "Lion d\u0027Or",
        "code": 3756
      },
      "arrival": 28440,
      "departure": 28440
    },
    {
      "stop": {
        "id": "2_3757",
        "lat": 48.11889936,
        "lon": -1.75681107,
        "name": "Vezin Centre",
        "code": 3757
      },
      "arrival": 28560,
      "departure": 28560
    },
    {
      "stop": {
        "id": "2_3770",
        "lat": 48.11899882,
        "lon": -1.74937216,
        "name": "Champs Bleus",
        "code": 3770
      },
      "arrival": 28620,
      "departure": 28620
    },
    {
      "stop": {
        "id": "2_1422",
        "lat": 48.11628685,
        "lon": -1.71146403,
        "name": "Merlin",
        "code": 1422
      },
      "arrival": 28920,
      "departure": 28920
    },
    {
      "stop": {
        "id": "2_1295",
        "lat": 48.11673996,
        "lon": -1.70463882,
        "name": "Berger",
        "code": 1295
      },
      "arrival": 29100,
      "departure": 29100
    },
    {
      "stop": {
        "id": "2_1297",
        "lat": 48.12180414,
        "lon": -1.70378405,
        "name": "Villejean-Université",
        "code": 1297
      },
      "arrival": 29340,
      "departure": 29340
    },
    {
      "stop": {
        "id": "2_1566",
        "lat": 48.12537009,
        "lon": -1.69257643,
        "name": "Lycée Basch",
        "code": 1566
      },
      "arrival": 29640,
      "departure": 29640
    }
  ],
  "route": {
    "id": "2_0076",
    "textColor": "0063B0",
    "color": "FCE000",
    "description": "Express métropolitaine",
    "longName": "Rennes (Villejean-Université) \u003c\u003e Vezin-le-Coquet / Le Rheu",
    "shortName": "76",
    "type": 3,
    "agencyId": "2"
  }
}