{
  "headsign": "1 | Cesson-Sévigné Champs Blancs",
  "stopTimes": [
    {
      "stop": {
        "id": "2_1016",
        "lat": 48.11007256,
        "lon": -1.6801671,
        "name": "République Nemours",
        "code": 1016
      },
      "arrival": 27240,
      "departure": 27240
    },
    {
      "stop": {
        "id": "2_1025",
        "lat": 48.11273566,
        "lon": -1.68025817,
        "name": "Champ Jacquet",
        "code": 1025
      },
      "arrival": 27360,
      "departure": 27360
    },
    {
      "stop": {
        "id": "2_1026",
        "lat": 48.11478452,
        "lon": -1.67927843,
        "name": "Sainte-Anne",
        "code": 1026
      },
      "arrival": 27420,
      "departure": 27420
    },
    {
      "stop": {
        "id": "2_1027",
        "lat": 48.11723114,
        "lon": -1.67736823,
        "name": "Hôtel Dieu",
        "code": 1027
      },
      "arrival": 27540,
      "departure": 27540
    },
    {
      "stop": {
        "id": "2_1028",
        "lat": 48.11750653,
        "lon": -1.67360984,
        "name": "Sévigné",
        "code": 1028
      },
      "arrival": 27600,
      "departure": 27600
    },
    {
      "stop": {
        "id": "2_1029",
        "lat": 48.11831975,
        "lon": -1.66969704,
        "name": "Fac de Droit",
        "code": 1029
      },
      "arrival": 27660,
      "departure": 27660
    },
    {
      "stop": {
        "id": "2_1030",
        "lat": 48.11947818,
        "lon": -1.66685122,
        "name": "Guéhenno",
        "code": 1030
      },
      "arrival": 27720,
      "departure": 27720
    },
    {
      "stop": {
        "id": "2_1031",
        "lat": 48.1220044,
        "lon": -1.66224129,
        "name": "Metz Volney",
        "code": 1031
      },
      "arrival": 27840,
      "departure": 27840
    },
    {
      "stop": {
        "id": "2_1032",
        "lat": 48.12331854,
        "lon": -1.65932809,
        "name": "Painlevé",
        "code": 1032
      },
      "arrival": 27900,
      "departure": 27900
    },
    {
      "stop": {
        "id": "2_1033",
        "lat": 48.12132369,
        "lon": -1.65499372,
        "name": "Assomption",
        "code": 1033
      },
      "arrival": 28020,
      "departure": 28020
    },
    {
      "stop": {
        "id": "2_1034",
        "lat": 48.12221902,
        "lon": -1.65061867,
        "name": "Turmel",
        "code": 1034
      },
      "arrival": 28080,
      "departure": 28080
    },
    {
      "stop": {
        "id": "2_1035",
        "lat": 48.12370157,
        "lon": -1.64529281,
        "name": "Mirabeau",
        "code": 1035
      },
      "arrival": 28200,
      "departure": 28200
    },
    {
      "stop": {
        "id": "2_1036",
        "lat": 48.12553894,
        "lon": -1.64212893,
        "name": "Donzelot",
        "code": 1036
      },
      "arrival": 28260,
      "departure": 28260
    },
    {
      "stop": {
        "id": "2_1037",
        "lat": 48.12774029,
        "lon": -1.6400201,
        "name": "Gallets",
        "code": 1037
      },
      "arrival": 28260,
      "departure": 28260
    },
    {
      "stop": {
        "id": "2_1038",
        "lat": 48.12826339,
        "lon": -1.6372655,
        "name": "Bouzat",
        "code": 1038
      },
      "arrival": 28320,
      "departure": 28320
    },
    {
      "stop": {
        "id": "2_1039",
        "lat": 48.12901691,
        "lon": -1.63243041,
        "name": "Longs Champs",
        "code": 1039
      },
      "arrival": 28380,
      "departure": 28380
    },
    {
      "stop": {
        "id": "2_2003",
        "lat": 48.13011384,
        "lon": -1.62802968,
        "name": "Cesson Hôpital Privé",
        "code": 2003
      },
      "arrival": 28500,
      "departure": 28500
    },
    {
      "stop": {
        "id": "2_2112",
        "lat": 48.13075338,
        "lon": -1.62292888,
        "name": "Chêne Germain",
        "code": 2112
      },
      "arrival": 28560,
      "departure": 28560
    },
    {
      "stop": {
        "id": "2_2116",
        "lat": 48.13488248,
        "lon": -1.62068447,
        "name": "Champs Blancs",
        "code": 2116
      },
      "arrival": 28740,
      "departure": 28740
    }
  ],
  "route": {
    "id": "2_0001",
    "textColor": "FFFFFF",
    "color": "90C01B",
    "description": "Majeure",
    "longName": "Cesson-Sévigné (Champs Blancs) \u003c\u003e Chantepie (Rosa Parks)",
    "shortName": "1",
    "type": 3,
    "agencyId": "2"
  }
}