{
  "headsign": "201 | Cesson-Sévigné Thorigné",
  "stopTimes": [
    {
      "stop": {
        "id": "2_1429",
        "lat": 48.127628,
        "lon": -1.650898,
        "name": "Joliot-Curie",
        "code": 1429
      },
      "arrival": 42300,
      "departure": 42300
    },
    {
      "stop": {
        "id": "2_2077",
        "lat": 48.134244,
        "lon": -1.628839,
        "name": "Lande Bouhard",
        "code": 2077
      },
      "arrival": 42600,
      "departure": 42600
    },
    {
      "stop": {
        "id": "2_2072",
        "lat": 48.140592,
        "lon": -1.616329,
        "name": "Calendrou",
        "code": 2072
      },
      "arrival": 42780,
      "departure": 42780
    },
    {
      "stop": {
        "id": "2_2073",
        "lat": 48.145118,
        "lon": -1.608407,
        "name": "Victoire",
        "code": 2073
      },
      "arrival": 42840,
      "departure": 42840
    },
    {
      "stop": {
        "id": "2_3310",
        "lat": 48.156448,
        "lon": -1.591842,
        "name": "Portail",
        "code": 3310
      },
      "arrival": 43020,
      "departure": 43020
    },
    {
      "stop": {
        "id": "2_3311",
        "lat": 48.160618,
        "lon": -1.585461,
        "name": "Fouillard",
        "code": 3311
      },
      "arrival": 43140,
      "departure": 43140
    },
    {
      "stop": {
        "id": "2_3312",
        "lat": 48.162934,
        "lon": -1.579182,
        "name": "Juteauderies",
        "code": 3312
      },
      "arrival": 43260,
      "departure": 43260
    },
    {
      "stop": {
        "id": "2_3313",
        "lat": 48.159169,
        "lon": -1.579798,
        "name": "Bocage",
        "code": 3313
      },
      "arrival": 43380,
      "departure": 43380
    },
    {
      "stop": {
        "id": "2_3304",
        "lat": 48.155658,
        "lon": -1.580848,
        "name": "Anne de Bretagne",
        "code": 3304
      },
      "arrival": 43440,
      "departure": 43440
    },
    {
      "stop": {
        "id": "2_3302",
        "lat": 48.153039,
        "lon": -1.579445,
        "name": "Thorigné Mairie",
        "code": 3302
      },
      "arrival": 43500,
      "departure": 43500
    },
    {
      "stop": {
        "id": "2_3323",
        "lat": 48.149262,
        "lon": -1.577059,
        "name": "Curien",
        "code": 3323
      },
      "arrival": 43620,
      "departure": 43620
    },
    {
      "stop": {
        "id": "2_3301",
        "lat": 48.155188,
        "lon": -1.573107,
        "name": "Landelles",
        "code": 3301
      },
      "arrival": 43740,
      "departure": 43740
    }
  ],
  "route": {
    "id": "2_0201",
    "textColor": "FFFFFF",
    "color": "E30613",
    "description": "Complémentaire",
    "longName": "Thorigné-Fouillard (Landelles) \u003c\u003e Rennes (Lycée Assomption)",
    "shortName": "201",
    "type": 3,
    "agencyId": "2"
  }
}