{
  "headsign": "2 | Grand Quartier",
  "stopTimes": [
    {
      "stop": {
        "id": "2_1071",
        "lat": 48.096225,
        "lon": -1.636899,
        "name": "Haut Sancé",
        "code": 1071
      },
      "arrival": 26460,
      "departure": 26460
    },
    {
      "stop": {
        "id": "2_1072",
        "lat": 48.094922,
        "lon": -1.638,
        "name": "CARSAT",
        "code": 1072
      },
      "arrival": 26520,
      "departure": 26520
    },
    {
      "stop": {
        "id": "2_1073",
        "lat": 48.092528,
        "lon": -1.639658,
        "name": "Ronceray",
        "code": 1073
      },
      "arrival": 26580,
      "departure": 26580
    },
    {
      "stop": {
        "id": "2_1074",
        "lat": 48.091827,
        "lon": -1.636274,
        "name": "Gohier",
        "code": 1074
      },
      "arrival": 26640,
      "departure": 26640
    },
    {
      "stop": {
        "id": "2_1075",
        "lat": 48.089486,
        "lon": -1.635568,
        "name": "Bourgueil",
        "code": 1075
      },
      "arrival": 26700,
      "departure": 26700
    },
    {
      "stop": {
        "id": "2_1076",
        "lat": 48.087986,
        "lon": -1.638421,
        "name": "Monnet",
        "code": 1076
      },
      "arrival": 26760,
      "departure": 26760
    },
    {
      "stop": {
        "id": "2_1065",
        "lat": 48.087621,
        "lon": -1.64393,
        "name": "La Poterie",
        "code": 1065
      },
      "arrival": 26820,
      "departure": 26820
    },
    {
      "stop": {
        "id": "2_1078",
        "lat": 48.089972,
        "lon": -1.64466,
        "name": "Lycée Descartes",
        "code": 1078
      },
      "arrival": 26880,
      "departure": 26880
    },
    {
      "stop": {
        "id": "2_1079",
        "lat": 48.092772,
        "lon": -1.647205,
        "name": "Monsieur Vincent",
        "code": 1079
      },
      "arrival": 27000,
      "departure": 27000
    },
    {
      "stop": {
        "id": "2_1080",
        "lat": 48.095953,
        "lon": -1.651543,
        "name": "Calmette",
        "code": 1080
      },
      "arrival": 27120,
      "departure": 27120
    },
    {
      "stop": {
        "id": "2_1081",
        "lat": 48.09806,
        "lon": -1.655275,
        "name": "Bourgeois",
        "code": 1081
      },
      "arrival": 27180,
      "departure": 27180
    },
    {
      "stop": {
        "id": "2_1082",
        "lat": 48.099871,
        "lon": -1.657775,
        "name": "Piré",
        "code": 1082
      },
      "arrival": 27300,
      "departure": 27300
    },
    {
      "stop": {
        "id": "2_1213",
        "lat": 48.102902,
        "lon": -1.661403,
        "name": "Croix Saint-Hélier",
        "code": 1213
      },
      "arrival": 27360,
      "departure": 27360
    },
    {
      "stop": {
        "id": "2_1057",
        "lat": 48.104747,
        "lon": -1.667176,
        "name": "Laënnec",
        "code": 1057
      },
      "arrival": 27480,
      "departure": 27480
    },
    {
      "stop": {
        "id": "2_1056",
        "lat": 48.103956,
        "lon": -1.673185,
        "name": "Gares",
        "code": 1056
      },
      "arrival": 27660,
      "departure": 27660
    },
    {
      "stop": {
        "id": "2_1055",
        "lat": 48.106057,
        "lon": -1.67401,
        "name": "Champs Libres",
        "code": 1055
      },
      "arrival": 27780,
      "departure": 27780
    },
    {
      "stop": {
        "id": "2_1054",
        "lat": 48.107564,
        "lon": -1.675176,
        "name": "Liberté TNB",
        "code": 1054
      },
      "arrival": 27840,
      "departure": 27840
    },
    {
      "stop": {
        "id": "2_1315",
        "lat": 48.109698,
        "lon": -1.678048,
        "name": "République",
        "code": 1315
      },
      "arrival": 28020,
      "departure": 28020
    },
    {
      "stop": {
        "id": "2_1051",
        "lat": 48.109888,
        "lon": -1.68328,
        "name": "Place de Bretagne",
        "code": 1051
      },
      "arrival": 28140,
      "departure": 28140
    },
    {
      "stop": {
        "id": "2_1092",
        "lat": 48.111759,
        "lon": -1.686216,
        "name": "Les Lices",
        "code": 1092
      },
      "arrival": 28200,
      "departure": 28200
    },
    {
      "stop": {
        "id": "2_1093",
        "lat": 48.111757,
        "lon": -1.689653,
        "name": "Horizons",
        "code": 1093
      },
      "arrival": 28320,
      "departure": 28320
    },
    {
      "stop": {
        "id": "2_1094",
        "lat": 48.113208,
        "lon": -1.69329,
        "name": "Brest Verdun",
        "code": 1094
      },
      "arrival": 28380,
      "departure": 28380
    },
    {
      "stop": {
        "id": "2_1095",
        "lat": 48.116505,
        "lon": -1.690744,
        "name": "La Touche",
        "code": 1095
      },
      "arrival": 28440,
      "departure": 28440
    },
    {
      "stop": {
        "id": "2_1096",
        "lat": 48.118193,
        "lon": -1.689248,
        "name": "Anatole France",
        "code": 1096
      },
      "arrival": 28500,
      "departure": 28500
    },
    {
      "stop": {
        "id": "2_1097",
        "lat": 48.121017,
        "lon": -1.686759,
        "name": "ESPE",
        "code": 1097
      },
      "arrival": 28620,
      "departure": 28620
    },
    {
      "stop": {
        "id": "2_1099",
        "lat": 48.123587,
        "lon": -1.683606,
        "name": "Saint-Martin",
        "code": 1099
      },
      "arrival": 28680,
      "departure": 28680
    },
    {
      "stop": {
        "id": "2_1100",
        "lat": 48.12503,
        "lon": -1.681973,
        "name": "Cimetière Nord",
        "code": 1100
      },
      "arrival": 28740,
      "departure": 28740
    },
    {
      "stop": {
        "id": "2_1041",
        "lat": 48.128749,
        "lon": -1.6836,
        "name": "Trois Croix",
        "code": 1041
      },
      "arrival": 28860,
      "departure": 28860
    },
    {
      "stop": {
        "id": "2_1102",
        "lat": 48.131357,
        "lon": -1.684599,
        "name": "Donelière",
        "code": 1102
      },
      "arrival": 28920,
      "departure": 28920
    },
    {
      "stop": {
        "id": "2_1371",
        "lat": 48.133171,
        "lon": -1.68511,
        "name": "Lycée Mendès France",
        "code": 1371
      },
      "arrival": 28980,
      "departure": 28980
    },
    {
      "stop": {
        "id": "2_2803",
        "lat": 48.137419,
        "lon": -1.68861,
        "name": "La Plesse",
        "code": 2803
      },
      "arrival": 29100,
      "departure": 29100
    },
    {
      "stop": {
        "id": "2_2801",
        "lat": 48.135818,
        "lon": -1.693158,
        "name": "Grand Quartier",
        "code": 2801
      },
      "arrival": 29160,
      "departure": 29160
    }
  ],
  "route": {
    "id": "2_0002",
    "textColor": "FFFFFF",
    "color": "008BCF",
    "description": "Majeure",
    "longName": "Grand Quartier \u003c\u003e La Poterie / Haut Sancé",
    "shortName": "2",
    "type": 3,
    "agencyId": "2"
  }
}