{
  "headsign": "9 | Cleunay",
  "stopTimes": [
    {
      "stop": {
        "id": "2_1372",
        "lat": 48.138364,
        "lon": -1.659181,
        "name": "Saint-Laurent",
        "code": 1372
      },
      "arrival": 56760,
      "departure": 56760
    },
    {
      "stop": {
        "id": "2_1159",
        "lat": 48.134358,
        "lon": -1.658784,
        "name": "Hôtel de Région",
        "code": 1159
      },
      "arrival": 56820,
      "departure": 56820
    },
    {
      "stop": {
        "id": "2_1374",
        "lat": 48.133162,
        "lon": -1.65696,
        "name": "Longs Prés",
        "code": 1374
      },
      "arrival": 56880,
      "departure": 56880
    },
    {
      "stop": {
        "id": "2_1375",
        "lat": 48.130103,
        "lon": -1.656774,
        "name": "Gast",
        "code": 1375
      },
      "arrival": 56940,
      "departure": 56940
    },
    {
      "stop": {
        "id": "2_1376",
        "lat": 48.128579,
        "lon": -1.657192,
        "name": "Europe",
        "code": 1376
      },
      "arrival": 57000,
      "departure": 57000
    },
    {
      "stop": {
        "id": "2_1377",
        "lat": 48.126826,
        "lon": -1.65857,
        "name": "Trégain",
        "code": 1377
      },
      "arrival": 57060,
      "departure": 57060
    },
    {
      "stop": {
        "id": "2_1378",
        "lat": 48.124958,
        "lon": -1.661404,
        "name": "Saint-Exupéry",
        "code": 1378
      },
      "arrival": 57180,
      "departure": 57180
    },
    {
      "stop": {
        "id": "2_1009",
        "lat": 48.121635,
        "lon": -1.663186,
        "name": "Metz Volney",
        "code": 1009
      },
      "arrival": 57300,
      "departure": 57300
    },
    {
      "stop": {
        "id": "2_1010",
        "lat": 48.119241,
        "lon": -1.667693,
        "name": "Guéhenno",
        "code": 1010
      },
      "arrival": 57420,
      "departure": 57420
    },
    {
      "stop": {
        "id": "2_1011",
        "lat": 48.118312,
        "lon": -1.671315,
        "name": "Fac de Droit",
        "code": 1011
      },
      "arrival": 57480,
      "departure": 57480
    },
    {
      "stop": {
        "id": "2_1012",
        "lat": 48.11605,
        "lon": -1.674245,
        "name": "Sévigné",
        "code": 1012
      },
      "arrival": 57600,
      "departure": 57600
    },
    {
      "stop": {
        "id": "2_1014",
        "lat": 48.113739,
        "lon": -1.679038,
        "name": "Sainte-Anne",
        "code": 1014
      },
      "arrival": 57780,
      "departure": 57780
    },
    {
      "stop": {
        "id": "2_1015",
        "lat": 48.11252,
        "lon": -1.680352,
        "name": "Champ Jacquet",
        "code": 1015
      },
      "arrival": 57840,
      "departure": 57840
    },
    {
      "stop": {
        "id": "2_1024",
        "lat": 48.109977,
        "lon": -1.680268,
        "name": "République Nemours",
        "code": 1024
      },
      "arrival": 58020,
      "departure": 58020
    },
    {
      "stop": {
        "id": "2_1017",
        "lat": 48.108415,
        "lon": -1.680213,
        "name": "Les Halles",
        "code": 1017
      },
      "arrival": 58080,
      "departure": 58080
    },
    {
      "stop": {
        "id": "2_1018",
        "lat": 48.106204,
        "lon": -1.680999,
        "name": "Plélo Colombier",
        "code": 1018
      },
      "arrival": 58200,
      "departure": 58200
    },
    {
      "stop": {
        "id": "2_1402",
        "lat": 48.105647,
        "lon": -1.685188,
        "name": "Cité Judiciaire",
        "code": 1402
      },
      "arrival": 58320,
      "departure": 58320
    },
    {
      "stop": {
        "id": "2_1611",
        "lat": 48.105462,
        "lon": -1.688422,
        "name": "Redon",
        "code": 1611
      },
      "arrival": 58380,
      "departure": 58380
    },
    {
      "stop": {
        "id": "2_1616",
        "lat": 48.103307,
        "lon": -1.689206,
        "name": "Saint-Conwoïon",
        "code": 1616
      },
      "arrival": 58500,
      "departure": 58500
    },
    {
      "stop": {
        "id": "2_1381",
        "lat": 48.105128,
        "lon": -1.696468,
        "name": "Malakoff",
        "code": 1381
      },
      "arrival": 58680,
      "departure": 58680
    },
    {
      "stop": {
        "id": "2_1398",
        "lat": 48.105225,
        "lon": -1.698672,
        "name": "Voltaire",
        "code": 1398
      },
      "arrival": 58680,
      "departure": 58680
    },
    {
      "stop": {
        "id": "2_1397",
        "lat": 48.103598,
        "lon": -1.700369,
        "name": "Dargent",
        "code": 1397
      },
      "arrival": 58800,
      "departure": 58800
    },
    {
      "stop": {
        "id": "2_1384",
        "lat": 48.102651,
        "lon": -1.703856,
        "name": "Champion de Cicé",
        "code": 1384
      },
      "arrival": 58860,
      "departure": 58860
    },
    {
      "stop": {
        "id": "2_1385",
        "lat": 48.100655,
        "lon": -1.707006,
        "name": "De Lesseps",
        "code": 1385
      },
      "arrival": 58920,
      "departure": 58920
    },
    {
      "stop": {
        "id": "2_1386",
        "lat": 48.098922,
        "lon": -1.705488,
        "name": "Guérinais",
        "code": 1386
      },
      "arrival": 58980,
      "departure": 58980
    },
    {
      "stop": {
        "id": "2_1387",
        "lat": 48.098044,
        "lon": -1.708181,
        "name": "Récipon",
        "code": 1387
      },
      "arrival": 59040,
      "departure": 59040
    },
    {
      "stop": {
        "id": "2_1392",
        "lat": 48.099871,
        "lon": -1.711154,
        "name": "Montand",
        "code": 1392
      },
      "arrival": 59100,
      "departure": 59100
    },
    {
      "stop": {
        "id": "2_1389",
        "lat": 48.101249,
        "lon": -1.71181,
        "name": "Clinique La Sagesse",
        "code": 1389
      },
      "arrival": 59160,
      "departure": 59160
    },
    {
      "stop": {
        "id": "2_1390",
        "lat": 48.104175,
        "lon": -1.713394,
        "name": "Cleunay",
        "code": 1390
      },
      "arrival": 59280,
      "departure": 59280
    }
  ],
  "route": {
    "id": "2_0009",
    "textColor": "FFFFFF",
    "color": "00519E",
    "description": "Majeure",
    "longName": "Saint-Laurent \u003c\u003e Cleunay",
    "shortName": "9",
    "type": 3,
    "agencyId": "2"
  }
}