{
  "headsign": "204 | Saint-Grégoire Champ Daguet",
  "stopTimes": [
    {
      "stop": {
        "id": "2_1033",
        "lat": 48.1213237,
        "lon": -1.65499372,
        "name": "Assomption",
        "code": 1033
      },
      "arrival": 45000,
      "departure": 45000
    },
    {
      "stop": {
        "id": "2_1638",
        "lat": 48.12250411,
        "lon": -1.65118232,
        "name": "Lycée Chateaubriand",
        "code": 1638
      },
      "arrival": 45120,
      "departure": 45120
    },
    {
      "stop": {
        "id": "2_1619",
        "lat": 48.12519569,
        "lon": -1.65291775,
        "name": "Joliot-Curie",
        "code": 1619
      },
      "arrival": 45180,
      "departure": 45180
    },
    {
      "stop": {
        "id": "2_1596",
        "lat": 48.12586083,
        "lon": -1.66846226,
        "name": "Clotilde Vautier",
        "code": 1596
      },
      "arrival": 45540,
      "departure": 45540
    },
    {
      "stop": {
        "id": "2_1371",
        "lat": 48.13300291,
        "lon": -1.68506819,
        "name": "Lycée Mendès France",
        "code": 1371
      },
      "arrival": 45900,
      "departure": 45900
    },
    {
      "stop": {
        "id": "2_2816",
        "lat": 48.13819857,
        "lon": -1.68643094,
        "name": "La Plesse",
        "code": 2816
      },
      "arrival": 45960,
      "departure": 45960
    },
    {
      "stop": {
        "id": "2_2814",
        "lat": 48.14290311,
        "lon": -1.68658457,
        "name": "CHP Saint-Grégoire",
        "code": 2814
      },
      "arrival": 46020,
      "departure": 46020
    },
    {
      "stop": {
        "id": "2_2818",
        "lat": 48.14687018,
        "lon": -1.68620414,
        "name": "Haut Trait",
        "code": 2818
      },
      "arrival": 46080,
      "departure": 46080
    },
    {
      "stop": {
        "id": "2_2819",
        "lat": 48.15139757,
        "lon": -1.68591914,
        "name": "Forge",
        "code": 2819
      },
      "arrival": 46140,
      "departure": 46140
    },
    {
      "stop": {
        "id": "2_2820",
        "lat": 48.15144554,
        "lon": -1.69128473,
        "name": "Cité des Jardins",
        "code": 2820
      },
      "arrival": 46260,
      "departure": 46260
    },
    {
      "stop": {
        "id": "2_2810",
        "lat": 48.15366868,
        "lon": -1.69204814,
        "name": "Paul-Emile Victor",
        "code": 2810
      },
      "arrival": 46320,
      "departure": 46320
    },
    {
      "stop": {
        "id": "2_2822",
        "lat": 48.15471175,
        "lon": -1.68670333,
        "name": "Discalceat",
        "code": 2822
      },
      "arrival": 46440,
      "departure": 46440
    },
    {
      "stop": {
        "id": "2_2836",
        "lat": 48.15696733,
        "lon": -1.68730287,
        "name": "Uttenreuth",
        "code": 2836
      },
      "arrival": 46500,
      "departure": 46500
    },
    {
      "stop": {
        "id": "2_2824",
        "lat": 48.15890154,
        "lon": -1.68514162,
        "name": "Vivier Louis",
        "code": 2824
      },
      "arrival": 46620,
      "departure": 46620
    },
    {
      "stop": {
        "id": "2_2825",
        "lat": 48.15914517,
        "lon": -1.68081392,
        "name": "Camus",
        "code": 2825
      },
      "arrival": 46680,
      "departure": 46680
    },
    {
      "stop": {
        "id": "2_2846",
        "lat": 48.15901805,
        "lon": -1.6763334,
        "name": "Ricoquais",
        "code": 2846
      },
      "arrival": 46740,
      "departure": 46740
    },
    {
      "stop": {
        "id": "2_2843",
        "lat": 48.15834695,
        "lon": -1.67212808,
        "name": "Nobel",
        "code": 2843
      },
      "arrival": 46800,
      "departure": 46800
    },
    {
      "stop": {
        "id": "2_2844",
        "lat": 48.1552843,
        "lon": -1.67145004,
        "name": "Champ Daguet",
        "code": 2844
      },
      "arrival": 46860,
      "departure": 46860
    }
  ],
  "route": {
    "id": "2_0204",
    "textColor": "FFFFFF",
    "color": "94C11F",
    "description": "Complémentaire",
    "longName": "Saint-Grégoire (Champ Daguet) \u003c\u003e Rennes (Collège Clotilde Vautier)",
    "shortName": "204",
    "type": 3,
    "agencyId": "2"
  }
}