{
  "headsign": "9 | Cleunay",
  "stopTimes": [
    {
      "stop": {
        "id": "2_1372",
        "lat": 48.13840918,
        "lon": -1.65907086,
        "name": "Saint-Laurent",
        "code": 1372
      },
      "arrival": 85020,
      "departure": 85020
    },
    {
      "stop": {
        "id": "2_1159",
        "lat": 48.13439404,
        "lon": -1.65875427,
        "name": "Hôtel de Région",
        "code": 1159
      },
      "arrival": 85080,
      "departure": 85080
    },
    {
      "stop": {
        "id": "2_1374",
        "lat": 48.13324759,
        "lon": -1.65693216,
        "name": "Longs Prés",
        "code": 1374
      },
      "arrival": 85140,
      "departure": 85140
    },
    {
      "stop": {
        "id": "2_1375",
        "lat": 48.13013693,
        "lon": -1.65672512,
        "name": "Gast",
        "code": 1375
      },
      "arrival": 85200,
      "departure": 85200
    },
    {
      "stop": {
        "id": "2_1376",
        "lat": 48.12855272,
        "lon": -1.65712399,
        "name": "Europe",
        "code": 1376
      },
      "arrival": 85260,
      "departure": 85260
    },
    {
      "stop": {
        "id": "2_1377",
        "lat": 48.12679292,
        "lon": -1.65854407,
        "name": "Trégain",
        "code": 1377
      },
      "arrival": 85320,
      "departure": 85320
    },
    {
      "stop": {
        "id": "2_1378",
        "lat": 48.12493299,
        "lon": -1.66135545,
        "name": "Saint-Exupéry",
        "code": 1378
      },
      "arrival": 85380,
      "departure": 85380
    },
    {
      "stop": {
        "id": "2_1009",
        "lat": 48.12162483,
        "lon": -1.6631771,
        "name": "Metz Volney",
        "code": 1009
      },
      "arrival": 85500,
      "departure": 85500
    },
    {
      "stop": {
        "id": "2_1010",
        "lat": 48.11917575,
        "lon": -1.66765915,
        "name": "Guéhenno",
        "code": 1010
      },
      "arrival": 85560,
      "departure": 85560
    },
    {
      "stop": {
        "id": "2_1011",
        "lat": 48.11830509,
        "lon": -1.67120349,
        "name": "Fac de Droit",
        "code": 1011
      },
      "arrival": 85620,
      "departure": 85620
    },
    {
      "stop": {
        "id": "2_1012",
        "lat": 48.11603572,
        "lon": -1.67418235,
        "name": "Sévigné",
        "code": 1012
      },
      "arrival": 85680,
      "departure": 85680
    },
    {
      "stop": {
        "id": "2_1014",
        "lat": 48.11371104,
        "lon": -1.67903599,
        "name": "Sainte-Anne",
        "code": 1014
      },
      "arrival": 85800,
      "departure": 85800
    },
    {
      "stop": {
        "id": "2_1015",
        "lat": 48.11252173,
        "lon": -1.68031651,
        "name": "Champ Jacquet",
        "code": 1015
      },
      "arrival": 85860,
      "departure": 85860
    },
    {
      "stop": {
        "id": "2_1024",
        "lat": 48.10997886,
        "lon": -1.68021216,
        "name": "République Nemours",
        "code": 1024
      },
      "arrival": 85980,
      "departure": 86100
    },
    {
      "stop": {
        "id": "2_1017",
        "lat": 48.10834874,
        "lon": -1.6801754,
        "name": "Les Halles",
        "code": 1017
      },
      "arrival": 86160,
      "departure": 86160
    },
    {
      "stop": {
        "id": "2_1018",
        "lat": 48.10618372,
        "lon": -1.68095249,
        "name": "Plélo Colombier",
        "code": 1018
      },
      "arrival": 86280,
      "departure": 86280
    },
    {
      "stop": {
        "id": "2_1402",
        "lat": 48.10558068,
        "lon": -1.68517914,
        "name": "Cité Judiciaire",
        "code": 1402
      },
      "arrival": 86340,
      "departure": 86340
    },
    {
      "stop": {
        "id": "2_1611",
        "lat": 48.10546139,
        "lon": -1.68835631,
        "name": "Redon (ex Inkermann)",
        "code": 1611
      },
      "arrival": 86400,
      "departure": 86400
    },
    {
      "stop": {
        "id": "2_1616",
        "lat": 48.10328426,
        "lon": -1.68920878,
        "name": "Saint-Conwoïon",
        "code": 1616
      },
      "arrival": 86460,
      "departure": 86460
    },
    {
      "stop": {
        "id": "2_1381",
        "lat": 48.10510865,
        "lon": -1.69650073,
        "name": "Malakoff",
        "code": 1381
      },
      "arrival": 86580,
      "departure": 86580
    },
    {
      "stop": {
        "id": "2_1398",
        "lat": 48.10518896,
        "lon": -1.69863023,
        "name": "Voltaire",
        "code": 1398
      },
      "arrival": 86640,
      "departure": 86640
    },
    {
      "stop": {
        "id": "2_1397",
        "lat": 48.10361769,
        "lon": -1.70028046,
        "name": "Dargent",
        "code": 1397
      },
      "arrival": 86700,
      "departure": 86700
    },
    {
      "stop": {
        "id": "2_1384",
        "lat": 48.10261975,
        "lon": -1.70382543,
        "name": "Champion de Cicé",
        "code": 1384
      },
      "arrival": 86760,
      "departure": 86760
    },
    {
      "stop": {
        "id": "2_1385",
        "lat": 48.10069088,
        "lon": -1.70697779,
        "name": "De Lesseps",
        "code": 1385
      },
      "arrival": 86820,
      "departure": 86820
    },
    {
      "stop": {
        "id": "2_1386",
        "lat": 48.09893483,
        "lon": -1.70535447,
        "name": "Guérinais",
        "code": 1386
      },
      "arrival": 86880,
      "departure": 86880
    },
    {
      "stop": {
        "id": "2_1387",
        "lat": 48.09801007,
        "lon": -1.70819232,
        "name": "Récipon",
        "code": 1387
      },
      "arrival": 86940,
      "departure": 86940
    },
    {
      "stop": {
        "id": "2_1392",
        "lat": 48.09988042,
        "lon": -1.71123897,
        "name": "Montand",
        "code": 1392
      },
      "arrival": 87000,
      "departure": 87000
    },
    {
      "stop": {
        "id": "2_1389",
        "lat": 48.101218,
        "lon": -1.71182929,
        "name": "Clinique La Sagesse",
        "code": 1389
      },
      "arrival": 87000,
      "departure": 87000
    },
    {
      "stop": {
        "id": "2_1390",
        "lat": 48.10413592,
        "lon": -1.71347582,
        "name": "Cleunay",
        "code": 1390
      },
      "arrival": 87060,
      "departure": 87060
    }
  ],
  "route": {
    "id": "2_0009",
    "textColor": "FFFFFF",
    "color": "00519E",
    "description": "Majeure",
    "longName": "Saint-Laurent \u003c\u003e Cleunay",
    "shortName": "9",
    "type": 3,
    "agencyId": "2"
  }
}