{
  "headsign": "67 | Rennes République",
  "stopTimes": [
    {
      "stop": {
        "id": "2_4151",
        "lat": 48.10975091,
        "lon": -1.48097238,
        "name": "Anjou",
        "code": 4151
      },
      "arrival": 66480,
      "departure": 66480
    },
    {
      "stop": {
        "id": "2_4152",
        "lat": 48.10905522,
        "lon": -1.47841022,
        "name": "Mainguère",
        "code": 4152
      },
      "arrival": 66600,
      "departure": 66600
    },
    {
      "stop": {
        "id": "2_4153",
        "lat": 48.10706252,
        "lon": -1.47914293,
        "name": "Saules",
        "code": 4153
      },
      "arrival": 66600,
      "departure": 66600
    },
    {
      "stop": {
        "id": "2_4154",
        "lat": 48.10749969,
        "lon": -1.48292686,
        "name": "Provence",
        "code": 4154
      },
      "arrival": 66660,
      "departure": 66660
    },
    {
      "stop": {
        "id": "2_4155",
        "lat": 48.10758915,
        "lon": -1.48614508,
        "name": "Destiers",
        "code": 4155
      },
      "arrival": 66720,
      "departure": 66720
    },
    {
      "stop": {
        "id": "2_4156",
        "lat": 48.10941494,
        "lon": -1.50301501,
        "name": "Pâtis",
        "code": 4156
      },
      "arrival": 66840,
      "departure": 66840
    },
    {
      "stop": {
        "id": "2_4162",
        "lat": 48.10839195,
        "lon": -1.5077338,
        "name": "Turbanière",
        "code": 4162
      },
      "arrival": 66900,
      "departure": 66900
    },
    {
      "stop": {
        "id": "2_2085",
        "lat": 48.11613432,
        "lon": -1.58235705,
        "name": "Champelé",
        "code": 2085
      },
      "arrival": 67440,
      "departure": 67440
    },
    {
      "stop": {
        "id": "2_2038",
        "lat": 48.11496603,
        "lon": -1.59060111,
        "name": "Haut Grippé",
        "code": 2038
      },
      "arrival": 67440,
      "departure": 67440
    },
    {
      "stop": {
        "id": "2_2089",
        "lat": 48.11357205,
        "lon": -1.59052033,
        "name": "Rigourdière",
        "code": 2089
      },
      "arrival": 67500,
      "departure": 67500
    },
    {
      "stop": {
        "id": "2_2039",
        "lat": 48.11441474,
        "lon": -1.60044452,
        "name": "Bordage",
        "code": 2039
      },
      "arrival": 67680,
      "departure": 67680
    },
    {
      "stop": {
        "id": "2_2057",
        "lat": 48.1138863,
        "lon": -1.60325405,
        "name": "Cesson Gare",
        "code": 2057
      },
      "arrival": 67740,
      "departure": 67740
    },
    {
      "stop": {
        "id": "2_2058",
        "lat": 48.11260658,
        "lon": -1.60716704,
        "name": "Peupliers",
        "code": 2058
      },
      "arrival": 67740,
      "departure": 67740
    },
    {
      "stop": {
        "id": "2_2059",
        "lat": 48.1092987,
        "lon": -1.6090051,
        "name": "Monniais",
        "code": 2059
      },
      "arrival": 67860,
      "departure": 67860
    },
    {
      "stop": {
        "id": "2_2060",
        "lat": 48.10779161,
        "lon": -1.61466557,
        "name": "Rond Point de Bray",
        "code": 2060
      },
      "arrival": 67920,
      "departure": 67920
    },
    {
      "stop": {
        "id": "2_2016",
        "lat": 48.11418172,
        "lon": -1.62194938,
        "name": "Taillis",
        "code": 2016
      },
      "arrival": 68100,
      "departure": 68100
    },
    {
      "stop": {
        "id": "2_2017",
        "lat": 48.11408545,
        "lon": -1.63036724,
        "name": "Champs Péans",
        "code": 2017
      },
      "arrival": 68220,
      "departure": 68220
    },
    {
      "stop": {
        "id": "2_1609",
        "lat": 48.11419402,
        "lon": -1.63648162,
        "name": "Tournebride",
        "code": 1609
      },
      "arrival": 68280,
      "departure": 68280
    },
    {
      "stop": {
        "id": "2_1528",
        "lat": 48.11399429,
        "lon": -1.64435828,
        "name": "Piletière",
        "code": 1528
      },
      "arrival": 68400,
      "departure": 68400
    },
    {
      "stop": {
        "id": "2_1527",
        "lat": 48.11433481,
        "lon": -1.64920718,
        "name": "Moulin de Joué",
        "code": 1527
      },
      "arrival": 68460,
      "departure": 68460
    },
    {
      "stop": {
        "id": "2_1526",
        "lat": 48.11479096,
        "lon": -1.65317793,
        "name": "Hôpital Régnier",
        "code": 1526
      },
      "arrival": 68520,
      "departure": 68520
    },
    {
      "stop": {
        "id": "2_1474",
        "lat": 48.11351559,
        "lon": -1.65671606,
        "name": "Durafour Strasbourg",
        "code": 1474
      },
      "arrival": 68580,
      "departure": 68580
    },
    {
      "stop": {
        "id": "2_1163",
        "lat": 48.1101066,
        "lon": -1.66054614,
        "name": "Robidou",
        "code": 1163
      },
      "arrival": 68760,
      "departure": 68760
    },
    {
      "stop": {
        "id": "2_1556",
        "lat": 48.10943229,
        "lon": -1.67763328,
        "name": "République",
        "code": 1556
      },
      "arrival": 69000,
      "departure": 69000
    }
  ],
  "route": {
    "id": "2_0067",
    "textColor": "FFFFFF",
    "color": "E0083B",
    "description": "Métropolitaine",
    "longName": "Rennes (République) \u003c\u003e Cesson-Sévigné / Brécé",
    "shortName": "67",
    "type": 3,
    "agencyId": "2"
  }
}