{
  "headsign": "91 | Chartres Collège Pôle Sud",
  "stopTimes": [
    {
      "stop": {
        "id": "2_2306",
        "lat": 48.03364841,
        "lon": -1.7658388,
        "name": "Cicé Blossac",
        "code": 2306
      },
      "arrival": 26700,
      "departure": 26700
    },
    {
      "stop": {
        "id": "2_2305",
        "lat": 48.02937675,
        "lon": -1.758008,
        "name": "Vert Buisson",
        "code": 2305
      },
      "arrival": 26880,
      "departure": 26880
    },
    {
      "stop": {
        "id": "2_2323",
        "lat": 48.02564107,
        "lon": -1.76076309,
        "name": "Rabine",
        "code": 2323
      },
      "arrival": 27000,
      "departure": 27000
    },
    {
      "stop": {
        "id": "2_2324",
        "lat": 48.02463005,
        "lon": -1.7572317,
        "name": "Haut Launay",
        "code": 2324
      },
      "arrival": 27060,
      "departure": 27060
    },
    {
      "stop": {
        "id": "2_2325",
        "lat": 48.02481885,
        "lon": -1.75055599,
        "name": "Herverie",
        "code": 2325
      },
      "arrival": 27180,
      "departure": 27180
    },
    {
      "stop": {
        "id": "2_2301",
        "lat": 48.02452888,
        "lon": -1.74523499,
        "name": "Bruz Centre",
        "code": 2301
      },
      "arrival": 27240,
      "departure": 27240
    },
    {
      "stop": {
        "id": "2_2353",
        "lat": 48.0234105,
        "lon": -1.74310902,
        "name": "Victor Hugo",
        "code": 2353
      },
      "arrival": 27300,
      "departure": 27300
    },
    {
      "stop": {
        "id": "2_2334",
        "lat": 48.02378686,
        "lon": -1.73611312,
        "name": "Pasteur",
        "code": 2334
      },
      "arrival": 27360,
      "departure": 27360
    },
    {
      "stop": {
        "id": "2_2335",
        "lat": 48.02625491,
        "lon": -1.73452897,
        "name": "Bobinais",
        "code": 2335
      },
      "arrival": 27480,
      "departure": 27480
    },
    {
      "stop": {
        "id": "2_2336",
        "lat": 48.03021172,
        "lon": -1.73446075,
        "name": "Champ Niguel",
        "code": 2336
      },
      "arrival": 27540,
      "departure": 27540
    },
    {
      "stop": {
        "id": "2_2337",
        "lat": 48.03296043,
        "lon": -1.73309587,
        "name": "Lavoisier",
        "code": 2337
      },
      "arrival": 27600,
      "departure": 27600
    },
    {
      "stop": {
        "id": "2_2326",
        "lat": 48.03414629,
        "lon": -1.72378519,
        "name": "Doublé",
        "code": 2326
      },
      "arrival": 27720,
      "departure": 27720
    },
    {
      "stop": {
        "id": "2_2350",
        "lat": 48.02934871,
        "lon": -1.71910978,
        "name": "Mare de la Salle",
        "code": 2350
      },
      "arrival": 27900,
      "departure": 27900
    },
    {
      "stop": {
        "id": "2_2903",
        "lat": 48.0332539,
        "lon": -1.71164902,
        "name": "Chaussairie",
        "code": 2903
      },
      "arrival": 27960,
      "departure": 27960
    },
    {
      "stop": {
        "id": "2_2904",
        "lat": 48.03694559,
        "lon": -1.71243488,
        "name": "Taillebois",
        "code": 2904
      },
      "arrival": 28020,
      "departure": 28020
    },
    {
      "stop": {
        "id": "2_2918",
        "lat": 48.04201305,
        "lon": -1.71105813,
        "name": "Callouët",
        "code": 2918
      },
      "arrival": 28080,
      "departure": 28080
    },
    {
      "stop": {
        "id": "2_2919",
        "lat": 48.04229207,
        "lon": -1.70746679,
        "name": "Chartres Centre",
        "code": 2919
      },
      "arrival": 28140,
      "departure": 28140
    },
    {
      "stop": {
        "id": "2_2920",
        "lat": 48.04158293,
        "lon": -1.70288204,
        "name": "Auditoire",
        "code": 2920
      },
      "arrival": 28200,
      "departure": 28200
    },
    {
      "stop": {
        "id": "2_2926",
        "lat": 48.0416724,
        "lon": -1.69613307,
        "name": "Collège Pôle Sud",
        "code": 2926
      },
      "arrival": 28320,
      "departure": 28320
    }
  ],
  "route": {
    "id": "2_0091",
    "textColor": "1A171B",
    "color": "AECC52",
    "description": "Intercommunale",
    "longName": "Bruz / Chartres \u003c\u003e Noyal-Châtillon-sur-Seiche",
    "shortName": "91",
    "type": 3,
    "agencyId": "2"
  }
}