{
  "headsign": "C4 | République",
  "stopTimes": [
    {
      "stop": {
        "id": "2_1161",
        "lat": 48.112232,
        "lon": -1.644227,
        "name": "Plaine de Baud",
        "code": 1161
      },
      "arrival": 20160,
      "departure": 20160
    },
    {
      "stop": {
        "id": "2_1605",
        "lat": 48.110157,
        "lon": -1.656509,
        "name": "Pont de Strasbourg",
        "code": 1605
      },
      "arrival": 20280,
      "departure": 20280
    },
    {
      "stop": {
        "id": "2_1163",
        "lat": 48.110164,
        "lon": -1.660479,
        "name": "Robidou",
        "code": 1163
      },
      "arrival": 20340,
      "departure": 20340
    },
    {
      "stop": {
        "id": "2_1164",
        "lat": 48.110145,
        "lon": -1.663921,
        "name": "Pont de Châteaudun",
        "code": 1164
      },
      "arrival": 20340,
      "departure": 20340
    },
    {
      "stop": {
        "id": "2_1165",
        "lat": 48.110111,
        "lon": -1.67021,
        "name": "Paul Bert",
        "code": 1165
      },
      "arrival": 20400,
      "departure": 20400
    },
    {
      "stop": {
        "id": "2_1166",
        "lat": 48.109914,
        "lon": -1.675145,
        "name": "Musée Beaux Arts",
        "code": 1166
      },
      "arrival": 20460,
      "departure": 20460
    },
    {
      "stop": {
        "id": "2_1168",
        "lat": 48.109761,
        "lon": -1.678807,
        "name": "République",
        "code": 1168
      },
      "arrival": 20580,
      "departure": 20580
    }
  ],
  "route": {
    "id": "2_0004",
    "textColor": "FFFFFF",
    "color": "6D1F80",
    "description": "Chronostar",
    "longName": "Beauregard \u003c\u003e ZA Saint-Sulpice",
    "shortName": "C4",
    "type": 3,
    "agencyId": "2"
  }
}