{
  "headsign": "81 | Rennes Villejean-Université",
  "stopTimes": [
    {
      "stop": {
        "id": "2_6000",
        "lat": 48.218908,
        "lon": -1.893833,
        "name": "Romillé Collège",
        "code": 6000
      },
      "arrival": 60900,
      "departure": 60900
    },
    {
      "stop": {
        "id": "2_6002",
        "lat": 48.215591,
        "lon": -1.891703,
        "name": "Frères Aubert",
        "code": 6002
      },
      "arrival": 60960,
      "departure": 60960
    },
    {
      "stop": {
        "id": "2_6004",
        "lat": 48.214147,
        "lon": -1.892143,
        "name": "Romillé Mairie",
        "code": 6004
      },
      "arrival": 61080,
      "departure": 61080
    },
    {
      "stop": {
        "id": "2_6006",
        "lat": 48.212913,
        "lon": -1.891338,
        "name": "Mettrie Templiers",
        "code": 6006
      },
      "arrival": 61140,
      "departure": 61140
    },
    {
      "stop": {
        "id": "2_4452",
        "lat": 48.18138007,
        "lon": -1.85347313,
        "name": "Croix Simon",
        "code": 4452
      },
      "arrival": 61440,
      "departure": 61440
    },
    {
      "stop": {
        "id": "2_4460",
        "lat": 48.178213,
        "lon": -1.853036,
        "name": "La Cour aux Pages",
        "code": 4460
      },
      "arrival": 61500,
      "departure": 61500
    },
    {
      "stop": {
        "id": "2_4453",
        "lat": 48.1760181,
        "lon": -1.85254844,
        "name": "Clayes Centre",
        "code": 4453
      },
      "arrival": 61560,
      "departure": 61560
    },
    {
      "stop": {
        "id": "2_3732",
        "lat": 48.1493297,
        "lon": -1.83902413,
        "name": "Ile des Bois",
        "code": 3732
      },
      "arrival": 61920,
      "departure": 61920
    },
    {
      "stop": {
        "id": "2_3717",
        "lat": 48.15398549,
        "lon": -1.83760002,
        "name": "Maison Neuve",
        "code": 3717
      },
      "arrival": 61980,
      "departure": 61980
    },
    {
      "stop": {
        "id": "2_3715",
        "lat": 48.15374478,
        "lon": -1.83403418,
        "name": "Clos des Cerisiers",
        "code": 3715
      },
      "arrival": 62040,
      "departure": 62040
    },
    {
      "stop": {
        "id": "2_3705",
        "lat": 48.15297271,
        "lon": -1.82975865,
        "name": "Saint-Gilles Centre",
        "code": 3705
      },
      "arrival": 62040,
      "departure": 62040
    },
    {
      "stop": {
        "id": "2_3707",
        "lat": 48.15070786,
        "lon": -1.82521706,
        "name": "Pont aux Moines",
        "code": 3707
      },
      "arrival": 62160,
      "departure": 62160
    },
    {
      "stop": {
        "id": "2_3708",
        "lat": 48.15283954,
        "lon": -1.82071011,
        "name": "Vigne",
        "code": 3708
      },
      "arrival": 62220,
      "departure": 62220
    },
    {
      "stop": {
        "id": "2_3709",
        "lat": 48.15291812,
        "lon": -1.80907719,
        "name": "Fouaye",
        "code": 3709
      },
      "arrival": 62340,
      "departure": 62340
    },
    {
      "stop": {
        "id": "2_3102",
        "lat": 48.15130193,
        "lon": -1.79231921,
        "name": "Pie Neuve",
        "code": 3102
      },
      "arrival": 62460,
      "departure": 62460
    },
    {
      "stop": {
        "id": "2_3103",
        "lat": 48.14925877,
        "lon": -1.78891407,
        "name": "Docteur Léon",
        "code": 3103
      },
      "arrival": 62520,
      "departure": 62520
    },
    {
      "stop": {
        "id": "2_3104",
        "lat": 48.14851135,
        "lon": -1.78489927,
        "name": "Touche Milon",
        "code": 3104
      },
      "arrival": 62520,
      "departure": 62520
    },
    {
      "stop": {
        "id": "2_3119",
        "lat": 48.14754795,
        "lon": -1.78109404,
        "name": "Pinault",
        "code": 3119
      },
      "arrival": 62580,
      "departure": 62580
    },
    {
      "stop": {
        "id": "2_3134",
        "lat": 48.14165528,
        "lon": -1.77056625,
        "name": "Nominoë",
        "code": 3134
      },
      "arrival": 62700,
      "departure": 62700
    },
    {
      "stop": {
        "id": "2_1517",
        "lat": 48.11854026,
        "lon": -1.71363649,
        "name": "Berry",
        "code": 1517
      },
      "arrival": 63060,
      "departure": 63060
    },
    {
      "stop": {
        "id": "2_1520",
        "lat": 48.12050245,
        "lon": -1.70973991,
        "name": "Bourbonnais",
        "code": 1520
      },
      "arrival": 63180,
      "departure": 63180
    },
    {
      "stop": {
        "id": "2_1497",
        "lat": 48.12102411,
        "lon": -1.70300103,
        "name": "Villejean-Université",
        "code": 1497
      },
      "arrival": 63300,
      "departure": 63300
    }
  ],
  "route": {
    "id": "2_0081",
    "textColor": "FFFFFF",
    "color": "0083CD",
    "description": "Métropolitaine",
    "longName": "Rennes (Villejean-Université) \u003c\u003e Clayes / Romillé",
    "shortName": "81",
    "type": 3,
    "agencyId": "2"
  }
}