{
  "headsign": "C4 | République",
  "stopTimes": [
    {
      "stop": {
        "id": "2_1630",
        "lat": 48.13266219,
        "lon": -1.63618724,
        "name": "ZA Saint-Sulpice",
        "code": 1630
      },
      "arrival": 89520,
      "departure": 89520
    },
    {
      "stop": {
        "id": "2_1617",
        "lat": 48.12914499,
        "lon": -1.63014755,
        "name": "Longs Champs Est",
        "code": 1617
      },
      "arrival": 89640,
      "departure": 89640
    },
    {
      "stop": {
        "id": "2_1536",
        "lat": 48.12680571,
        "lon": -1.6300959,
        "name": "Clos Courtel",
        "code": 1536
      },
      "arrival": 89700,
      "departure": 89700
    },
    {
      "stop": {
        "id": "2_1291",
        "lat": 48.12475494,
        "lon": -1.63388413,
        "name": "IUT",
        "code": 1291
      },
      "arrival": 89760,
      "departure": 89760
    },
    {
      "stop": {
        "id": "2_1292",
        "lat": 48.12145018,
        "lon": -1.63814809,
        "name": "Beaulieu Restau U",
        "code": 1292
      },
      "arrival": 89880,
      "departure": 89880
    },
    {
      "stop": {
        "id": "2_1176",
        "lat": 48.11901733,
        "lon": -1.63514782,
        "name": "Beaulieu INSA",
        "code": 1176
      },
      "arrival": 89940,
      "departure": 89940
    },
    {
      "stop": {
        "id": "2_1312",
        "lat": 48.1166495,
        "lon": -1.63393042,
        "name": "Beaulieu Chimie",
        "code": 1312
      },
      "arrival": 90000,
      "departure": 90000
    },
    {
      "stop": {
        "id": "2_1160",
        "lat": 48.11406413,
        "lon": -1.63761839,
        "name": "Tournebride",
        "code": 1160
      },
      "arrival": 90060,
      "departure": 90060
    },
    {
      "stop": {
        "id": "2_1603",
        "lat": 48.1132511,
        "lon": -1.64125976,
        "name": "Les Préales",
        "code": 1603
      },
      "arrival": 90120,
      "departure": 90120
    },
    {
      "stop": {
        "id": "2_1161",
        "lat": 48.11219183,
        "lon": -1.64423633,
        "name": "Plaine de Baud",
        "code": 1161
      },
      "arrival": 90180,
      "departure": 90180
    },
    {
      "stop": {
        "id": "2_1605",
        "lat": 48.11011386,
        "lon": -1.65647985,
        "name": "Pont de Strasbourg",
        "code": 1605
      },
      "arrival": 90300,
      "departure": 90300
    },
    {
      "stop": {
        "id": "2_1163",
        "lat": 48.1101066,
        "lon": -1.66054614,
        "name": "Robidou",
        "code": 1163
      },
      "arrival": 90360,
      "departure": 90360
    },
    {
      "stop": {
        "id": "2_1164",
        "lat": 48.11009515,
        "lon": -1.66397755,
        "name": "Pont de Châteaudun",
        "code": 1164
      },
      "arrival": 90420,
      "departure": 90420
    },
    {
      "stop": {
        "id": "2_1165",
        "lat": 48.11006169,
        "lon": -1.67017835,
        "name": "Paul Bert",
        "code": 1165
      },
      "arrival": 90480,
      "departure": 90480
    },
    {
      "stop": {
        "id": "2_1166",
        "lat": 48.10988328,
        "lon": -1.67512929,
        "name": "Musée Beaux Arts",
        "code": 1166
      },
      "arrival": 90540,
      "departure": 90540
    },
    {
      "stop": {
        "id": "2_1168",
        "lat": 48.10980866,
        "lon": -1.67882417,
        "name": "République",
        "code": 1168
      },
      "arrival": 90660,
      "departure": 90660
    }
  ],
  "route": {
    "id": "2_0004",
    "textColor": "FFFFFF",
    "color": "6D1F80",
    "description": "Chronostar",
    "longName": "Beauregard \u003c\u003e ZA Saint-Sulpice",
    "shortName": "C4",
    "type": 3,
    "agencyId": "2"
  }
}