{
  "headsign": "31 | Cesson-Sévigné Base de Loisirs",
  "stopTimes": [
    {
      "stop": {
        "id": "2_1190",
        "lat": 48.11740688,
        "lon": -1.70825224,
        "name": "Villejean-Churchill",
        "code": 1190
      },
      "arrival": 67200,
      "departure": 67200
    },
    {
      "stop": {
        "id": "2_1191",
        "lat": 48.11557373,
        "lon": -1.70472339,
        "name": "Languedoc",
        "code": 1191
      },
      "arrival": 67320,
      "departure": 67320
    },
    {
      "stop": {
        "id": "2_1188",
        "lat": 48.11498493,
        "lon": -1.70208633,
        "name": "La Salle",
        "code": 1188
      },
      "arrival": 67380,
      "departure": 67380
    },
    {
      "stop": {
        "id": "2_1193",
        "lat": 48.11377696,
        "lon": -1.6980212,
        "name": "Maison Diocésaine",
        "code": 1193
      },
      "arrival": 67440,
      "departure": 67440
    },
    {
      "stop": {
        "id": "2_1094",
        "lat": 48.11309647,
        "lon": -1.69338394,
        "name": "Brest Verdun",
        "code": 1094
      },
      "arrival": 67560,
      "departure": 67560
    },
    {
      "stop": {
        "id": "2_1095",
        "lat": 48.11646145,
        "lon": -1.69082908,
        "name": "La Touche",
        "code": 1095
      },
      "arrival": 67620,
      "departure": 67620
    },
    {
      "stop": {
        "id": "2_1194",
        "lat": 48.11821041,
        "lon": -1.68720155,
        "name": "Anatole France",
        "code": 1194
      },
      "arrival": 67740,
      "departure": 67740
    },
    {
      "stop": {
        "id": "2_1195",
        "lat": 48.11776089,
        "lon": -1.6850048,
        "name": "Legraverend",
        "code": 1195
      },
      "arrival": 67800,
      "departure": 67800
    },
    {
      "stop": {
        "id": "2_1196",
        "lat": 48.11720567,
        "lon": -1.68231994,
        "name": "Dinan",
        "code": 1196
      },
      "arrival": 67860,
      "departure": 67860
    },
    {
      "stop": {
        "id": "2_1027",
        "lat": 48.11723114,
        "lon": -1.67736823,
        "name": "Hôtel Dieu",
        "code": 1027
      },
      "arrival": 68040,
      "departure": 68040
    },
    {
      "stop": {
        "id": "2_1197",
        "lat": 48.11640279,
        "lon": -1.67325639,
        "name": "Sévigné",
        "code": 1197
      },
      "arrival": 68100,
      "departure": 68100
    },
    {
      "stop": {
        "id": "2_1198",
        "lat": 48.11631466,
        "lon": -1.66888706,
        "name": "George Sand",
        "code": 1198
      },
      "arrival": 68220,
      "departure": 68220
    },
    {
      "stop": {
        "id": "2_1181",
        "lat": 48.11619453,
        "lon": -1.66258994,
        "name": "Musset Cité U",
        "code": 1181
      },
      "arrival": 68280,
      "departure": 68280
    },
    {
      "stop": {
        "id": "2_1200",
        "lat": 48.11682755,
        "lon": -1.6563862,
        "name": "Jeanne d\u0027Arc",
        "code": 1200
      },
      "arrival": 68400,
      "departure": 68400
    },
    {
      "stop": {
        "id": "2_1151",
        "lat": 48.11879169,
        "lon": -1.65161883,
        "name": "Vitré Danton",
        "code": 1151
      },
      "arrival": 68520,
      "departure": 68520
    },
    {
      "stop": {
        "id": "2_1202",
        "lat": 48.1206205,
        "lon": -1.64433521,
        "name": "Beaulieu Cité U",
        "code": 1202
      },
      "arrival": 68580,
      "departure": 68580
    },
    {
      "stop": {
        "id": "2_1203",
        "lat": 48.12203302,
        "lon": -1.6395994,
        "name": "Beaulieu Restau U",
        "code": 1203
      },
      "arrival": 68640,
      "departure": 68640
    },
    {
      "stop": {
        "id": "2_1176",
        "lat": 48.11901733,
        "lon": -1.63514782,
        "name": "Beaulieu INSA",
        "code": 1176
      },
      "arrival": 68700,
      "departure": 68700
    },
    {
      "stop": {
        "id": "2_1312",
        "lat": 48.1166495,
        "lon": -1.63393042,
        "name": "Beaulieu Chimie",
        "code": 1312
      },
      "arrival": 68760,
      "departure": 68760
    },
    {
      "stop": {
        "id": "2_2019",
        "lat": 48.1140789,
        "lon": -1.62801107,
        "name": "Champs Péans",
        "code": 2019
      },
      "arrival": 68880,
      "departure": 68880
    },
    {
      "stop": {
        "id": "2_2020",
        "lat": 48.11415,
        "lon": -1.62183892,
        "name": "Taillis",
        "code": 2020
      },
      "arrival": 68940,
      "departure": 68940
    },
    {
      "stop": {
        "id": "2_2021",
        "lat": 48.11421457,
        "lon": -1.61375483,
        "name": "Hublais",
        "code": 2021
      },
      "arrival": 69060,
      "departure": 69060
    },
    {
      "stop": {
        "id": "2_2022",
        "lat": 48.11467541,
        "lon": -1.60958194,
        "name": "Place Sévigné",
        "code": 2022
      },
      "arrival": 69120,
      "departure": 69120
    },
    {
      "stop": {
        "id": "2_2023",
        "lat": 48.11561362,
        "lon": -1.60698111,
        "name": "Vilaine",
        "code": 2023
      },
      "arrival": 69180,
      "departure": 69180
    },
    {
      "stop": {
        "id": "2_2066",
        "lat": 48.11834687,
        "lon": -1.60420821,
        "name": "Cesson Mairie",
        "code": 2066
      },
      "arrival": 69240,
      "departure": 69240
    },
    {
      "stop": {
        "id": "2_2067",
        "lat": 48.12037328,
        "lon": -1.60240598,
        "name": "Cesson Piscine",
        "code": 2067
      },
      "arrival": 69300,
      "departure": 69300
    },
    {
      "stop": {
        "id": "2_2068",
        "lat": 48.12317362,
        "lon": -1.60178843,
        "name": "Métairies Chalotais",
        "code": 2068
      },
      "arrival": 69300,
      "departure": 69300
    },
    {
      "stop": {
        "id": "2_2029",
        "lat": 48.12314683,
        "lon": -1.60062832,
        "name": "Bourgchevreuil",
        "code": 2029
      },
      "arrival": 69300,
      "departure": 69300
    },
    {
      "stop": {
        "id": "2_2030",
        "lat": 48.12481844,
        "lon": -1.5968293,
        "name": "Petits Champs",
        "code": 2030
      },
      "arrival": 69420,
      "departure": 69420
    },
    {
      "stop": {
        "id": "2_2031",
        "lat": 48.1239136,
        "lon": -1.59345217,
        "name": "Grand Domaine",
        "code": 2031
      },
      "arrival": 69420,
      "departure": 69420
    },
    {
      "stop": {
        "id": "2_2088",
        "lat": 48.12464409,
        "lon": -1.59098871,
        "name": "Base de Loisirs",
        "code": 2088
      },
      "arrival": 69480,
      "departure": 69480
    }
  ],
  "route": {
    "id": "2_0031",
    "textColor": "E2001A",
    "color": "FFF164",
    "description": "Inter-quartiers",
    "longName": "Villejean-Churchill \u003c\u003e Cesson-Sévigné (Base de Loisirs)",
    "shortName": "31",
    "type": 3,
    "agencyId": "2"
  }
}