{
  "headsign": "53 | Vezin Hermitage Chapelle-Th.",
  "stopTimes": [
    {
      "stop": {
        "id": "2_1167",
        "lat": 48.10936738,
        "lon": -1.678658,
        "name": "République Pré Botté",
        "code": 1167
      },
      "arrival": 29400,
      "departure": 29400
    },
    {
      "stop": {
        "id": "2_1540",
        "lat": 48.1099522,
        "lon": -1.68519001,
        "name": "Pont de Bretagne",
        "code": 1540
      },
      "arrival": 29520,
      "departure": 29520
    },
    {
      "stop": {
        "id": "2_1217",
        "lat": 48.10823293,
        "lon": -1.69450077,
        "name": "Chèques Postaux",
        "code": 1217
      },
      "arrival": 29640,
      "departure": 29640
    },
    {
      "stop": {
        "id": "2_1293",
        "lat": 48.10992139,
        "lon": -1.69863394,
        "name": "Guilloux",
        "code": 1293
      },
      "arrival": 29700,
      "departure": 29700
    },
    {
      "stop": {
        "id": "2_1310",
        "lat": 48.11122281,
        "lon": -1.70080917,
        "name": "Marbeuf",
        "code": 1310
      },
      "arrival": 29760,
      "departure": 29760
    },
    {
      "stop": {
        "id": "2_1502",
        "lat": 48.11327261,
        "lon": -1.7045588,
        "name": "Agrocampus",
        "code": 1502
      },
      "arrival": 29820,
      "departure": 29820
    },
    {
      "stop": {
        "id": "2_1414",
        "lat": 48.11638524,
        "lon": -1.71215936,
        "name": "Merlin",
        "code": 1414
      },
      "arrival": 29880,
      "departure": 29880
    },
    {
      "stop": {
        "id": "2_1499",
        "lat": 48.11626025,
        "lon": -1.71595794,
        "name": "Colin",
        "code": 1499
      },
      "arrival": 29880,
      "departure": 29880
    },
    {
      "stop": {
        "id": "2_1498",
        "lat": 48.11658191,
        "lon": -1.72390238,
        "name": "Petit Champeaux",
        "code": 1498
      },
      "arrival": 29940,
      "departure": 29940
    },
    {
      "stop": {
        "id": "2_3760",
        "lat": 48.11770318,
        "lon": -1.73100316,
        "name": "Champ Noël",
        "code": 3760
      },
      "arrival": 30000,
      "departure": 30000
    },
    {
      "stop": {
        "id": "2_3761",
        "lat": 48.11835117,
        "lon": -1.74111786,
        "name": "Tertre",
        "code": 3761
      },
      "arrival": 30060,
      "departure": 30060
    },
    {
      "stop": {
        "id": "2_3771",
        "lat": 48.1190931,
        "lon": -1.74955621,
        "name": "Champs Bleus",
        "code": 3771
      },
      "arrival": 30120,
      "departure": 30120
    },
    {
      "stop": {
        "id": "2_3762",
        "lat": 48.11918107,
        "lon": -1.75547076,
        "name": "Vezin Centre",
        "code": 3762
      },
      "arrival": 30120,
      "departure": 30120
    },
    {
      "stop": {
        "id": "2_3763",
        "lat": 48.11919235,
        "lon": -1.76128325,
        "name": "Lion d\u0027Or",
        "code": 3763
      },
      "arrival": 30180,
      "departure": 30180
    },
    {
      "stop": {
        "id": "2_3764",
        "lat": 48.12036615,
        "lon": -1.76557329,
        "name": "Vallée",
        "code": 3764
      },
      "arrival": 30240,
      "departure": 30240
    },
    {
      "stop": {
        "id": "2_3765",
        "lat": 48.1209756,
        "lon": -1.7716735,
        "name": "Haie de Terre",
        "code": 3765
      },
      "arrival": 30300,
      "departure": 30300
    },
    {
      "stop": {
        "id": "2_4315",
        "lat": 48.12294892,
        "lon": -1.80230832,
        "name": "Noë Biche",
        "code": 4315
      },
      "arrival": 30480,
      "departure": 30480
    },
    {
      "stop": {
        "id": "2_4307",
        "lat": 48.12346101,
        "lon": -1.80743913,
        "name": "Clairefontaine",
        "code": 4307
      },
      "arrival": 30540,
      "departure": 30540
    },
    {
      "stop": {
        "id": "2_4308",
        "lat": 48.12499565,
        "lon": -1.81290303,
        "name": "Village",
        "code": 4308
      },
      "arrival": 30600,
      "departure": 30600
    },
    {
      "stop": {
        "id": "2_4304",
        "lat": 48.12551567,
        "lon": -1.81606092,
        "name": "L\u0027Hermitage Centre",
        "code": 4304
      },
      "arrival": 30600,
      "departure": 30600
    },
    {
      "stop": {
        "id": "2_4310",
        "lat": 48.12373585,
        "lon": -1.81791833,
        "name": "L\u0027Hermitage Gare",
        "code": 4310
      },
      "arrival": 30600,
      "departure": 30600
    },
    {
      "stop": {
        "id": "2_4311",
        "lat": 48.12290007,
        "lon": -1.82093895,
        "name": "Hautière",
        "code": 4311
      },
      "arrival": 30660,
      "departure": 30660
    },
    {
      "stop": {
        "id": "2_4255",
        "lat": 48.12140881,
        "lon": -1.83774109,
        "name": "Grippière",
        "code": 4255
      },
      "arrival": 30780,
      "departure": 30780
    },
    {
      "stop": {
        "id": "2_4256",
        "lat": 48.1220314,
        "lon": -1.84628093,
        "name": "Piardière",
        "code": 4256
      },
      "arrival": 30840,
      "departure": 30840
    },
    {
      "stop": {
        "id": "2_4257",
        "lat": 48.1230881,
        "lon": -1.86080178,
        "name": "Rochers",
        "code": 4257
      },
      "arrival": 30900,
      "departure": 30900
    },
    {
      "stop": {
        "id": "2_4269",
        "lat": 48.12308598,
        "lon": -1.86604237,
        "name": "Place de la Mairie",
        "code": 4269
      },
      "arrival": 30960,
      "departure": 30960
    },
    {
      "stop": {
        "id": "2_4267",
        "lat": 48.12259522,
        "lon": -1.86836925,
        "name": "Ville aux Archers",
        "code": 4267
      },
      "arrival": 30960,
      "departure": 30960
    }
  ],
  "route": {
    "id": "2_0053",
    "textColor": "FFFFFF",
    "color": "D20132",
    "description": "Métropolitaine",
    "longName": "Rennes (République) \u003c\u003e Vezin-le-Coquet / L\u0027Hermitage / La Chapelle-Thouarault",
    "shortName": "53",
    "type": 3,
    "agencyId": "2"
  }
}