{
  "headsign": "TTZ | Touche Tizon 3",
  "stopTimes": [
    {
      "stop": {
        "id": "2_1001",
        "lat": 48.12903716,
        "lon": -1.6325079,
        "name": "Longs Champs",
        "code": 1001
      },
      "arrival": 15900,
      "departure": 15900
    },
    {
      "stop": {
        "id": "2_1002",
        "lat": 48.12826604,
        "lon": -1.63765619,
        "name": "Bouzat",
        "code": 1002
      },
      "arrival": 15960,
      "departure": 15960
    },
    {
      "stop": {
        "id": "2_1003",
        "lat": 48.12744122,
        "lon": -1.64029002,
        "name": "Gallets",
        "code": 1003
      },
      "arrival": 15960,
      "departure": 15960
    },
    {
      "stop": {
        "id": "2_1004",
        "lat": 48.12528847,
        "lon": -1.64253775,
        "name": "Donzelot",
        "code": 1004
      },
      "arrival": 15960,
      "departure": 15960
    },
    {
      "stop": {
        "id": "2_1005",
        "lat": 48.1233588,
        "lon": -1.64623199,
        "name": "Mirabeau",
        "code": 1005
      },
      "arrival": 16020,
      "departure": 16020
    },
    {
      "stop": {
        "id": "2_1006",
        "lat": 48.12226258,
        "lon": -1.65069568,
        "name": "Turmel",
        "code": 1006
      },
      "arrival": 16080,
      "departure": 16080
    },
    {
      "stop": {
        "id": "2_1111",
        "lat": 48.12024278,
        "lon": -1.65071004,
        "name": "Docteur Quentin",
        "code": 1111
      },
      "arrival": 16140,
      "departure": 16140
    },
    {
      "stop": {
        "id": "2_1432",
        "lat": 48.11876913,
        "lon": -1.64990717,
        "name": "Vitré Foulon",
        "code": 1432
      },
      "arrival": 16200,
      "departure": 16200
    },
    {
      "stop": {
        "id": "2_1513",
        "lat": 48.1153356,
        "lon": -1.64843846,
        "name": "Bois Perrin",
        "code": 1513
      },
      "arrival": 16200,
      "departure": 16200
    },
    {
      "stop": {
        "id": "2_1514",
        "lat": 48.11333583,
        "lon": -1.64760506,
        "name": "Moulin de Joué",
        "code": 1514
      },
      "arrival": 16260,
      "departure": 16260
    },
    {
      "stop": {
        "id": "2_1605",
        "lat": 48.11011386,
        "lon": -1.65647985,
        "name": "Pont de Strasbourg",
        "code": 1605
      },
      "arrival": 16320,
      "departure": 16320
    },
    {
      "stop": {
        "id": "2_1163",
        "lat": 48.1101066,
        "lon": -1.66054614,
        "name": "Robidou",
        "code": 1163
      },
      "arrival": 16380,
      "departure": 16380
    },
    {
      "stop": {
        "id": "2_1164",
        "lat": 48.11009515,
        "lon": -1.66397755,
        "name": "Pont de Châteaudun",
        "code": 1164
      },
      "arrival": 16380,
      "departure": 16380
    },
    {
      "stop": {
        "id": "2_1085",
        "lat": 48.10476768,
        "lon": -1.66658594,
        "name": "Laënnec",
        "code": 1085
      },
      "arrival": 16620,
      "departure": 16620
    },
    {
      "stop": {
        "id": "2_1243",
        "lat": 48.10254897,
        "lon": -1.66111869,
        "name": "Croix Saint-Hélier",
        "code": 1243
      },
      "arrival": 16740,
      "departure": 16740
    },
    {
      "stop": {
        "id": "2_1060",
        "lat": 48.09952833,
        "lon": -1.65755292,
        "name": "Piré",
        "code": 1060
      },
      "arrival": 16800,
      "departure": 16800
    },
    {
      "stop": {
        "id": "2_1061",
        "lat": 48.09733006,
        "lon": -1.65433141,
        "name": "Bourgeois",
        "code": 1061
      },
      "arrival": 16800,
      "departure": 16800
    },
    {
      "stop": {
        "id": "2_1062",
        "lat": 48.09512646,
        "lon": -1.65055801,
        "name": "Calmette",
        "code": 1062
      },
      "arrival": 16860,
      "departure": 16860
    },
    {
      "stop": {
        "id": "2_1063",
        "lat": 48.0927684,
        "lon": -1.64749794,
        "name": "Monsieur Vincent",
        "code": 1063
      },
      "arrival": 16920,
      "departure": 16920
    },
    {
      "stop": {
        "id": "2_1064",
        "lat": 48.09035104,
        "lon": -1.64502494,
        "name": "Lycée Descartes",
        "code": 1064
      },
      "arrival": 16980,
      "departure": 16980
    },
    {
      "stop": {
        "id": "2_1343",
        "lat": 48.08761374,
        "lon": -1.64610727,
        "name": "La Poterie",
        "code": 1343
      },
      "arrival": 17100,
      "departure": 17100
    },
    {
      "stop": {
        "id": "2_1344",
        "lat": 48.0876653,
        "lon": -1.65003592,
        "name": "Galicie",
        "code": 1344
      },
      "arrival": 17160,
      "departure": 17160
    },
    {
      "stop": {
        "id": "2_1585",
        "lat": 48.08798801,
        "lon": -1.65428341,
        "name": "Le Blosne",
        "code": 1585
      },
      "arrival": 17220,
      "departure": 17220
    },
    {
      "stop": {
        "id": "2_1577",
        "lat": 48.08670616,
        "lon": -1.66104123,
        "name": "Triangle",
        "code": 1577
      },
      "arrival": 17340,
      "departure": 17340
    },
    {
      "stop": {
        "id": "2_5036",
        "lat": 48.08660109,
        "lon": -1.66872386,
        "name": "Italie",
        "code": 5036
      },
      "arrival": 17400,
      "departure": 17400
    },
    {
      "stop": {
        "id": "2_1564",
        "lat": 48.08782223,
        "lon": -1.67459024,
        "name": "Henri Fréville",
        "code": 1564
      },
      "arrival": 17460,
      "departure": 17460
    },
    {
      "stop": {
        "id": "2_1449",
        "lat": 48.08682379,
        "lon": -1.6830757,
        "name": "Norvège",
        "code": 1449
      },
      "arrival": 17580,
      "departure": 17580
    },
    {
      "stop": {
        "id": "2_1450",
        "lat": 48.08665851,
        "lon": -1.68837187,
        "name": "Coubertin",
        "code": 1450
      },
      "arrival": 17640,
      "departure": 17640
    },
    {
      "stop": {
        "id": "2_1451",
        "lat": 48.08683442,
        "lon": -1.69127348,
        "name": "Lycée Bréquigny",
        "code": 1451
      },
      "arrival": 17700,
      "departure": 17700
    },
    {
      "stop": {
        "id": "2_1267",
        "lat": 48.0857359,
        "lon": -1.69390359,
        "name": "Félix Eboué",
        "code": 1267
      },
      "arrival": 17760,
      "departure": 17760
    },
    {
      "stop": {
        "id": "2_2262",
        "lat": 48.06879204,
        "lon": -1.69785635,
        "name": "Vallon",
        "code": 2262
      },
      "arrival": 18180,
      "departure": 18180
    },
    {
      "stop": {
        "id": "2_2704",
        "lat": 48.0593778,
        "lon": -1.70119071,
        "name": "Janais",
        "code": 2704
      },
      "arrival": 18360,
      "departure": 18360
    },
    {
      "stop": {
        "id": "2_2749",
        "lat": 48.05590393,
        "lon": -1.70113068,
        "name": "Touche Tizon",
        "code": 2749
      },
      "arrival": 18480,
      "departure": 18480
    }
  ],
  "route": {
    "id": "2_0804",
    "textColor": "FFFFFF",
    "color": "009C99",
    "description": "Spéciale",
    "longName": "Rennes \u003c\u003e Touche Tizon",
    "shortName": "TTZ",
    "type": 3,
    "agencyId": "2"
  }
}