{
  "headsign": "53 | Rennes République",
  "stopTimes": [
    {
      "stop": {
        "id": "2_4267",
        "lat": 48.12259522,
        "lon": -1.86836925,
        "name": "Ville aux Archers",
        "code": 4267
      },
      "arrival": 57300,
      "departure": 57300
    },
    {
      "stop": {
        "id": "2_4264",
        "lat": 48.12308355,
        "lon": -1.86591426,
        "name": "Place de la Mairie",
        "code": 4264
      },
      "arrival": 57360,
      "departure": 57360
    },
    {
      "stop": {
        "id": "2_4252",
        "lat": 48.12305645,
        "lon": -1.86073456,
        "name": "Rochers",
        "code": 4252
      },
      "arrival": 57420,
      "departure": 57420
    },
    {
      "stop": {
        "id": "2_4253",
        "lat": 48.1219735,
        "lon": -1.84615443,
        "name": "Piardière",
        "code": 4253
      },
      "arrival": 57540,
      "departure": 57540
    },
    {
      "stop": {
        "id": "2_4254",
        "lat": 48.12128913,
        "lon": -1.83758202,
        "name": "Grippière",
        "code": 4254
      },
      "arrival": 57600,
      "departure": 57600
    },
    {
      "stop": {
        "id": "2_4301",
        "lat": 48.12299286,
        "lon": -1.82175531,
        "name": "Hautière",
        "code": 4301
      },
      "arrival": 57720,
      "departure": 57720
    },
    {
      "stop": {
        "id": "2_4303",
        "lat": 48.12384912,
        "lon": -1.81779401,
        "name": "L\u0027Hermitage Gare",
        "code": 4303
      },
      "arrival": 57780,
      "departure": 57780
    },
    {
      "stop": {
        "id": "2_4322",
        "lat": 48.12547104,
        "lon": -1.81549739,
        "name": "L\u0027Hermitage Centre",
        "code": 4322
      },
      "arrival": 57780,
      "departure": 57780
    },
    {
      "stop": {
        "id": "2_4305",
        "lat": 48.12464354,
        "lon": -1.81159175,
        "name": "Village",
        "code": 4305
      },
      "arrival": 57840,
      "departure": 57840
    },
    {
      "stop": {
        "id": "2_4306",
        "lat": 48.12320965,
        "lon": -1.8063041,
        "name": "Clairefontaine",
        "code": 4306
      },
      "arrival": 57840,
      "departure": 57840
    },
    {
      "stop": {
        "id": "2_4316",
        "lat": 48.12283506,
        "lon": -1.80134198,
        "name": "Noë Biche",
        "code": 4316
      },
      "arrival": 57900,
      "departure": 57900
    },
    {
      "stop": {
        "id": "2_3754",
        "lat": 48.12095823,
        "lon": -1.77254707,
        "name": "Haie de Terre",
        "code": 3754
      },
      "arrival": 58140,
      "departure": 58140
    },
    {
      "stop": {
        "id": "2_3755",
        "lat": 48.12026434,
        "lon": -1.765416,
        "name": "Vallée",
        "code": 3755
      },
      "arrival": 58200,
      "departure": 58200
    },
    {
      "stop": {
        "id": "2_3756",
        "lat": 48.1190811,
        "lon": -1.76101447,
        "name": "Lion d\u0027Or",
        "code": 3756
      },
      "arrival": 58260,
      "departure": 58260
    },
    {
      "stop": {
        "id": "2_3757",
        "lat": 48.11889936,
        "lon": -1.75681107,
        "name": "Vezin Centre",
        "code": 3757
      },
      "arrival": 58320,
      "departure": 58320
    },
    {
      "stop": {
        "id": "2_3770",
        "lat": 48.11902243,
        "lon": -1.74936828,
        "name": "Champs Bleus",
        "code": 3770
      },
      "arrival": 58380,
      "departure": 58380
    },
    {
      "stop": {
        "id": "2_3758",
        "lat": 48.11838591,
        "lon": -1.74249418,
        "name": "Tertre",
        "code": 3758
      },
      "arrival": 58440,
      "departure": 58440
    },
    {
      "stop": {
        "id": "2_3759",
        "lat": 48.11764929,
        "lon": -1.73167146,
        "name": "Champ Noël",
        "code": 3759
      },
      "arrival": 58500,
      "departure": 58500
    },
    {
      "stop": {
        "id": "2_1504",
        "lat": 48.11640851,
        "lon": -1.72328108,
        "name": "Petit Champeaux",
        "code": 1504
      },
      "arrival": 58560,
      "departure": 58560
    },
    {
      "stop": {
        "id": "2_1503",
        "lat": 48.11616144,
        "lon": -1.71594912,
        "name": "Colin",
        "code": 1503
      },
      "arrival": 58620,
      "departure": 58620
    },
    {
      "stop": {
        "id": "2_1422",
        "lat": 48.11628685,
        "lon": -1.71146403,
        "name": "Merlin",
        "code": 1422
      },
      "arrival": 58680,
      "departure": 58680
    },
    {
      "stop": {
        "id": "2_1500",
        "lat": 48.11386976,
        "lon": -1.7054062,
        "name": "Agrocampus",
        "code": 1500
      },
      "arrival": 58800,
      "departure": 58800
    },
    {
      "stop": {
        "id": "2_1294",
        "lat": 48.11140799,
        "lon": -1.70136408,
        "name": "Marbeuf",
        "code": 1294
      },
      "arrival": 58800,
      "departure": 58800
    },
    {
      "stop": {
        "id": "2_1311",
        "lat": 48.10966101,
        "lon": -1.69838195,
        "name": "Guilloux",
        "code": 1311
      },
      "arrival": 58860,
      "departure": 58860
    },
    {
      "stop": {
        "id": "2_1239",
        "lat": 48.10827073,
        "lon": -1.6941653,
        "name": "Chèques Postaux",
        "code": 1239
      },
      "arrival": 58920,
      "departure": 58920
    },
    {
      "stop": {
        "id": "2_1542",
        "lat": 48.10997275,
        "lon": -1.68535336,
        "name": "Pont de Bretagne",
        "code": 1542
      },
      "arrival": 59040,
      "departure": 59040
    },
    {
      "stop": {
        "id": "2_1167",
        "lat": 48.10936738,
        "lon": -1.678658,
        "name": "République Pré Botté",
        "code": 1167
      },
      "arrival": 59220,
      "departure": 59220
    }
  ],
  "route": {
    "id": "2_0053",
    "textColor": "FFFFFF",
    "color": "D20132",
    "description": "Métropolitaine",
    "longName": "Rennes (République) \u003c\u003e Vezin-le-Coquet / L\u0027Hermitage / La Chapelle-Thouarault",
    "shortName": "53",
    "type": 3,
    "agencyId": "2"
  }
}