{
  "headsign": "8 | Saint-Grégoire Champ Daguet",
  "stopTimes": [
    {
      "stop": {
        "id": "2_1343",
        "lat": 48.08761374,
        "lon": -1.64610727,
        "name": "La Poterie",
        "code": 1343
      },
      "arrival": 43500,
      "departure": 43500
    },
    {
      "stop": {
        "id": "2_1344",
        "lat": 48.0876653,
        "lon": -1.65003592,
        "name": "Galicie",
        "code": 1344
      },
      "arrival": 43560,
      "departure": 43560
    },
    {
      "stop": {
        "id": "2_1358",
        "lat": 48.09136825,
        "lon": -1.65190911,
        "name": "Pologne",
        "code": 1358
      },
      "arrival": 43680,
      "departure": 43680
    },
    {
      "stop": {
        "id": "2_1359",
        "lat": 48.09143755,
        "lon": -1.6556288,
        "name": "Landrel",
        "code": 1359
      },
      "arrival": 43680,
      "departure": 43680
    },
    {
      "stop": {
        "id": "2_1360",
        "lat": 48.09241999,
        "lon": -1.65836606,
        "name": "Gide",
        "code": 1360
      },
      "arrival": 43740,
      "departure": 43740
    },
    {
      "stop": {
        "id": "2_1361",
        "lat": 48.09421028,
        "lon": -1.65822788,
        "name": "Langevin",
        "code": 1361
      },
      "arrival": 43800,
      "departure": 43800
    },
    {
      "stop": {
        "id": "2_1362",
        "lat": 48.09508001,
        "lon": -1.661534,
        "name": "Leray",
        "code": 1362
      },
      "arrival": 43860,
      "departure": 43860
    },
    {
      "stop": {
        "id": "2_1363",
        "lat": 48.09744233,
        "lon": -1.66265748,
        "name": "Sainte-Thérèse",
        "code": 1363
      },
      "arrival": 43920,
      "departure": 43920
    },
    {
      "stop": {
        "id": "2_1364",
        "lat": 48.09802421,
        "lon": -1.6670823,
        "name": "Bigot de Préameneu",
        "code": 1364
      },
      "arrival": 44040,
      "departure": 44040
    },
    {
      "stop": {
        "id": "2_1365",
        "lat": 48.09771617,
        "lon": -1.6691678,
        "name": "Ormeaux",
        "code": 1365
      },
      "arrival": 44040,
      "departure": 44040
    },
    {
      "stop": {
        "id": "2_1366",
        "lat": 48.09775635,
        "lon": -1.67110913,
        "name": "Châtillon",
        "code": 1366
      },
      "arrival": 44100,
      "departure": 44100
    },
    {
      "stop": {
        "id": "2_1333",
        "lat": 48.09774726,
        "lon": -1.67519921,
        "name": "Jacques Cartier",
        "code": 1333
      },
      "arrival": 44220,
      "departure": 44220
    },
    {
      "stop": {
        "id": "2_1141",
        "lat": 48.09927815,
        "lon": -1.67561799,
        "name": "Ginguené",
        "code": 1141
      },
      "arrival": 44220,
      "departure": 44220
    },
    {
      "stop": {
        "id": "2_1142",
        "lat": 48.10204067,
        "lon": -1.67395497,
        "name": "Gare Sud Féval",
        "code": 1142
      },
      "arrival": 44340,
      "departure": 44340
    },
    {
      "stop": {
        "id": "2_1143",
        "lat": 48.10608092,
        "lon": -1.67760115,
        "name": "Charles de Gaulle",
        "code": 1143
      },
      "arrival": 44460,
      "departure": 44460
    },
    {
      "stop": {
        "id": "2_1144",
        "lat": 48.11006929,
        "lon": -1.67780478,
        "name": "République Jaurès",
        "code": 1144
      },
      "arrival": 44640,
      "departure": 44640
    },
    {
      "stop": {
        "id": "2_1367",
        "lat": 48.11097991,
        "lon": -1.67952017,
        "name": "Rennes Mairie",
        "code": 1367
      },
      "arrival": 44700,
      "departure": 44700
    },
    {
      "stop": {
        "id": "2_1025",
        "lat": 48.11273566,
        "lon": -1.68025817,
        "name": "Champ Jacquet",
        "code": 1025
      },
      "arrival": 44820,
      "departure": 44820
    },
    {
      "stop": {
        "id": "2_1026",
        "lat": 48.11478452,
        "lon": -1.67927843,
        "name": "Sainte-Anne",
        "code": 1026
      },
      "arrival": 44940,
      "departure": 44940
    },
    {
      "stop": {
        "id": "2_1183",
        "lat": 48.11732292,
        "lon": -1.67882557,
        "name": "Hôtel Dieu",
        "code": 1183
      },
      "arrival": 45060,
      "departure": 45060
    },
    {
      "stop": {
        "id": "2_1368",
        "lat": 48.11837352,
        "lon": -1.68060609,
        "name": "Square de la Rance",
        "code": 1368
      },
      "arrival": 45120,
      "departure": 45120
    },
    {
      "stop": {
        "id": "2_1369",
        "lat": 48.12026611,
        "lon": -1.68107001,
        "name": "Auberge de Jeunesse",
        "code": 1369
      },
      "arrival": 45180,
      "departure": 45180
    },
    {
      "stop": {
        "id": "2_1370",
        "lat": 48.1220216,
        "lon": -1.68362206,
        "name": "Lenoir",
        "code": 1370
      },
      "arrival": 45240,
      "departure": 45240
    },
    {
      "stop": {
        "id": "2_1099",
        "lat": 48.12361631,
        "lon": -1.68364233,
        "name": "Saint-Martin",
        "code": 1099
      },
      "arrival": 45300,
      "departure": 45300
    },
    {
      "stop": {
        "id": "2_1100",
        "lat": 48.12493529,
        "lon": -1.68198209,
        "name": "Cimetière Nord",
        "code": 1100
      },
      "arrival": 45360,
      "departure": 45360
    },
    {
      "stop": {
        "id": "2_1041",
        "lat": 48.12884166,
        "lon": -1.68371536,
        "name": "Trois Croix",
        "code": 1041
      },
      "arrival": 45480,
      "departure": 45480
    },
    {
      "stop": {
        "id": "2_1102",
        "lat": 48.13115995,
        "lon": -1.68458083,
        "name": "Donelière",
        "code": 1102
      },
      "arrival": 45540,
      "departure": 45540
    },
    {
      "stop": {
        "id": "2_1371",
        "lat": 48.13300291,
        "lon": -1.68506819,
        "name": "Lycée Mendès France",
        "code": 1371
      },
      "arrival": 45540,
      "departure": 45540
    },
    {
      "stop": {
        "id": "2_2816",
        "lat": 48.13819857,
        "lon": -1.68643094,
        "name": "La Plesse",
        "code": 2816
      },
      "arrival": 45660,
      "departure": 45660
    },
    {
      "stop": {
        "id": "2_2814",
        "lat": 48.14290311,
        "lon": -1.68658457,
        "name": "CHP Saint-Grégoire",
        "code": 2814
      },
      "arrival": 45720,
      "departure": 45720
    },
    {
      "stop": {
        "id": "2_2818",
        "lat": 48.14687018,
        "lon": -1.68620414,
        "name": "Haut Trait",
        "code": 2818
      },
      "arrival": 45840,
      "departure": 45840
    },
    {
      "stop": {
        "id": "2_2819",
        "lat": 48.15139757,
        "lon": -1.68591914,
        "name": "Forge",
        "code": 2819
      },
      "arrival": 45900,
      "departure": 45900
    },
    {
      "stop": {
        "id": "2_2820",
        "lat": 48.15144554,
        "lon": -1.69128473,
        "name": "Cité des Jardins",
        "code": 2820
      },
      "arrival": 45960,
      "departure": 45960
    },
    {
      "stop": {
        "id": "2_2810",
        "lat": 48.15366868,
        "lon": -1.69204814,
        "name": "Paul-Emile Victor",
        "code": 2810
      },
      "arrival": 46080,
      "departure": 46080
    },
    {
      "stop": {
        "id": "2_2822",
        "lat": 48.15471175,
        "lon": -1.68670333,
        "name": "Discalceat",
        "code": 2822
      },
      "arrival": 46140,
      "departure": 46140
    },
    {
      "stop": {
        "id": "2_2836",
        "lat": 48.15696733,
        "lon": -1.68730287,
        "name": "Uttenreuth",
        "code": 2836
      },
      "arrival": 46200,
      "departure": 46200
    },
    {
      "stop": {
        "id": "2_2824",
        "lat": 48.15890154,
        "lon": -1.68514162,
        "name": "Vivier Louis",
        "code": 2824
      },
      "arrival": 46260,
      "departure": 46260
    },
    {
      "stop": {
        "id": "2_2825",
        "lat": 48.15914517,
        "lon": -1.68081392,
        "name": "Camus",
        "code": 2825
      },
      "arrival": 46320,
      "departure": 46320
    },
    {
      "stop": {
        "id": "2_2846",
        "lat": 48.15901805,
        "lon": -1.6763334,
        "name": "Ricoquais",
        "code": 2846
      },
      "arrival": 46380,
      "departure": 46380
    },
    {
      "stop": {
        "id": "2_2843",
        "lat": 48.15834695,
        "lon": -1.67212808,
        "name": "Nobel",
        "code": 2843
      },
      "arrival": 46440,
      "departure": 46440
    },
    {
      "stop": {
        "id": "2_2844",
        "lat": 48.1552843,
        "lon": -1.67145004,
        "name": "Champ Daguet",
        "code": 2844
      },
      "arrival": 46500,
      "departure": 46500
    }
  ],
  "route": {
    "id": "2_0008",
    "textColor": "FFFFFF",
    "color": "B966A2",
    "description": "Majeure",
    "longName": "Saint-Grégoire \u003c\u003e Rennes (La Poterie)",
    "shortName": "8",
    "type": 3,
    "agencyId": "2"
  }
}