{
  "headsign": "31 | Villejean Churchill",
  "stopTimes": [
    {
      "stop": {
        "id": "2_1175",
        "lat": 48.11698398,
        "lon": -1.63390592,
        "name": "Beaulieu Chimie",
        "code": 1175
      },
      "arrival": 31800,
      "departure": 31800
    },
    {
      "stop": {
        "id": "2_1204",
        "lat": 48.11947652,
        "lon": -1.63539005,
        "name": "Beaulieu INSA",
        "code": 1204
      },
      "arrival": 31860,
      "departure": 31860
    },
    {
      "stop": {
        "id": "2_1177",
        "lat": 48.12187978,
        "lon": -1.640286,
        "name": "Beaulieu Restau. U.",
        "code": 1177
      },
      "arrival": 31920,
      "departure": 31920
    },
    {
      "stop": {
        "id": "2_1178",
        "lat": 48.12078326,
        "lon": -1.64386488,
        "name": "Beaulieu Cité U.",
        "code": 1178
      },
      "arrival": 31980,
      "departure": 31980
    },
    {
      "stop": {
        "id": "2_1112",
        "lat": 48.11890008,
        "lon": -1.65092835,
        "name": "Vitré Danton",
        "code": 1112
      },
      "arrival": 32100,
      "departure": 32100
    },
    {
      "stop": {
        "id": "2_1179",
        "lat": 48.11698403,
        "lon": -1.65584808,
        "name": "Jeanne d\u0027Arc",
        "code": 1179
      },
      "arrival": 32220,
      "departure": 32220
    },
    {
      "stop": {
        "id": "2_1180",
        "lat": 48.1161613,
        "lon": -1.65932935,
        "name": "Balzac",
        "code": 1180
      },
      "arrival": 32220,
      "departure": 32220
    },
    {
      "stop": {
        "id": "2_1199",
        "lat": 48.11620028,
        "lon": -1.66290006,
        "name": "Musset Cité U.",
        "code": 1199
      },
      "arrival": 32280,
      "departure": 32280
    },
    {
      "stop": {
        "id": "2_1182",
        "lat": 48.11625003,
        "lon": -1.66505828,
        "name": "George Sand",
        "code": 1182
      },
      "arrival": 32340,
      "departure": 32340
    },
    {
      "stop": {
        "id": "2_1010",
        "lat": 48.11917574,
        "lon": -1.66765915,
        "name": "Guéhenno",
        "code": 1010
      },
      "arrival": 32460,
      "departure": 32460
    },
    {
      "stop": {
        "id": "2_1011",
        "lat": 48.11830509,
        "lon": -1.67120349,
        "name": "Fac de Droit",
        "code": 1011
      },
      "arrival": 32520,
      "departure": 32520
    },
    {
      "stop": {
        "id": "2_1572",
        "lat": 48.1179832,
        "lon": -1.67522707,
        "name": "Vincennes",
        "code": 1572
      },
      "arrival": 32640,
      "departure": 32640
    },
    {
      "stop": {
        "id": "2_1183",
        "lat": 48.11735545,
        "lon": -1.67855043,
        "name": "Hôtel Dieu",
        "code": 1183
      },
      "arrival": 32700,
      "departure": 32700
    },
    {
      "stop": {
        "id": "2_1184",
        "lat": 48.11717158,
        "lon": -1.68158998,
        "name": "Dinan",
        "code": 1184
      },
      "arrival": 32760,
      "departure": 32760
    },
    {
      "stop": {
        "id": "2_1185",
        "lat": 48.11767912,
        "lon": -1.68484515,
        "name": "Legraverend",
        "code": 1185
      },
      "arrival": 32880,
      "departure": 32880
    },
    {
      "stop": {
        "id": "2_1186",
        "lat": 48.11853287,
        "lon": -1.68815907,
        "name": "Anatole France",
        "code": 1186
      },
      "arrival": 32940,
      "departure": 32940
    },
    {
      "stop": {
        "id": "2_1047",
        "lat": 48.11617754,
        "lon": -1.69116733,
        "name": "La Touche",
        "code": 1047
      },
      "arrival": 33000,
      "departure": 33000
    },
    {
      "stop": {
        "id": "2_1048",
        "lat": 48.11334584,
        "lon": -1.69345994,
        "name": "Brest Verdun",
        "code": 1048
      },
      "arrival": 33120,
      "departure": 33120
    },
    {
      "stop": {
        "id": "2_1187",
        "lat": 48.11402889,
        "lon": -1.69825899,
        "name": "Maison Diocésaine",
        "code": 1187
      },
      "arrival": 33180,
      "departure": 33180
    },
    {
      "stop": {
        "id": "2_1192",
        "lat": 48.11489023,
        "lon": -1.70129713,
        "name": "La Salle",
        "code": 1192
      },
      "arrival": 33240,
      "departure": 33240
    },
    {
      "stop": {
        "id": "2_1189",
        "lat": 48.11603293,
        "lon": -1.70563932,
        "name": "Languedoc",
        "code": 1189
      },
      "arrival": 33300,
      "departure": 33300
    },
    {
      "stop": {
        "id": "2_1190",
        "lat": 48.11740687,
        "lon": -1.70825224,
        "name": "Villejean-Churchill",
        "code": 1190
      },
      "arrival": 33420,
      "departure": 33420
    }
  ],
  "route": {
    "id": "2_0031",
    "textColor": "DF171C",
    "color": "FEF466",
    "description": "Inter-quartiers",
    "longName": "Villejean-Churchill \u003c\u003e Beaulieu Ecole de Chimie",
    "shortName": "31",
    "type": 3,
    "agencyId": "2"
  }
}