{
  "headsign": "3 | Saint-Laurent",
  "stopTimes": [
    {
      "stop": {
        "id": "2_1564",
        "lat": 48.08782223,
        "lon": -1.67459024,
        "name": "Henri Fréville",
        "code": 1564
      },
      "arrival": 39000,
      "departure": 39000
    },
    {
      "stop": {
        "id": "2_1622",
        "lat": 48.08412006,
        "lon": -1.6791678,
        "name": "Alma",
        "code": 1622
      },
      "arrival": 39180,
      "departure": 39180
    },
    {
      "stop": {
        "id": "2_1134",
        "lat": 48.08517814,
        "lon": -1.68230743,
        "name": "Canada",
        "code": 1134
      },
      "arrival": 39240,
      "departure": 39240
    },
    {
      "stop": {
        "id": "2_1135",
        "lat": 48.08807548,
        "lon": -1.68221434,
        "name": "Suède",
        "code": 1135
      },
      "arrival": 39360,
      "departure": 39360
    },
    {
      "stop": {
        "id": "2_1136",
        "lat": 48.09113663,
        "lon": -1.68208194,
        "name": "Champs Manceaux",
        "code": 1136
      },
      "arrival": 39420,
      "departure": 39420
    },
    {
      "stop": {
        "id": "2_1137",
        "lat": 48.09359701,
        "lon": -1.68186938,
        "name": "Frères Moine",
        "code": 1137
      },
      "arrival": 39480,
      "departure": 39480
    },
    {
      "stop": {
        "id": "2_1138",
        "lat": 48.09634749,
        "lon": -1.68161522,
        "name": "Garigliano",
        "code": 1138
      },
      "arrival": 39540,
      "departure": 39540
    },
    {
      "stop": {
        "id": "2_1139",
        "lat": 48.09695782,
        "lon": -1.67850697,
        "name": "Sacrés Coeurs",
        "code": 1139
      },
      "arrival": 39660,
      "departure": 39660
    },
    {
      "stop": {
        "id": "2_1333",
        "lat": 48.09774726,
        "lon": -1.67519921,
        "name": "Jacques Cartier",
        "code": 1333
      },
      "arrival": 39720,
      "departure": 39720
    },
    {
      "stop": {
        "id": "2_1141",
        "lat": 48.09927815,
        "lon": -1.67561799,
        "name": "Ginguené",
        "code": 1141
      },
      "arrival": 39780,
      "departure": 39780
    },
    {
      "stop": {
        "id": "2_1142",
        "lat": 48.10204067,
        "lon": -1.67395497,
        "name": "Gare Sud Féval",
        "code": 1142
      },
      "arrival": 39840,
      "departure": 39840
    },
    {
      "stop": {
        "id": "2_1143",
        "lat": 48.10608092,
        "lon": -1.67760115,
        "name": "Charles de Gaulle",
        "code": 1143
      },
      "arrival": 40020,
      "departure": 40020
    },
    {
      "stop": {
        "id": "2_1550",
        "lat": 48.10969793,
        "lon": -1.67797331,
        "name": "République",
        "code": 1550
      },
      "arrival": 40260,
      "departure": 40260
    },
    {
      "stop": {
        "id": "2_1552",
        "lat": 48.11064955,
        "lon": -1.6735086,
        "name": "Place Pasteur",
        "code": 1552
      },
      "arrival": 40380,
      "departure": 40380
    },
    {
      "stop": {
        "id": "2_1146",
        "lat": 48.11187283,
        "lon": -1.67113003,
        "name": "Thabor",
        "code": 1146
      },
      "arrival": 40440,
      "departure": 40440
    },
    {
      "stop": {
        "id": "2_1147",
        "lat": 48.11271566,
        "lon": -1.66439614,
        "name": "Saint-Vincent",
        "code": 1147
      },
      "arrival": 40620,
      "departure": 40620
    },
    {
      "stop": {
        "id": "2_1148",
        "lat": 48.11341058,
        "lon": -1.66141539,
        "name": "Oberthur",
        "code": 1148
      },
      "arrival": 40680,
      "departure": 40680
    },
    {
      "stop": {
        "id": "2_1149",
        "lat": 48.114256,
        "lon": -1.65873929,
        "name": "Durafour",
        "code": 1149
      },
      "arrival": 40740,
      "departure": 40740
    },
    {
      "stop": {
        "id": "2_1150",
        "lat": 48.11652807,
        "lon": -1.65552519,
        "name": "Jeanne d\u0027Arc",
        "code": 1150
      },
      "arrival": 40860,
      "departure": 40860
    },
    {
      "stop": {
        "id": "2_1151",
        "lat": 48.11879169,
        "lon": -1.65161883,
        "name": "Vitré Danton",
        "code": 1151
      },
      "arrival": 40920,
      "departure": 40920
    },
    {
      "stop": {
        "id": "2_1152",
        "lat": 48.12043354,
        "lon": -1.65067299,
        "name": "Docteur Quentin",
        "code": 1152
      },
      "arrival": 40980,
      "departure": 40980
    },
    {
      "stop": {
        "id": "2_1638",
        "lat": 48.12250411,
        "lon": -1.65118232,
        "name": "Lycée Chateaubriand",
        "code": 1638
      },
      "arrival": 41040,
      "departure": 41040
    },
    {
      "stop": {
        "id": "2_1619",
        "lat": 48.12519569,
        "lon": -1.65291775,
        "name": "Joliot-Curie",
        "code": 1619
      },
      "arrival": 41160,
      "departure": 41160
    },
    {
      "stop": {
        "id": "2_1155",
        "lat": 48.12916578,
        "lon": -1.65210189,
        "name": "Gayeulles",
        "code": 1155
      },
      "arrival": 41220,
      "departure": 41220
    },
    {
      "stop": {
        "id": "2_1156",
        "lat": 48.13185588,
        "lon": -1.65200229,
        "name": "Le Blizz",
        "code": 1156
      },
      "arrival": 41280,
      "departure": 41280
    },
    {
      "stop": {
        "id": "2_1157",
        "lat": 48.13494543,
        "lon": -1.65205906,
        "name": "Gayeulles Piscine",
        "code": 1157
      },
      "arrival": 41340,
      "departure": 41340
    },
    {
      "stop": {
        "id": "2_1158",
        "lat": 48.13553883,
        "lon": -1.6562051,
        "name": "Héronière",
        "code": 1158
      },
      "arrival": 41400,
      "departure": 41400
    },
    {
      "stop": {
        "id": "2_1373",
        "lat": 48.13520527,
        "lon": -1.65938653,
        "name": "Hôtel de Région",
        "code": 1373
      },
      "arrival": 41460,
      "departure": 41460
    },
    {
      "stop": {
        "id": "2_1103",
        "lat": 48.13880017,
        "lon": -1.65921311,
        "name": "Saint-Laurent",
        "code": 1103
      },
      "arrival": 41520,
      "departure": 41520
    }
  ],
  "route": {
    "id": "2_0003",
    "textColor": "FFFFFF",
    "color": "008436",
    "description": "Majeure",
    "longName": "Saint-Laurent \u003c\u003e Henri Fréville",
    "shortName": "3",
    "type": 3,
    "agencyId": "2"
  }
}