{
  "headsign": "11 | La Poterie via ZI Sud-Est",
  "stopTimes": [
    {
      "stop": {
        "id": "2_1234",
        "lat": 48.107689,
        "lon": -1.714796,
        "name": "Stade Rennais",
        "code": 1234
      },
      "arrival": 50400,
      "departure": 50400
    },
    {
      "stop": {
        "id": "2_1235",
        "lat": 48.108898,
        "lon": -1.709658,
        "name": "Géniaux",
        "code": 1235
      },
      "arrival": 50520,
      "departure": 50520
    },
    {
      "stop": {
        "id": "2_1236",
        "lat": 48.10876,
        "lon": -1.705656,
        "name": "Kerviler",
        "code": 1236
      },
      "arrival": 50580,
      "departure": 50580
    },
    {
      "stop": {
        "id": "2_1237",
        "lat": 48.107689,
        "lon": -1.702121,
        "name": "Papeteries",
        "code": 1237
      },
      "arrival": 50640,
      "departure": 50640
    },
    {
      "stop": {
        "id": "2_1238",
        "lat": 48.108687,
        "lon": -1.698735,
        "name": "Guilloux Lorient",
        "code": 1238
      },
      "arrival": 50700,
      "departure": 50700
    },
    {
      "stop": {
        "id": "2_1239",
        "lat": 48.108256,
        "lon": -1.694158,
        "name": "Chèques Postaux",
        "code": 1239
      },
      "arrival": 50760,
      "departure": 50760
    },
    {
      "stop": {
        "id": "2_1240",
        "lat": 48.109271,
        "lon": -1.689587,
        "name": "Le Mail",
        "code": 1240
      },
      "arrival": 50880,
      "departure": 50880
    },
    {
      "stop": {
        "id": "2_1091",
        "lat": 48.109734,
        "lon": -1.68385,
        "name": "Place de Bretagne",
        "code": 1091
      },
      "arrival": 51000,
      "departure": 51000
    },
    {
      "stop": {
        "id": "2_1242",
        "lat": 48.109758,
        "lon": -1.679532,
        "name": "République",
        "code": 1242
      },
      "arrival": 51180,
      "departure": 51180
    },
    {
      "stop": {
        "id": "2_1088",
        "lat": 48.107377,
        "lon": -1.674981,
        "name": "Liberté TNB",
        "code": 1088
      },
      "arrival": 51360,
      "departure": 51360
    },
    {
      "stop": {
        "id": "2_1087",
        "lat": 48.105276,
        "lon": -1.673939,
        "name": "Champs Libres",
        "code": 1087
      },
      "arrival": 51480,
      "departure": 51480
    },
    {
      "stop": {
        "id": "2_1477",
        "lat": 48.103839,
        "lon": -1.67286,
        "name": "Gares",
        "code": 1477
      },
      "arrival": 51540,
      "departure": 51540
    },
    {
      "stop": {
        "id": "2_1085",
        "lat": 48.10471,
        "lon": -1.666557,
        "name": "Laënnec",
        "code": 1085
      },
      "arrival": 51660,
      "departure": 51660
    },
    {
      "stop": {
        "id": "2_1243",
        "lat": 48.102515,
        "lon": -1.661094,
        "name": "Croix Saint-Hélier",
        "code": 1243
      },
      "arrival": 51720,
      "departure": 51720
    },
    {
      "stop": {
        "id": "2_1244",
        "lat": 48.102217,
        "lon": -1.655063,
        "name": "Mouézy",
        "code": 1244
      },
      "arrival": 51780,
      "departure": 51780
    },
    {
      "stop": {
        "id": "2_1211",
        "lat": 48.103116,
        "lon": -1.652491,
        "name": "Serpette",
        "code": 1211
      },
      "arrival": 51840,
      "departure": 51840
    },
    {
      "stop": {
        "id": "2_1246",
        "lat": 48.104353,
        "lon": -1.64928,
        "name": "Cimetière de l\u0027Est",
        "code": 1246
      },
      "arrival": 51900,
      "departure": 51900
    },
    {
      "stop": {
        "id": "2_1247",
        "lat": 48.104868,
        "lon": -1.643656,
        "name": "Pavie",
        "code": 1247
      },
      "arrival": 51960,
      "departure": 51960
    },
    {
      "stop": {
        "id": "2_1248",
        "lat": 48.103911,
        "lon": -1.635839,
        "name": "Pré Garel",
        "code": 1248
      },
      "arrival": 52020,
      "departure": 52020
    },
    {
      "stop": {
        "id": "2_2123",
        "lat": 48.104606,
        "lon": -1.63076,
        "name": "Buisson",
        "code": 2123
      },
      "arrival": 52080,
      "departure": 52080
    },
    {
      "stop": {
        "id": "2_2037",
        "lat": 48.106047,
        "lon": -1.62563,
        "name": "Erbonière",
        "code": 2037
      },
      "arrival": 52140,
      "departure": 52140
    },
    {
      "stop": {
        "id": "2_2032",
        "lat": 48.106229,
        "lon": -1.621342,
        "name": "Charmilles",
        "code": 2032
      },
      "arrival": 52200,
      "departure": 52200
    },
    {
      "stop": {
        "id": "2_2036",
        "lat": 48.101206,
        "lon": -1.624003,
        "name": "Bas Village",
        "code": 2036
      },
      "arrival": 52260,
      "departure": 52260
    },
    {
      "stop": {
        "id": "2_2034",
        "lat": 48.099569,
        "lon": -1.621217,
        "name": "Forum",
        "code": 2034
      },
      "arrival": 52320,
      "departure": 52320
    },
    {
      "stop": {
        "id": "2_3015",
        "lat": 48.098321,
        "lon": -1.622836,
        "name": "Breillou",
        "code": 3015
      },
      "arrival": 52380,
      "departure": 52380
    },
    {
      "stop": {
        "id": "2_1205",
        "lat": 48.097147,
        "lon": -1.629252,
        "name": "Veyettes",
        "code": 1205
      },
      "arrival": 52440,
      "departure": 52440
    },
    {
      "stop": {
        "id": "2_1633",
        "lat": 48.096655,
        "lon": -1.636527,
        "name": "Haut Sancé",
        "code": 1633
      },
      "arrival": 52500,
      "departure": 52500
    },
    {
      "stop": {
        "id": "2_1072",
        "lat": 48.094922,
        "lon": -1.638,
        "name": "CARSAT",
        "code": 1072
      },
      "arrival": 52560,
      "departure": 52560
    },
    {
      "stop": {
        "id": "2_1073",
        "lat": 48.092528,
        "lon": -1.639658,
        "name": "Ronceray",
        "code": 1073
      },
      "arrival": 52620,
      "departure": 52620
    },
    {
      "stop": {
        "id": "2_1074",
        "lat": 48.091827,
        "lon": -1.636274,
        "name": "Gohier",
        "code": 1074
      },
      "arrival": 52620,
      "departure": 52620
    },
    {
      "stop": {
        "id": "2_1075",
        "lat": 48.089486,
        "lon": -1.635568,
        "name": "Bourgueil",
        "code": 1075
      },
      "arrival": 52680,
      "departure": 52680
    },
    {
      "stop": {
        "id": "2_1076",
        "lat": 48.087986,
        "lon": -1.638421,
        "name": "Monnet",
        "code": 1076
      },
      "arrival": 52740,
      "departure": 52740
    },
    {
      "stop": {
        "id": "2_1065",
        "lat": 48.087621,
        "lon": -1.64393,
        "name": "La Poterie",
        "code": 1065
      },
      "arrival": 52800,
      "departure": 52800
    }
  ],
  "route": {
    "id": "2_0011",
    "textColor": "FFFFFF",
    "color": "DD84B1",
    "description": "Urbaine",
    "longName": "ZI Ouest / Stade Rennais \u003c\u003e Saint-Saëns / La Poterie",
    "shortName": "11",
    "type": 3,
    "agencyId": "2"
  }
}