{
  "headsign": "239 | Le Rheu Lycée Théodore Monod",
  "stopTimes": [
    {
      "stop": {
        "id": "2_3851",
        "lat": 48.074582,
        "lon": -1.853723,
        "name": "Mordelles Pâtis",
        "code": 3851
      },
      "arrival": 28800,
      "departure": 28800
    },
    {
      "stop": {
        "id": "2_3852",
        "lat": 48.071956,
        "lon": -1.849829,
        "name": "Mordelles Eglise",
        "code": 3852
      },
      "arrival": 28920,
      "departure": 28920
    },
    {
      "stop": {
        "id": "2_3853",
        "lat": 48.073718,
        "lon": -1.846282,
        "name": "Mordelles Mairie",
        "code": 3853
      },
      "arrival": 29040,
      "departure": 29040
    },
    {
      "stop": {
        "id": "2_3854",
        "lat": 48.075808,
        "lon": -1.842153,
        "name": "Mordelles Lilas",
        "code": 3854
      },
      "arrival": 29100,
      "departure": 29100
    },
    {
      "stop": {
        "id": "2_3855",
        "lat": 48.077668,
        "lon": -1.837422,
        "name": "Gretay",
        "code": 3855
      },
      "arrival": 29220,
      "departure": 29220
    },
    {
      "stop": {
        "id": "2_3856",
        "lat": 48.081318,
        "lon": -1.826616,
        "name": "Croix Ignon",
        "code": 3856
      },
      "arrival": 29340,
      "departure": 29340
    },
    {
      "stop": {
        "id": "2_3857",
        "lat": 48.083954,
        "lon": -1.813568,
        "name": "Grande Fontaine",
        "code": 3857
      },
      "arrival": 29400,
      "departure": 29400
    },
    {
      "stop": {
        "id": "2_3858",
        "lat": 48.08823,
        "lon": -1.798671,
        "name": "Vivier des Bois",
        "code": 3858
      },
      "arrival": 29460,
      "departure": 29460
    },
    {
      "stop": {
        "id": "2_2502",
        "lat": 48.100526,
        "lon": -1.806596,
        "name": "Lycée Monod",
        "code": 2502
      },
      "arrival": 30000,
      "departure": 30000
    }
  ],
  "route": {
    "id": "2_0239",
    "textColor": "FFFFFF",
    "color": "F39200",
    "description": "Complémentaire",
    "longName": "Mordelles (Pâtis) \u003c\u003e Le Rheu (Lycée Théodore Monod)",
    "shortName": "239",
    "type": 3,
    "agencyId": "2"
  }
}