{
  "headsign": "227 | Pacé Collège Saint-Gabriel",
  "stopTimes": [
    {
      "stop": {
        "id": "2_3754",
        "lat": 48.12095823,
        "lon": -1.77254707,
        "name": "Haie de Terre",
        "code": 3754
      },
      "arrival": 29100,
      "departure": 29100
    },
    {
      "stop": {
        "id": "2_3755",
        "lat": 48.12026434,
        "lon": -1.765416,
        "name": "Vallée",
        "code": 3755
      },
      "arrival": 29100,
      "departure": 29100
    },
    {
      "stop": {
        "id": "2_3756",
        "lat": 48.1190811,
        "lon": -1.76101447,
        "name": "Lion d\u0027Or",
        "code": 3756
      },
      "arrival": 29160,
      "departure": 29160
    },
    {
      "stop": {
        "id": "2_3757",
        "lat": 48.11889936,
        "lon": -1.75681107,
        "name": "Vezin Centre",
        "code": 3757
      },
      "arrival": 29220,
      "departure": 29220
    },
    {
      "stop": {
        "id": "2_3767",
        "lat": 48.12295074,
        "lon": -1.75536591,
        "name": "Fresnot",
        "code": 3767
      },
      "arrival": 29280,
      "departure": 29280
    },
    {
      "stop": {
        "id": "2_3159",
        "lat": 48.15237318,
        "lon": -1.77155099,
        "name": "Centre scolaire Pacé",
        "code": 3159
      },
      "arrival": 30000,
      "departure": 30000
    }
  ],
  "route": {
    "id": "2_0227",
    "textColor": "FFFFFF",
    "color": "BCA3CE",
    "description": "Complémentaire",
    "longName": "Saint-Gilles (Île des Bois) \u003c\u003e Pacé (Collège Saint-Gabriel)",
    "shortName": "227",
    "type": 3,
    "agencyId": "2"
  }
}