{
  "headsign": "5 | Patton",
  "stopTimes": [
    {
      "stop": {
        "id": "2_1269",
        "lat": 48.08423942,
        "lon": -1.69207225,
        "name": "Lycée Bréquigny",
        "code": 1269
      },
      "arrival": 56940,
      "departure": 56940
    },
    {
      "stop": {
        "id": "2_1270",
        "lat": 48.08578354,
        "lon": -1.69404539,
        "name": "Félix Eboué",
        "code": 1270
      },
      "arrival": 57000,
      "departure": 57000
    },
    {
      "stop": {
        "id": "2_2257",
        "lat": 48.08703831,
        "lon": -1.69467527,
        "name": "Pressoirs",
        "code": 2257
      },
      "arrival": 57060,
      "departure": 57060
    },
    {
      "stop": {
        "id": "2_1453",
        "lat": 48.08974508,
        "lon": -1.69303206,
        "name": "Pigeon Blanc",
        "code": 1453
      },
      "arrival": 57120,
      "departure": 57120
    },
    {
      "stop": {
        "id": "2_1273",
        "lat": 48.09269072,
        "lon": -1.69127533,
        "name": "Saint-Yves",
        "code": 1273
      },
      "arrival": 57180,
      "departure": 57180
    },
    {
      "stop": {
        "id": "2_1274",
        "lat": 48.09503109,
        "lon": -1.69000293,
        "name": "Pilate",
        "code": 1274
      },
      "arrival": 57240,
      "departure": 57240
    },
    {
      "stop": {
        "id": "2_1275",
        "lat": 48.09745816,
        "lon": -1.6885901,
        "name": "Mermoz",
        "code": 1275
      },
      "arrival": 57360,
      "departure": 57360
    },
    {
      "stop": {
        "id": "2_1276",
        "lat": 48.09970592,
        "lon": -1.68624612,
        "name": "Foyer Rennais",
        "code": 1276
      },
      "arrival": 57420,
      "departure": 57420
    },
    {
      "stop": {
        "id": "2_1277",
        "lat": 48.1021686,
        "lon": -1.68416325,
        "name": "Pont de Nantes",
        "code": 1277
      },
      "arrival": 57480,
      "departure": 57480
    },
    {
      "stop": {
        "id": "2_1021",
        "lat": 48.10550614,
        "lon": -1.68388047,
        "name": "Cité Judiciaire",
        "code": 1021
      },
      "arrival": 57600,
      "departure": 57600
    },
    {
      "stop": {
        "id": "2_1022",
        "lat": 48.10635908,
        "lon": -1.68084592,
        "name": "Plélo Colombier",
        "code": 1022
      },
      "arrival": 57720,
      "departure": 57720
    },
    {
      "stop": {
        "id": "2_1023",
        "lat": 48.10798151,
        "lon": -1.68011595,
        "name": "Les Halles",
        "code": 1023
      },
      "arrival": 57780,
      "departure": 57780
    },
    {
      "stop": {
        "id": "2_1016",
        "lat": 48.11007256,
        "lon": -1.6801671,
        "name": "République Nemours",
        "code": 1016
      },
      "arrival": 57960,
      "departure": 57960
    },
    {
      "stop": {
        "id": "2_1025",
        "lat": 48.11273566,
        "lon": -1.68025817,
        "name": "Champ Jacquet",
        "code": 1025
      },
      "arrival": 58080,
      "departure": 58080
    },
    {
      "stop": {
        "id": "2_1026",
        "lat": 48.11478452,
        "lon": -1.67927843,
        "name": "Sainte-Anne",
        "code": 1026
      },
      "arrival": 58140,
      "departure": 58140
    },
    {
      "stop": {
        "id": "2_1278",
        "lat": 48.11709412,
        "lon": -1.67786765,
        "name": "Hôtel Dieu",
        "code": 1278
      },
      "arrival": 58260,
      "departure": 58260
    },
    {
      "stop": {
        "id": "2_1279",
        "lat": 48.11946401,
        "lon": -1.67448311,
        "name": "Rectorat",
        "code": 1279
      },
      "arrival": 58320,
      "departure": 58320
    },
    {
      "stop": {
        "id": "2_1280",
        "lat": 48.12141907,
        "lon": -1.67087311,
        "name": "Jules Ferry",
        "code": 1280
      },
      "arrival": 58440,
      "departure": 58440
    },
    {
      "stop": {
        "id": "2_1281",
        "lat": 48.12528439,
        "lon": -1.66636805,
        "name": "Volney",
        "code": 1281
      },
      "arrival": 58560,
      "departure": 58560
    },
    {
      "stop": {
        "id": "2_1282",
        "lat": 48.12661538,
        "lon": -1.66533269,
        "name": "Gros Chêne",
        "code": 1282
      },
      "arrival": 58620,
      "departure": 58620
    },
    {
      "stop": {
        "id": "2_1283",
        "lat": 48.12879195,
        "lon": -1.663837,
        "name": "Rochester",
        "code": 1283
      },
      "arrival": 58680,
      "departure": 58680
    },
    {
      "stop": {
        "id": "2_1284",
        "lat": 48.13105022,
        "lon": -1.66440004,
        "name": "Houx Cité U",
        "code": 1284
      },
      "arrival": 58740,
      "departure": 58740
    },
    {
      "stop": {
        "id": "2_1285",
        "lat": 48.13277864,
        "lon": -1.66759846,
        "name": "Morbihan",
        "code": 1285
      },
      "arrival": 58800,
      "departure": 58800
    },
    {
      "stop": {
        "id": "2_1286",
        "lat": 48.13270956,
        "lon": -1.67234326,
        "name": "Bellangerais",
        "code": 1286
      },
      "arrival": 58860,
      "departure": 58860
    },
    {
      "stop": {
        "id": "2_1287",
        "lat": 48.13491655,
        "lon": -1.67283484,
        "name": "Condate",
        "code": 1287
      },
      "arrival": 58920,
      "departure": 58920
    },
    {
      "stop": {
        "id": "2_1288",
        "lat": 48.13668515,
        "lon": -1.67074244,
        "name": "Neruda",
        "code": 1288
      },
      "arrival": 58980,
      "departure": 58980
    },
    {
      "stop": {
        "id": "2_1289",
        "lat": 48.13658555,
        "lon": -1.66756896,
        "name": "Monts d\u0027Arrée",
        "code": 1289
      },
      "arrival": 59040,
      "departure": 59040
    },
    {
      "stop": {
        "id": "2_1252",
        "lat": 48.13876768,
        "lon": -1.66595729,
        "name": "Patton",
        "code": 1252
      },
      "arrival": 59100,
      "departure": 59100
    }
  ],
  "route": {
    "id": "2_0005",
    "textColor": "FFFFFF",
    "color": "EE7F01",
    "description": "Majeure",
    "longName": "Patton \u003c\u003e Lycée Bréquigny",
    "shortName": "5",
    "type": 3,
    "agencyId": "2"
  }
}