{
  "headsign": "226 | Montgermont La Chapelle",
  "stopTimes": [
    {
      "stop": {
        "id": "2_3162",
        "lat": 48.15258231,
        "lon": -1.771502,
        "name": "Centre scolaire Pacé",
        "code": 3162
      },
      "arrival": 45600,
      "departure": 45600
    },
    {
      "stop": {
        "id": "2_3509",
        "lat": 48.15288114,
        "lon": -1.70885747,
        "name": "Métrie",
        "code": 3509
      },
      "arrival": 46140,
      "departure": 46140
    },
    {
      "stop": {
        "id": "2_3510",
        "lat": 48.15558798,
        "lon": -1.71082246,
        "name": "Belle Epine",
        "code": 3510
      },
      "arrival": 46200,
      "departure": 46200
    },
    {
      "stop": {
        "id": "2_3511",
        "lat": 48.15733411,
        "lon": -1.71460655,
        "name": "Courtines",
        "code": 3511
      },
      "arrival": 46260,
      "departure": 46260
    },
    {
      "stop": {
        "id": "2_3512",
        "lat": 48.15567996,
        "lon": -1.71663805,
        "name": "Montgermont Mairie",
        "code": 3512
      },
      "arrival": 46320,
      "departure": 46320
    },
    {
      "stop": {
        "id": "2_3513",
        "lat": 48.15568596,
        "lon": -1.72068225,
        "name": "Pierre Texier",
        "code": 3513
      },
      "arrival": 46380,
      "departure": 46380
    },
    {
      "stop": {
        "id": "2_3501",
        "lat": 48.15713428,
        "lon": -1.72329993,
        "name": "Fougerolle",
        "code": 3501
      },
      "arrival": 46440,
      "departure": 46440
    },
    {
      "stop": {
        "id": "2_3515",
        "lat": 48.16271981,
        "lon": -1.73059303,
        "name": "Silandière",
        "code": 3515
      },
      "arrival": 46500,
      "departure": 46500
    },
    {
      "stop": {
        "id": "2_4057",
        "lat": 48.17039595,
        "lon": -1.73622985,
        "name": "Sénestrais",
        "code": 4057
      },
      "arrival": 46560,
      "departure": 46560
    },
    {
      "stop": {
        "id": "2_4058",
        "lat": 48.17395236,
        "lon": -1.73523531,
        "name": "Viennais",
        "code": 4058
      },
      "arrival": 46620,
      "departure": 46620
    },
    {
      "stop": {
        "id": "2_4059",
        "lat": 48.17663681,
        "lon": -1.7328654,
        "name": "Mairie",
        "code": 4059
      },
      "arrival": 46680,
      "departure": 46680
    },
    {
      "stop": {
        "id": "2_4060",
        "lat": 48.1794217,
        "lon": -1.72905833,
        "name": "Métairie",
        "code": 4060
      },
      "arrival": 46740,
      "departure": 46740
    },
    {
      "stop": {
        "id": "2_4069",
        "lat": 48.18312865,
        "lon": -1.72600138,
        "name": "Besneraie",
        "code": 4069
      },
      "arrival": 46860,
      "departure": 46860
    }
  ],
  "route": {
    "id": "2_0226",
    "textColor": "FFFFFF",
    "color": "4465AD",
    "description": "Complémentaire",
    "longName": "Gévezé (Cheval Blanc) \u003c\u003e Pacé (Collège Saint-Gabriel)",
    "shortName": "226",
    "type": 3,
    "agencyId": "2"
  }
}