{
  "headsign": "35 | Cesson-Sévigné Champs Blancs",
  "stopTimes": [
    {
      "stop": {
        "id": "2_2065",
        "lat": 48.113984,
        "lon": -1.603204,
        "name": "Cesson Gare",
        "code": 2065
      },
      "arrival": 33300,
      "departure": 33300
    },
    {
      "stop": {
        "id": "2_2015",
        "lat": 48.114253,
        "lon": -1.616314,
        "name": "Hublais",
        "code": 2015
      },
      "arrival": 33480,
      "departure": 33480
    },
    {
      "stop": {
        "id": "2_2016",
        "lat": 48.114224,
        "lon": -1.621951,
        "name": "Taillis",
        "code": 2016
      },
      "arrival": 33540,
      "departure": 33540
    },
    {
      "stop": {
        "id": "2_2017",
        "lat": 48.114121,
        "lon": -1.630367,
        "name": "Champs Péans",
        "code": 2017
      },
      "arrival": 33660,
      "departure": 33660
    },
    {
      "stop": {
        "id": "2_1175",
        "lat": 48.117101,
        "lon": -1.633896,
        "name": "Beaulieu Chimie",
        "code": 1175
      },
      "arrival": 33720,
      "departure": 33720
    },
    {
      "stop": {
        "id": "2_1204",
        "lat": 48.119511,
        "lon": -1.635317,
        "name": "Beaulieu INSA",
        "code": 1204
      },
      "arrival": 33780,
      "departure": 33780
    },
    {
      "stop": {
        "id": "2_1313",
        "lat": 48.121929,
        "lon": -1.638311,
        "name": "Beaulieu Restau U",
        "code": 1313
      },
      "arrival": 33840,
      "departure": 33840
    },
    {
      "stop": {
        "id": "2_1314",
        "lat": 48.125106,
        "lon": -1.632973,
        "name": "IUT",
        "code": 1314
      },
      "arrival": 33900,
      "departure": 33900
    },
    {
      "stop": {
        "id": "2_1475",
        "lat": 48.126858,
        "lon": -1.629514,
        "name": "Clos Courtel",
        "code": 1475
      },
      "arrival": 33960,
      "departure": 33960
    },
    {
      "stop": {
        "id": "2_2003",
        "lat": 48.130071,
        "lon": -1.628026,
        "name": "Cesson Hôpital Privé",
        "code": 2003
      },
      "arrival": 34080,
      "departure": 34080
    },
    {
      "stop": {
        "id": "2_2125",
        "lat": 48.131892,
        "lon": -1.624417,
        "name": "Chêne Germain",
        "code": 2125
      },
      "arrival": 34140,
      "departure": 34140
    },
    {
      "stop": {
        "id": "2_2126",
        "lat": 48.134763,
        "lon": -1.621832,
        "name": "Champs Blancs",
        "code": 2126
      },
      "arrival": 34320,
      "departure": 34320
    }
  ],
  "route": {
    "id": "2_0035",
    "textColor": "E2001A",
    "color": "FFF164",
    "description": "Inter-quartiers",
    "longName": "Cesson-Sévigné (Champs Blancs) \u003c\u003e Cesson-Sévigné (Gare)",
    "shortName": "35",
    "type": 3,
    "agencyId": "2"
  }
}