{
  "headsign": "34 | La Poterie",
  "stopTimes": [
    {
      "stop": {
        "id": "2_2052",
        "lat": 48.13114133,
        "lon": -1.59694891,
        "name": "Saint-Etienne",
        "code": 2052
      },
      "arrival": 29400,
      "departure": 29400
    },
    {
      "stop": {
        "id": "2_2053",
        "lat": 48.12632414,
        "lon": -1.59912797,
        "name": "Cesson Cimetière",
        "code": 2053
      },
      "arrival": 29520,
      "departure": 29520
    },
    {
      "stop": {
        "id": "2_2054",
        "lat": 48.1231055,
        "lon": -1.60191712,
        "name": "Métairies Chalotais",
        "code": 2054
      },
      "arrival": 29580,
      "departure": 29580
    },
    {
      "stop": {
        "id": "2_2055",
        "lat": 48.12011007,
        "lon": -1.6022215,
        "name": "Cesson Piscine",
        "code": 2055
      },
      "arrival": 29640,
      "departure": 29640
    },
    {
      "stop": {
        "id": "2_2056",
        "lat": 48.11849755,
        "lon": -1.60450404,
        "name": "Cesson Mairie",
        "code": 2056
      },
      "arrival": 29760,
      "departure": 29760
    },
    {
      "stop": {
        "id": "2_2013",
        "lat": 48.11643917,
        "lon": -1.60735329,
        "name": "Vilaine",
        "code": 2013
      },
      "arrival": 29880,
      "departure": 29880
    },
    {
      "stop": {
        "id": "2_2014",
        "lat": 48.11468124,
        "lon": -1.60966321,
        "name": "Place Sévigné",
        "code": 2014
      },
      "arrival": 29940,
      "departure": 29940
    },
    {
      "stop": {
        "id": "2_2057",
        "lat": 48.1138863,
        "lon": -1.60325405,
        "name": "Cesson Gare",
        "code": 2057
      },
      "arrival": 30060,
      "departure": 30060
    },
    {
      "stop": {
        "id": "2_2058",
        "lat": 48.11260658,
        "lon": -1.60716704,
        "name": "Peupliers",
        "code": 2058
      },
      "arrival": 30120,
      "departure": 30120
    },
    {
      "stop": {
        "id": "2_2059",
        "lat": 48.1092987,
        "lon": -1.6090051,
        "name": "Monniais",
        "code": 2059
      },
      "arrival": 30240,
      "departure": 30240
    },
    {
      "stop": {
        "id": "2_2060",
        "lat": 48.10779161,
        "lon": -1.61466557,
        "name": "Rond Point de Bray",
        "code": 2060
      },
      "arrival": 30300,
      "departure": 30300
    },
    {
      "stop": {
        "id": "2_2032",
        "lat": 48.10649752,
        "lon": -1.62137125,
        "name": "ZI Sud Est (futur Charmilles)",
        "code": 2032
      },
      "arrival": 30420,
      "departure": 30420
    },
    {
      "stop": {
        "id": "2_2036",
        "lat": 48.10118579,
        "lon": -1.62396139,
        "name": "Bas Village",
        "code": 2036
      },
      "arrival": 30480,
      "departure": 30480
    },
    {
      "stop": {
        "id": "2_2034",
        "lat": 48.0996197,
        "lon": -1.62114642,
        "name": "Forum",
        "code": 2034
      },
      "arrival": 30540,
      "departure": 30540
    },
    {
      "stop": {
        "id": "2_3015",
        "lat": 48.09813047,
        "lon": -1.62296013,
        "name": "Breillou",
        "code": 3015
      },
      "arrival": 30600,
      "departure": 30600
    },
    {
      "stop": {
        "id": "2_1205",
        "lat": 48.09712076,
        "lon": -1.62923032,
        "name": "Veyettes",
        "code": 1205
      },
      "arrival": 30660,
      "departure": 30660
    },
    {
      "stop": {
        "id": "2_1072",
        "lat": 48.09499328,
        "lon": -1.63793817,
        "name": "CARSAT",
        "code": 1072
      },
      "arrival": 30780,
      "departure": 30780
    },
    {
      "stop": {
        "id": "2_1073",
        "lat": 48.09257263,
        "lon": -1.63966324,
        "name": "Ronceray",
        "code": 1073
      },
      "arrival": 30840,
      "departure": 30840
    },
    {
      "stop": {
        "id": "2_1074",
        "lat": 48.09187613,
        "lon": -1.63629215,
        "name": "Gohier",
        "code": 1074
      },
      "arrival": 30840,
      "departure": 30840
    },
    {
      "stop": {
        "id": "2_1075",
        "lat": 48.08949401,
        "lon": -1.63543734,
        "name": "Bourgueil",
        "code": 1075
      },
      "arrival": 30900,
      "departure": 30900
    },
    {
      "stop": {
        "id": "2_1076",
        "lat": 48.08799285,
        "lon": -1.6383059,
        "name": "Monnet",
        "code": 1076
      },
      "arrival": 30960,
      "departure": 30960
    },
    {
      "stop": {
        "id": "2_1065",
        "lat": 48.08758723,
        "lon": -1.64393705,
        "name": "La Poterie",
        "code": 1065
      },
      "arrival": 31020,
      "departure": 31020
    }
  ],
  "route": {
    "id": "2_0034",
    "textColor": "DF171C",
    "color": "FEF466",
    "description": "Inter-quartiers",
    "longName": "ZI Sud-Est / La Poterie \u003c\u003e Cesson-Sévigné (Lycée Saint-Etienne)",
    "shortName": "34",
    "type": 3,
    "agencyId": "2"
  }
}