{
  "headsign": "81 | Rennes Villejean-Université",
  "stopTimes": [
    {
      "stop": {
        "id": "2_6000",
        "lat": 48.21870667,
        "lon": -1.8933469,
        "name": "Romillé Collège",
        "code": 6000
      },
      "arrival": 54000,
      "departure": 54000
    },
    {
      "stop": {
        "id": "2_6002",
        "lat": 48.21672827,
        "lon": -1.89094337,
        "name": "Frères Aubert",
        "code": 6002
      },
      "arrival": 54060,
      "departure": 54060
    },
    {
      "stop": {
        "id": "2_6004",
        "lat": 48.21538709,
        "lon": -1.89228554,
        "name": "Romillé Mairie",
        "code": 6004
      },
      "arrival": 54180,
      "departure": 54180
    },
    {
      "stop": {
        "id": "2_6006",
        "lat": 48.21234128,
        "lon": -1.89087642,
        "name": "Mettrie Templiers",
        "code": 6006
      },
      "arrival": 54240,
      "departure": 54240
    },
    {
      "stop": {
        "id": "2_4452",
        "lat": 48.18138007,
        "lon": -1.85347313,
        "name": "Croix Simon",
        "code": 4452
      },
      "arrival": 54540,
      "departure": 54540
    },
    {
      "stop": {
        "id": "2_4460",
        "lat": 48.17807468,
        "lon": -1.85281717,
        "name": "La Cour aux Pages",
        "code": 4460
      },
      "arrival": 54600,
      "departure": 54600
    },
    {
      "stop": {
        "id": "2_4453",
        "lat": 48.17601811,
        "lon": -1.85254844,
        "name": "Clayes Centre",
        "code": 4453
      },
      "arrival": 54660,
      "departure": 54660
    },
    {
      "stop": {
        "id": "2_1517",
        "lat": 48.11854026,
        "lon": -1.71363649,
        "name": "Berry",
        "code": 1517
      },
      "arrival": 55440,
      "departure": 55440
    },
    {
      "stop": {
        "id": "2_1520",
        "lat": 48.12050245,
        "lon": -1.70973991,
        "name": "Bourbonnais",
        "code": 1520
      },
      "arrival": 55560,
      "departure": 55560
    },
    {
      "stop": {
        "id": "2_1497",
        "lat": 48.12102411,
        "lon": -1.70300103,
        "name": "Villejean-Université",
        "code": 1497
      },
      "arrival": 55680,
      "departure": 55680
    }
  ],
  "route": {
    "id": "2_0081",
    "textColor": "FFFFFF",
    "color": "0081C6",
    "description": "Métropolitaine",
    "longName": "Rennes (Villejean-Université) \u003c\u003e Clayes / Romillé",
    "shortName": "81",
    "type": 3,
    "agencyId": "2"
  }
}