{
  "headsign": "41 | P창tis Tatelin",
  "stopTimes": [
    {
      "stop": {
        "id": "2_1477",
        "lat": 48.10388016,
        "lon": -1.67284842,
        "name": "Gares",
        "code": 1477
      },
      "arrival": 32700,
      "departure": 32700
    },
    {
      "stop": {
        "id": "2_1171",
        "lat": 48.11006771,
        "lon": -1.66358483,
        "name": "Pont de Ch창teaudun",
        "code": 1171
      },
      "arrival": 33000,
      "departure": 33000
    },
    {
      "stop": {
        "id": "2_1174",
        "lat": 48.11246664,
        "lon": -1.64290057,
        "name": "Plaine de Baud",
        "code": 1174
      },
      "arrival": 33240,
      "departure": 33240
    },
    {
      "stop": {
        "id": "2_1610",
        "lat": 48.11406057,
        "lon": -1.63602668,
        "name": "Tournebride",
        "code": 1610
      },
      "arrival": 33300,
      "departure": 33300
    },
    {
      "stop": {
        "id": "2_1175",
        "lat": 48.11698398,
        "lon": -1.63390592,
        "name": "Beaulieu Chimie",
        "code": 1175
      },
      "arrival": 33360,
      "departure": 33360
    },
    {
      "stop": {
        "id": "2_1204",
        "lat": 48.11947653,
        "lon": -1.63539005,
        "name": "Beaulieu INSA",
        "code": 1204
      },
      "arrival": 33420,
      "departure": 33420
    },
    {
      "stop": {
        "id": "2_1313",
        "lat": 48.12187502,
        "lon": -1.63834696,
        "name": "Beaulieu Restau U",
        "code": 1313
      },
      "arrival": 33480,
      "departure": 33480
    },
    {
      "stop": {
        "id": "2_1314",
        "lat": 48.1250923,
        "lon": -1.63309609,
        "name": "IUT",
        "code": 1314
      },
      "arrival": 33540,
      "departure": 33540
    },
    {
      "stop": {
        "id": "2_1475",
        "lat": 48.12695887,
        "lon": -1.62918033,
        "name": "Clos Courtel",
        "code": 1475
      },
      "arrival": 33600,
      "departure": 33600
    },
    {
      "stop": {
        "id": "2_2121",
        "lat": 48.13034917,
        "lon": -1.63135124,
        "name": "Longs Champs Est",
        "code": 2121
      },
      "arrival": 33720,
      "departure": 33720
    },
    {
      "stop": {
        "id": "2_1484",
        "lat": 48.13185966,
        "lon": -1.63589821,
        "name": "ZA Saint-Sulpice",
        "code": 1484
      },
      "arrival": 33840,
      "departure": 33840
    },
    {
      "stop": {
        "id": "2_1483",
        "lat": 48.12955581,
        "lon": -1.64358619,
        "name": "P창tis Tatelin",
        "code": 1483
      },
      "arrival": 33960,
      "departure": 33960
    }
  ],
  "route": {
    "id": "2_0041",
    "textColor": "3D3C3F",
    "color": "FFDD00",
    "description": "Express urbaine",
    "longName": "Gares \u003c\u003e P창tis Tatelin",
    "shortName": "41",
    "type": 3,
    "agencyId": "2"
  }
}