{
  "headsign": "240 | L\u0027Hermitage Saint-Gilles",
  "stopTimes": [
    {
      "stop": {
        "id": "2_2534",
        "lat": 48.09883436,
        "lon": -1.80048361,
        "name": "Parking scolaire Brassens",
        "code": 2534
      },
      "arrival": 42300,
      "departure": 42300
    },
    {
      "stop": {
        "id": "2_2502",
        "lat": 48.1005527,
        "lon": -1.80657108,
        "name": "Lycée Monod",
        "code": 2502
      },
      "arrival": 42420,
      "departure": 42420
    },
    {
      "stop": {
        "id": "2_4307",
        "lat": 48.12346101,
        "lon": -1.80743913,
        "name": "Clairefontaine",
        "code": 4307
      },
      "arrival": 42960,
      "departure": 42960
    },
    {
      "stop": {
        "id": "2_4308",
        "lat": 48.12499565,
        "lon": -1.81290303,
        "name": "Village",
        "code": 4308
      },
      "arrival": 43020,
      "departure": 43020
    },
    {
      "stop": {
        "id": "2_4304",
        "lat": 48.12551567,
        "lon": -1.81606092,
        "name": "L\u0027Hermitage Centre",
        "code": 4304
      },
      "arrival": 43080,
      "departure": 43080
    },
    {
      "stop": {
        "id": "2_3714",
        "lat": 48.15249376,
        "lon": -1.82982513,
        "name": "Saint-Gilles Centre",
        "code": 3714
      },
      "arrival": 43440,
      "departure": 43440
    },
    {
      "stop": {
        "id": "2_3724",
        "lat": 48.15381862,
        "lon": -1.8340467,
        "name": "Clos des Cerisiers",
        "code": 3724
      },
      "arrival": 43560,
      "departure": 43560
    },
    {
      "stop": {
        "id": "2_3723",
        "lat": 48.15403633,
        "lon": -1.83780571,
        "name": "Maison Neuve",
        "code": 3723
      },
      "arrival": 43620,
      "departure": 43620
    },
    {
      "stop": {
        "id": "2_3732",
        "lat": 48.14932288,
        "lon": -1.83903709,
        "name": "Ile des Bois",
        "code": 3732
      },
      "arrival": 43740,
      "departure": 43740
    }
  ],
  "route": {
    "id": "2_0240",
    "textColor": "FFFFFF",
    "color": "005BAB",
    "description": "Complémentaire",
    "longName": "Saint-Gilles (Île des Bois) \u003c\u003e Le Rheu (Lycée Théodore Monod)",
    "shortName": "240",
    "type": 3,
    "agencyId": "2"
  }
}