{
  "headsign": "STN | République",
  "stopTimes": [
    {
      "stop": {
        "id": "2_1475",
        "lat": 48.12695887,
        "lon": -1.62918033,
        "name": "Clos Courtel",
        "code": 1475
      },
      "arrival": 6600,
      "departure": 6600
    },
    {
      "stop": {
        "id": "2_1291",
        "lat": 48.12475494,
        "lon": -1.63388412,
        "name": "IUT",
        "code": 1291
      },
      "arrival": 6660,
      "departure": 6660
    },
    {
      "stop": {
        "id": "2_1292",
        "lat": 48.12145018,
        "lon": -1.63814809,
        "name": "Beaulieu Restau. U.",
        "code": 1292
      },
      "arrival": 6780,
      "departure": 6780
    },
    {
      "stop": {
        "id": "2_1176",
        "lat": 48.11901733,
        "lon": -1.63514782,
        "name": "Beaulieu INSA",
        "code": 1176
      },
      "arrival": 6840,
      "departure": 6840
    },
    {
      "stop": {
        "id": "2_1312",
        "lat": 48.1166495,
        "lon": -1.63393042,
        "name": "Beaulieu Chimie",
        "code": 1312
      },
      "arrival": 6900,
      "departure": 6900
    },
    {
      "stop": {
        "id": "2_1160",
        "lat": 48.11406412,
        "lon": -1.63761839,
        "name": "Tournebride",
        "code": 1160
      },
      "arrival": 6960,
      "departure": 6960
    },
    {
      "stop": {
        "id": "2_1603",
        "lat": 48.11319466,
        "lon": -1.64121462,
        "name": "Préales",
        "code": 1603
      },
      "arrival": 7020,
      "departure": 7020
    },
    {
      "stop": {
        "id": "2_1161",
        "lat": 48.11219183,
        "lon": -1.64423633,
        "name": "Plaine de Baud",
        "code": 1161
      },
      "arrival": 7080,
      "departure": 7080
    },
    {
      "stop": {
        "id": "2_1162",
        "lat": 48.1103356,
        "lon": -1.6559754,
        "name": "Pont de Strasbourg",
        "code": 1162
      },
      "arrival": 7200,
      "departure": 7200
    },
    {
      "stop": {
        "id": "2_1163",
        "lat": 48.1101066,
        "lon": -1.66054614,
        "name": "Robidou",
        "code": 1163
      },
      "arrival": 7260,
      "departure": 7260
    },
    {
      "stop": {
        "id": "2_1164",
        "lat": 48.11009515,
        "lon": -1.66397755,
        "name": "Pont de Châteaudun",
        "code": 1164
      },
      "arrival": 7320,
      "departure": 7320
    },
    {
      "stop": {
        "id": "2_1165",
        "lat": 48.11006169,
        "lon": -1.67017835,
        "name": "Paul Bert",
        "code": 1165
      },
      "arrival": 7380,
      "departure": 7380
    },
    {
      "stop": {
        "id": "2_1166",
        "lat": 48.10988328,
        "lon": -1.67512929,
        "name": "Musée Beaux Arts",
        "code": 1166
      },
      "arrival": 7440,
      "departure": 7440
    },
    {
      "stop": {
        "id": "2_1052",
        "lat": 48.10989306,
        "lon": -1.67887428,
        "name": "République",
        "code": 1052
      },
      "arrival": 7500,
      "departure": 7500
    }
  ],
  "route": {
    "id": "2_0805",
    "textColor": "FFFFFF",
    "color": "004B96",
    "description": "Spéciale",
    "longName": "STAR de Nuit - Beaulieu Atalante \u003c\u003e J.F. Kennedy",
    "shortName": "STN",
    "type": 3,
    "agencyId": "2"
  }
}