{
  "headsign": "71 | Betton Chevaigné",
  "stopTimes": [
    {
      "stop": {
        "id": "2_1606",
        "lat": 48.11563109,
        "lon": -1.67670645,
        "name": "Hoche",
        "code": 1606
      },
      "arrival": 61200,
      "departure": 61200
    },
    {
      "stop": {
        "id": "2_1279",
        "lat": 48.11946401,
        "lon": -1.67448311,
        "name": "Rectorat",
        "code": 1279
      },
      "arrival": 61380,
      "departure": 61380
    },
    {
      "stop": {
        "id": "2_1280",
        "lat": 48.12141907,
        "lon": -1.67087311,
        "name": "Jules Ferry",
        "code": 1280
      },
      "arrival": 61440,
      "departure": 61440
    },
    {
      "stop": {
        "id": "2_1281",
        "lat": 48.12528439,
        "lon": -1.66636805,
        "name": "Volney",
        "code": 1281
      },
      "arrival": 61620,
      "departure": 61620
    },
    {
      "stop": {
        "id": "2_1490",
        "lat": 48.13593467,
        "lon": -1.65918915,
        "name": "Hôtel de Région",
        "code": 1490
      },
      "arrival": 61980,
      "departure": 61980
    },
    {
      "stop": {
        "id": "2_1491",
        "lat": 48.13884258,
        "lon": -1.65836842,
        "name": "Saint-Laurent",
        "code": 1491
      },
      "arrival": 62100,
      "departure": 62100
    },
    {
      "stop": {
        "id": "2_2829",
        "lat": 48.14928398,
        "lon": -1.65646132,
        "name": "Maison Blanche",
        "code": 2829
      },
      "arrival": 62220,
      "departure": 62220
    },
    {
      "stop": {
        "id": "2_2412",
        "lat": 48.16199698,
        "lon": -1.64746497,
        "name": "Betton Vallée",
        "code": 2412
      },
      "arrival": 62340,
      "departure": 62340
    },
    {
      "stop": {
        "id": "2_2413",
        "lat": 48.17110928,
        "lon": -1.64175914,
        "name": "Enseigne Abbaye",
        "code": 2413
      },
      "arrival": 62400,
      "departure": 62400
    },
    {
      "stop": {
        "id": "2_2436",
        "lat": 48.17590176,
        "lon": -1.63953946,
        "name": "Betton Rue de Rennes",
        "code": 2436
      },
      "arrival": 62460,
      "departure": 62460
    },
    {
      "stop": {
        "id": "2_2417",
        "lat": 48.18170386,
        "lon": -1.63855109,
        "name": "Betton Centre",
        "code": 2417
      },
      "arrival": 62640,
      "departure": 62640
    },
    {
      "stop": {
        "id": "2_2435",
        "lat": 48.18305974,
        "lon": -1.63721735,
        "name": "Mozart",
        "code": 2435
      },
      "arrival": 62640,
      "departure": 62640
    },
    {
      "stop": {
        "id": "2_2434",
        "lat": 48.18635458,
        "lon": -1.63319375,
        "name": "J. Sébastien Bach",
        "code": 2434
      },
      "arrival": 62760,
      "departure": 62760
    },
    {
      "stop": {
        "id": "2_2458",
        "lat": 48.19099575,
        "lon": -1.6289883,
        "name": "Gentilhommière",
        "code": 2458
      },
      "arrival": 62880,
      "departure": 62880
    },
    {
      "stop": {
        "id": "2_4610",
        "lat": 48.19918213,
        "lon": -1.62764716,
        "name": "Chopinais",
        "code": 4610
      },
      "arrival": 63000,
      "departure": 63000
    },
    {
      "stop": {
        "id": "2_4608",
        "lat": 48.20787045,
        "lon": -1.63064822,
        "name": "Chevaigné Gare",
        "code": 4608
      },
      "arrival": 63180,
      "departure": 63180
    },
    {
      "stop": {
        "id": "2_4601",
        "lat": 48.21171751,
        "lon": -1.63046022,
        "name": "Chevaigné Mairie",
        "code": 4601
      },
      "arrival": 63240,
      "departure": 63240
    },
    {
      "stop": {
        "id": "2_4602",
        "lat": 48.21431434,
        "lon": -1.62905651,
        "name": "Fonderies",
        "code": 4602
      },
      "arrival": 63300,
      "departure": 63300
    },
    {
      "stop": {
        "id": "2_4603",
        "lat": 48.21095412,
        "lon": -1.62602395,
        "name": "Pommiers",
        "code": 4603
      },
      "arrival": 63360,
      "departure": 63360
    }
  ],
  "route": {
    "id": "2_0071",
    "textColor": "FFFFFF",
    "color": "A9701E",
    "description": "Métropolitaine",
    "longName": "Rennes (Hoche) \u003c\u003e Betton / Chevaigné",
    "shortName": "71",
    "type": 3,
    "agencyId": "2"
  }
}