{
  "headsign": "11 | Stade Rennais",
  "stopTimes": [
    {
      "stop": {
        "id": "2_1639",
        "lat": 48.088146,
        "lon": -1.644513,
        "name": "La Poterie",
        "code": 1639
      },
      "arrival": 45780,
      "departure": 45780
    },
    {
      "stop": {
        "id": "2_1066",
        "lat": 48.087788,
        "lon": -1.638596,
        "name": "Monnet",
        "code": 1066
      },
      "arrival": 45900,
      "departure": 45900
    },
    {
      "stop": {
        "id": "2_1067",
        "lat": 48.089455,
        "lon": -1.635281,
        "name": "Bourgueil",
        "code": 1067
      },
      "arrival": 45900,
      "departure": 45900
    },
    {
      "stop": {
        "id": "2_1068",
        "lat": 48.092067,
        "lon": -1.636471,
        "name": "Gohier",
        "code": 1068
      },
      "arrival": 46020,
      "departure": 46020
    },
    {
      "stop": {
        "id": "2_1069",
        "lat": 48.092756,
        "lon": -1.63962,
        "name": "Ronceray",
        "code": 1069
      },
      "arrival": 46020,
      "departure": 46020
    },
    {
      "stop": {
        "id": "2_1070",
        "lat": 48.094492,
        "lon": -1.637889,
        "name": "CARSAT",
        "code": 1070
      },
      "arrival": 46080,
      "departure": 46080
    },
    {
      "stop": {
        "id": "2_1636",
        "lat": 48.095933,
        "lon": -1.637156,
        "name": "Haut Sancé",
        "code": 1636
      },
      "arrival": 46140,
      "departure": 46140
    },
    {
      "stop": {
        "id": "2_1251",
        "lat": 48.097042,
        "lon": -1.629126,
        "name": "Veyettes",
        "code": 1251
      },
      "arrival": 46260,
      "departure": 46260
    },
    {
      "stop": {
        "id": "2_3014",
        "lat": 48.098087,
        "lon": -1.622908,
        "name": "Breillou",
        "code": 3014
      },
      "arrival": 46320,
      "departure": 46320
    },
    {
      "stop": {
        "id": "2_2035",
        "lat": 48.09967,
        "lon": -1.620857,
        "name": "Forum",
        "code": 2035
      },
      "arrival": 46380,
      "departure": 46380
    },
    {
      "stop": {
        "id": "2_2033",
        "lat": 48.10133,
        "lon": -1.623467,
        "name": "Bas Village",
        "code": 2033
      },
      "arrival": 46440,
      "departure": 46440
    },
    {
      "stop": {
        "id": "2_2061",
        "lat": 48.106515,
        "lon": -1.621243,
        "name": "Charmilles",
        "code": 2061
      },
      "arrival": 46500,
      "departure": 46500
    },
    {
      "stop": {
        "id": "2_2102",
        "lat": 48.106097,
        "lon": -1.625877,
        "name": "Erbonière",
        "code": 2102
      },
      "arrival": 46560,
      "departure": 46560
    },
    {
      "stop": {
        "id": "2_2122",
        "lat": 48.104575,
        "lon": -1.630458,
        "name": "Buisson",
        "code": 2122
      },
      "arrival": 46620,
      "departure": 46620
    },
    {
      "stop": {
        "id": "2_1629",
        "lat": 48.104031,
        "lon": -1.635026,
        "name": "Pré Garel",
        "code": 1629
      },
      "arrival": 46620,
      "departure": 46620
    },
    {
      "stop": {
        "id": "2_1208",
        "lat": 48.104165,
        "lon": -1.637787,
        "name": "Saint-Saëns",
        "code": 1208
      },
      "arrival": 46680,
      "departure": 46680
    },
    {
      "stop": {
        "id": "2_1209",
        "lat": 48.105033,
        "lon": -1.64458,
        "name": "Pavie",
        "code": 1209
      },
      "arrival": 46740,
      "departure": 46740
    },
    {
      "stop": {
        "id": "2_1210",
        "lat": 48.10431,
        "lon": -1.64971,
        "name": "Cimetière de l\u0027Est",
        "code": 1210
      },
      "arrival": 46800,
      "departure": 46800
    },
    {
      "stop": {
        "id": "2_1245",
        "lat": 48.103213,
        "lon": -1.652536,
        "name": "Serpette",
        "code": 1245
      },
      "arrival": 46860,
      "departure": 46860
    },
    {
      "stop": {
        "id": "2_1212",
        "lat": 48.101949,
        "lon": -1.656538,
        "name": "Mouézy",
        "code": 1212
      },
      "arrival": 46920,
      "departure": 46920
    },
    {
      "stop": {
        "id": "2_1213",
        "lat": 48.102902,
        "lon": -1.661403,
        "name": "Croix Saint-Hélier",
        "code": 1213
      },
      "arrival": 46980,
      "departure": 46980
    },
    {
      "stop": {
        "id": "2_1057",
        "lat": 48.104747,
        "lon": -1.667176,
        "name": "Laënnec",
        "code": 1057
      },
      "arrival": 47100,
      "departure": 47100
    },
    {
      "stop": {
        "id": "2_1056",
        "lat": 48.103956,
        "lon": -1.673185,
        "name": "Gares",
        "code": 1056
      },
      "arrival": 47220,
      "departure": 47220
    },
    {
      "stop": {
        "id": "2_1055",
        "lat": 48.106057,
        "lon": -1.67401,
        "name": "Champs Libres",
        "code": 1055
      },
      "arrival": 47340,
      "departure": 47340
    },
    {
      "stop": {
        "id": "2_1054",
        "lat": 48.107564,
        "lon": -1.675176,
        "name": "Liberté TNB",
        "code": 1054
      },
      "arrival": 47400,
      "departure": 47400
    },
    {
      "stop": {
        "id": "2_1214",
        "lat": 48.109932,
        "lon": -1.679644,
        "name": "République",
        "code": 1214
      },
      "arrival": 47640,
      "departure": 47640
    },
    {
      "stop": {
        "id": "2_1051",
        "lat": 48.109888,
        "lon": -1.68328,
        "name": "Place de Bretagne",
        "code": 1051
      },
      "arrival": 47700,
      "departure": 47700
    },
    {
      "stop": {
        "id": "2_1216",
        "lat": 48.109176,
        "lon": -1.690514,
        "name": "Le Mail",
        "code": 1216
      },
      "arrival": 47820,
      "departure": 47820
    },
    {
      "stop": {
        "id": "2_1217",
        "lat": 48.108252,
        "lon": -1.694511,
        "name": "Chèques Postaux",
        "code": 1217
      },
      "arrival": 47880,
      "departure": 47880
    },
    {
      "stop": {
        "id": "2_1218",
        "lat": 48.109099,
        "lon": -1.697997,
        "name": "Guilloux Lorient",
        "code": 1218
      },
      "arrival": 48000,
      "departure": 48000
    },
    {
      "stop": {
        "id": "2_1219",
        "lat": 48.108274,
        "lon": -1.703743,
        "name": "Papeteries",
        "code": 1219
      },
      "arrival": 48060,
      "departure": 48060
    },
    {
      "stop": {
        "id": "2_1220",
        "lat": 48.109162,
        "lon": -1.706366,
        "name": "Kerviler",
        "code": 1220
      },
      "arrival": 48120,
      "departure": 48120
    },
    {
      "stop": {
        "id": "2_1221",
        "lat": 48.108871,
        "lon": -1.710766,
        "name": "Géniaux",
        "code": 1221
      },
      "arrival": 48180,
      "departure": 48180
    },
    {
      "stop": {
        "id": "2_1222",
        "lat": 48.108107,
        "lon": -1.714065,
        "name": "Stade Rennais",
        "code": 1222
      },
      "arrival": 48240,
      "departure": 48240
    }
  ],
  "route": {
    "id": "2_0011",
    "textColor": "FFFFFF",
    "color": "DD84B1",
    "description": "Urbaine",
    "longName": "ZI Ouest / Stade Rennais \u003c\u003e Saint-Saëns / La Poterie",
    "shortName": "11",
    "type": 3,
    "agencyId": "2"
  }
}