{
  "headsign": "173 | Saint-Armel Corps-Nuds",
  "stopTimes": [
    {
      "stop": {
        "id": "2_1511",
        "lat": 48.08753912,
        "lon": -1.64345457,
        "name": "La Poterie",
        "code": 1511
      },
      "arrival": 61800,
      "departure": 61800
    },
    {
      "stop": {
        "id": "2_4552",
        "lat": 48.01396708,
        "lon": -1.59426931,
        "name": "Saint-Armel Gare",
        "code": 4552
      },
      "arrival": 62640,
      "departure": 62640
    },
    {
      "stop": {
        "id": "2_4551",
        "lat": 48.0134184,
        "lon": -1.59096813,
        "name": "Saint-Armel Eglise",
        "code": 4551
      },
      "arrival": 62700,
      "departure": 62700
    },
    {
      "stop": {
        "id": "2_4108",
        "lat": 47.98189705,
        "lon": -1.58838301,
        "name": "Chêne Hervé",
        "code": 4108
      },
      "arrival": 63180,
      "departure": 63180
    },
    {
      "stop": {
        "id": "2_4109",
        "lat": 47.97901568,
        "lon": -1.58783799,
        "name": "Corps-Nuds Mairie",
        "code": 4109
      },
      "arrival": 63240,
      "departure": 63240
    },
    {
      "stop": {
        "id": "2_4110",
        "lat": 47.97776379,
        "lon": -1.58550091,
        "name": "Place de Kildare",
        "code": 4110
      },
      "arrival": 63300,
      "departure": 63300
    },
    {
      "stop": {
        "id": "2_4111",
        "lat": 47.98259928,
        "lon": -1.58032069,
        "name": "Huberdières",
        "code": 4111
      },
      "arrival": 63420,
      "departure": 63420
    },
    {
      "stop": {
        "id": "2_4112",
        "lat": 47.98528795,
        "lon": -1.57609539,
        "name": "Corps-Nuds Gare",
        "code": 4112
      },
      "arrival": 63480,
      "departure": 63480
    }
  ],
  "route": {
    "id": "2_0173",
    "textColor": "BF82B2",
    "color": "FCE000",
    "description": "Express métropolitaine",
    "longName": "Rennes (La Poterie) \u003c\u003e Saint-Armel / Corps-Nuds",
    "shortName": "173",
    "type": 3,
    "agencyId": "2"
  }
}