{
  "headsign": "51 | Betton Champ Devant",
  "stopTimes": [
    {
      "stop": {
        "id": "2_1606",
        "lat": 48.115697,
        "lon": -1.676699,
        "name": "Hoche",
        "code": 1606
      },
      "arrival": 30000,
      "departure": 30000
    },
    {
      "stop": {
        "id": "2_1279",
        "lat": 48.119451,
        "lon": -1.674371,
        "name": "Rectorat",
        "code": 1279
      },
      "arrival": 30120,
      "departure": 30120
    },
    {
      "stop": {
        "id": "2_1280",
        "lat": 48.121404,
        "lon": -1.670825,
        "name": "Jules Ferry",
        "code": 1280
      },
      "arrival": 30180,
      "departure": 30180
    },
    {
      "stop": {
        "id": "2_1281",
        "lat": 48.125362,
        "lon": -1.66626,
        "name": "Volney",
        "code": 1281
      },
      "arrival": 30240,
      "departure": 30240
    },
    {
      "stop": {
        "id": "2_1282",
        "lat": 48.126594,
        "lon": -1.665268,
        "name": "Gros Chêne",
        "code": 1282
      },
      "arrival": 30300,
      "departure": 30300
    },
    {
      "stop": {
        "id": "2_1489",
        "lat": 48.132299,
        "lon": -1.661521,
        "name": "Patton Gast",
        "code": 1489
      },
      "arrival": 30420,
      "departure": 30420
    },
    {
      "stop": {
        "id": "2_1490",
        "lat": 48.136021,
        "lon": -1.659114,
        "name": "Hôtel de Région",
        "code": 1490
      },
      "arrival": 30480,
      "departure": 30480
    },
    {
      "stop": {
        "id": "2_1491",
        "lat": 48.13892,
        "lon": -1.658273,
        "name": "Saint-Laurent",
        "code": 1491
      },
      "arrival": 30540,
      "departure": 30540
    },
    {
      "stop": {
        "id": "2_2829",
        "lat": 48.149378,
        "lon": -1.656411,
        "name": "Maison Blanche",
        "code": 2829
      },
      "arrival": 30660,
      "departure": 30660
    },
    {
      "stop": {
        "id": "2_2412",
        "lat": 48.162059,
        "lon": -1.647356,
        "name": "Betton Vallée",
        "code": 2412
      },
      "arrival": 30780,
      "departure": 30780
    },
    {
      "stop": {
        "id": "2_2413",
        "lat": 48.171155,
        "lon": -1.641673,
        "name": "Enseigne Abbaye",
        "code": 2413
      },
      "arrival": 30840,
      "departure": 30840
    },
    {
      "stop": {
        "id": "2_2414",
        "lat": 48.172685,
        "lon": -1.637284,
        "name": "Housset",
        "code": 2414
      },
      "arrival": 30900,
      "departure": 30900
    },
    {
      "stop": {
        "id": "2_2415",
        "lat": 48.176867,
        "lon": -1.637055,
        "name": "Marronniers",
        "code": 2415
      },
      "arrival": 30960,
      "departure": 30960
    },
    {
      "stop": {
        "id": "2_2416",
        "lat": 48.180198,
        "lon": -1.634708,
        "name": "Haye Renaud Gare",
        "code": 2416
      },
      "arrival": 31020,
      "departure": 31020
    },
    {
      "stop": {
        "id": "2_2437",
        "lat": 48.181703,
        "lon": -1.639251,
        "name": "Betton Centre",
        "code": 2437
      },
      "arrival": 31080,
      "departure": 31080
    },
    {
      "stop": {
        "id": "2_2418",
        "lat": 48.181986,
        "lon": -1.641399,
        "name": "Betton Mairie",
        "code": 2418
      },
      "arrival": 31080,
      "departure": 31080
    },
    {
      "stop": {
        "id": "2_2419",
        "lat": 48.183195,
        "lon": -1.646546,
        "name": "Trégor",
        "code": 2419
      },
      "arrival": 31200,
      "departure": 31200
    },
    {
      "stop": {
        "id": "2_2420",
        "lat": 48.180579,
        "lon": -1.652229,
        "name": "Brocéliande",
        "code": 2420
      },
      "arrival": 31260,
      "departure": 31260
    },
    {
      "stop": {
        "id": "2_2421",
        "lat": 48.179175,
        "lon": -1.65123,
        "name": "Omblais",
        "code": 2421
      },
      "arrival": 31320,
      "departure": 31320
    },
    {
      "stop": {
        "id": "2_2401",
        "lat": 48.177029,
        "lon": -1.651134,
        "name": "Champ Devant",
        "code": 2401
      },
      "arrival": 31380,
      "departure": 31380
    }
  ],
  "route": {
    "id": "2_0051",
    "textColor": "FFFFFF",
    "color": "93117E",
    "description": "Métropolitaine",
    "longName": "Rennes (Hoche) \u003c\u003e Betton (Champ Devant)",
    "shortName": "51",
    "type": 3,
    "agencyId": "2"
  }
}