{
  "headsign": "55 | Mordelles Le Verger",
  "stopTimes": [
    {
      "stop": {
        "id": "2_1567",
        "lat": 48.1062288,
        "lon": -1.67750174,
        "name": "Charles de Gaulle",
        "code": 1567
      },
      "arrival": 43620,
      "departure": 43620
    },
    {
      "stop": {
        "id": "2_1214",
        "lat": 48.10990137,
        "lon": -1.6796669,
        "name": "République",
        "code": 1214
      },
      "arrival": 43800,
      "departure": 43800
    },
    {
      "stop": {
        "id": "2_1540",
        "lat": 48.1099522,
        "lon": -1.68519001,
        "name": "Pont de Bretagne",
        "code": 1540
      },
      "arrival": 43860,
      "departure": 43860
    },
    {
      "stop": {
        "id": "2_1217",
        "lat": 48.10823293,
        "lon": -1.69450077,
        "name": "Chèques Postaux",
        "code": 1217
      },
      "arrival": 44040,
      "departure": 44040
    },
    {
      "stop": {
        "id": "2_1218",
        "lat": 48.10910111,
        "lon": -1.69795527,
        "name": "Guilloux Lorient",
        "code": 1218
      },
      "arrival": 44100,
      "departure": 44100
    },
    {
      "stop": {
        "id": "2_1221",
        "lat": 48.10886589,
        "lon": -1.71061365,
        "name": "Géniaux",
        "code": 1221
      },
      "arrival": 44220,
      "departure": 44220
    },
    {
      "stop": {
        "id": "2_1539",
        "lat": 48.10723127,
        "lon": -1.72306614,
        "name": "Lemaistre",
        "code": 1539
      },
      "arrival": 44400,
      "departure": 44400
    },
    {
      "stop": {
        "id": "2_1506",
        "lat": 48.10648051,
        "lon": -1.73143819,
        "name": "Berthault",
        "code": 1506
      },
      "arrival": 44460,
      "departure": 44460
    },
    {
      "stop": {
        "id": "2_3766",
        "lat": 48.10499211,
        "lon": -1.74065229,
        "name": "Trois Marches",
        "code": 3766
      },
      "arrival": 44580,
      "departure": 44580
    },
    {
      "stop": {
        "id": "2_2512",
        "lat": 48.09623468,
        "lon": -1.76464809,
        "name": "Pont d\u0027Avoine",
        "code": 2512
      },
      "arrival": 44760,
      "departure": 44760
    },
    {
      "stop": {
        "id": "2_2523",
        "lat": 48.09407165,
        "lon": -1.77398049,
        "name": "Mahomat",
        "code": 2523
      },
      "arrival": 44820,
      "departure": 44820
    },
    {
      "stop": {
        "id": "2_2524",
        "lat": 48.09134708,
        "lon": -1.78557585,
        "name": "Gerhoui",
        "code": 2524
      },
      "arrival": 44880,
      "departure": 44880
    },
    {
      "stop": {
        "id": "2_3859",
        "lat": 48.0881174,
        "lon": -1.79980194,
        "name": "Vivier des Bois",
        "code": 3859
      },
      "arrival": 45000,
      "departure": 45000
    },
    {
      "stop": {
        "id": "2_3860",
        "lat": 48.08361464,
        "lon": -1.81579413,
        "name": "Grande Fontaine",
        "code": 3860
      },
      "arrival": 45120,
      "departure": 45120
    },
    {
      "stop": {
        "id": "2_3861",
        "lat": 48.08139625,
        "lon": -1.82681277,
        "name": "Croix Ignon",
        "code": 3861
      },
      "arrival": 45180,
      "departure": 45180
    },
    {
      "stop": {
        "id": "2_3862",
        "lat": 48.07780007,
        "lon": -1.83732775,
        "name": "Gretay",
        "code": 3862
      },
      "arrival": 45240,
      "departure": 45240
    },
    {
      "stop": {
        "id": "2_3863",
        "lat": 48.0755735,
        "lon": -1.84280109,
        "name": "Mordelles Lilas",
        "code": 3863
      },
      "arrival": 45300,
      "departure": 45300
    },
    {
      "stop": {
        "id": "2_3864",
        "lat": 48.07357073,
        "lon": -1.84677438,
        "name": "Mordelles Mairie",
        "code": 3864
      },
      "arrival": 45360,
      "departure": 45360
    },
    {
      "stop": {
        "id": "2_3865",
        "lat": 48.07185149,
        "lon": -1.85020843,
        "name": "Mordelles Eglise",
        "code": 3865
      },
      "arrival": 45420,
      "departure": 45420
    },
    {
      "stop": {
        "id": "2_3869",
        "lat": 48.07392429,
        "lon": -1.85371952,
        "name": "Mordelles Pâtis",
        "code": 3869
      },
      "arrival": 45540,
      "departure": 45540
    },
    {
      "stop": {
        "id": "2_4403",
        "lat": 48.07002136,
        "lon": -1.93025491,
        "name": "Bouvrais",
        "code": 4403
      },
      "arrival": 46140,
      "departure": 46140
    },
    {
      "stop": {
        "id": "2_4408",
        "lat": 48.06999661,
        "lon": -1.93235118,
        "name": "Le Verger Eglise",
        "code": 4408
      },
      "arrival": 46140,
      "departure": 46140
    }
  ],
  "route": {
    "id": "2_0055",
    "textColor": "1A171B",
    "color": "F7A800",
    "description": "Métropolitaine",
    "longName": "Rennes (Charles de Gaulle) \u003c\u003e Mordelles / Le Verger",
    "shortName": "55",
    "type": 3,
    "agencyId": "2"
  }
}