{
  "headsign": "232 | Saint-Erblon Leuzières",
  "stopTimes": [
    {
      "stop": {
        "id": "2_3246",
        "lat": 48.0023863,
        "lon": -1.66889107,
        "name": "Parking scolaire Récipon",
        "code": 3246
      },
      "arrival": 45600,
      "departure": 45600
    },
    {
      "stop": {
        "id": "2_3213",
        "lat": 48.00909705,
        "lon": -1.66635235,
        "name": "Plardière",
        "code": 3213
      },
      "arrival": 45900,
      "departure": 45900
    },
    {
      "stop": {
        "id": "2_3250",
        "lat": 48.01492514,
        "lon": -1.66387719,
        "name": "Orgerblon",
        "code": 3250
      },
      "arrival": 45960,
      "departure": 45960
    },
    {
      "stop": {
        "id": "2_4356",
        "lat": 48.01707559,
        "lon": -1.66458634,
        "name": "Croix du Pigeonnet",
        "code": 4356
      },
      "arrival": 45960,
      "departure": 45960
    },
    {
      "stop": {
        "id": "2_4352",
        "lat": 48.01883453,
        "lon": -1.65769241,
        "name": "Champ Mulon",
        "code": 4352
      },
      "arrival": 46080,
      "departure": 46080
    },
    {
      "stop": {
        "id": "2_4353",
        "lat": 48.01766237,
        "lon": -1.65451232,
        "name": "Paul Féval",
        "code": 4353
      },
      "arrival": 46140,
      "departure": 46140
    },
    {
      "stop": {
        "id": "2_4362",
        "lat": 48.01622131,
        "lon": -1.65152108,
        "name": "Alexandre Gilois",
        "code": 4362
      },
      "arrival": 46200,
      "departure": 46200
    },
    {
      "stop": {
        "id": "2_4373",
        "lat": 48.01467308,
        "lon": -1.64600473,
        "name": "Le Plessix",
        "code": 4373
      },
      "arrival": 46320,
      "departure": 46320
    },
    {
      "stop": {
        "id": "2_4358",
        "lat": 48.01767454,
        "lon": -1.64942104,
        "name": "Croix Faucheux",
        "code": 4358
      },
      "arrival": 46440,
      "departure": 46440
    },
    {
      "stop": {
        "id": "2_4359",
        "lat": 48.02152221,
        "lon": -1.65356188,
        "name": "Leuzières",
        "code": 4359
      },
      "arrival": 46560,
      "departure": 46560
    }
  ],
  "route": {
    "id": "2_0232",
    "textColor": "FFFFFF",
    "color": "94C11F",
    "description": "Complémentaire",
    "longName": "Saint-Erblon (Leuzières) \u003c\u003e Orgères (Collège Andrée Récipon)",
    "shortName": "232",
    "type": 3,
    "agencyId": "2"
  }
}