{
  "headsign": "232 | Orgères Collège Andrée Récipon",
  "stopTimes": [
    {
      "stop": {
        "id": "2_4360",
        "lat": 48.02156395,
        "lon": -1.65364618,
        "name": "Leuzières",
        "code": 4360
      },
      "arrival": 31800,
      "departure": 31800
    },
    {
      "stop": {
        "id": "2_4361",
        "lat": 48.01776753,
        "lon": -1.64957701,
        "name": "Croix Faucheux",
        "code": 4361
      },
      "arrival": 31860,
      "departure": 31860
    },
    {
      "stop": {
        "id": "2_4373",
        "lat": 48.01467308,
        "lon": -1.64600473,
        "name": "Le Plessix",
        "code": 4373
      },
      "arrival": 31980,
      "departure": 31980
    },
    {
      "stop": {
        "id": "2_4363",
        "lat": 48.01632313,
        "lon": -1.6513413,
        "name": "Alexandre Gilois",
        "code": 4363
      },
      "arrival": 32160,
      "departure": 32160
    },
    {
      "stop": {
        "id": "2_4354",
        "lat": 48.01764653,
        "lon": -1.65445718,
        "name": "Paul Féval",
        "code": 4354
      },
      "arrival": 32220,
      "departure": 32220
    },
    {
      "stop": {
        "id": "2_4355",
        "lat": 48.01883506,
        "lon": -1.65767902,
        "name": "Champ Mulon",
        "code": 4355
      },
      "arrival": 32280,
      "departure": 32280
    },
    {
      "stop": {
        "id": "2_4357",
        "lat": 48.01706279,
        "lon": -1.66474597,
        "name": "Croix du Pigeonnet",
        "code": 4357
      },
      "arrival": 32400,
      "departure": 32400
    },
    {
      "stop": {
        "id": "2_3249",
        "lat": 48.01492798,
        "lon": -1.66396872,
        "name": "Orgerblon",
        "code": 3249
      },
      "arrival": 32400,
      "departure": 32400
    },
    {
      "stop": {
        "id": "2_3216",
        "lat": 48.00913379,
        "lon": -1.66637462,
        "name": "Plardière",
        "code": 3216
      },
      "arrival": 32460,
      "departure": 32460
    },
    {
      "stop": {
        "id": "2_3246",
        "lat": 48.0023863,
        "lon": -1.66889107,
        "name": "Parking scolaire Récipon",
        "code": 3246
      },
      "arrival": 32700,
      "departure": 32700
    }
  ],
  "route": {
    "id": "2_0232",
    "textColor": "FFFFFF",
    "color": "94C11F",
    "description": "Complémentaire",
    "longName": "Saint-Erblon (Leuzières) \u003c\u003e Orgères (Collège Andrée Récipon)",
    "shortName": "232",
    "type": 3,
    "agencyId": "2"
  }
}