{
  "headsign": "51 | Rennes Hoche",
  "stopTimes": [
    {
      "stop": {
        "id": "2_2401",
        "lat": 48.177029,
        "lon": -1.651134,
        "name": "Champ Devant",
        "code": 2401
      },
      "arrival": 48780,
      "departure": 48780
    },
    {
      "stop": {
        "id": "2_2402",
        "lat": 48.179301,
        "lon": -1.651047,
        "name": "Omblais",
        "code": 2402
      },
      "arrival": 48840,
      "departure": 48840
    },
    {
      "stop": {
        "id": "2_2403",
        "lat": 48.180722,
        "lon": -1.651937,
        "name": "Brocéliande",
        "code": 2403
      },
      "arrival": 48900,
      "departure": 48900
    },
    {
      "stop": {
        "id": "2_2404",
        "lat": 48.183007,
        "lon": -1.646075,
        "name": "Trégor",
        "code": 2404
      },
      "arrival": 49020,
      "departure": 49020
    },
    {
      "stop": {
        "id": "2_2405",
        "lat": 48.181894,
        "lon": -1.641783,
        "name": "Betton Mairie",
        "code": 2405
      },
      "arrival": 49080,
      "departure": 49080
    },
    {
      "stop": {
        "id": "2_2406",
        "lat": 48.181123,
        "lon": -1.637898,
        "name": "Betton Centre",
        "code": 2406
      },
      "arrival": 49140,
      "departure": 49140
    },
    {
      "stop": {
        "id": "2_2407",
        "lat": 48.18021,
        "lon": -1.634936,
        "name": "Haye Renaud Gare",
        "code": 2407
      },
      "arrival": 49200,
      "departure": 49200
    },
    {
      "stop": {
        "id": "2_2408",
        "lat": 48.176154,
        "lon": -1.637359,
        "name": "Marronniers",
        "code": 2408
      },
      "arrival": 49260,
      "departure": 49260
    },
    {
      "stop": {
        "id": "2_2409",
        "lat": 48.172332,
        "lon": -1.637445,
        "name": "Housset",
        "code": 2409
      },
      "arrival": 49320,
      "departure": 49320
    },
    {
      "stop": {
        "id": "2_2410",
        "lat": 48.17135,
        "lon": -1.642053,
        "name": "Enseigne Abbaye",
        "code": 2410
      },
      "arrival": 49380,
      "departure": 49380
    },
    {
      "stop": {
        "id": "2_2411",
        "lat": 48.161724,
        "lon": -1.647868,
        "name": "Betton Vallée",
        "code": 2411
      },
      "arrival": 49500,
      "departure": 49500
    },
    {
      "stop": {
        "id": "2_2827",
        "lat": 48.148996,
        "lon": -1.656601,
        "name": "Maison Blanche",
        "code": 2827
      },
      "arrival": 49680,
      "departure": 49680
    },
    {
      "stop": {
        "id": "2_1485",
        "lat": 48.137957,
        "lon": -1.658769,
        "name": "Saint-Laurent",
        "code": 1485
      },
      "arrival": 49800,
      "departure": 49800
    },
    {
      "stop": {
        "id": "2_1486",
        "lat": 48.134801,
        "lon": -1.659901,
        "name": "Hôtel de Région",
        "code": 1486
      },
      "arrival": 49860,
      "departure": 49860
    },
    {
      "stop": {
        "id": "2_1487",
        "lat": 48.131345,
        "lon": -1.662406,
        "name": "Patton Gast",
        "code": 1487
      },
      "arrival": 49980,
      "departure": 49980
    },
    {
      "stop": {
        "id": "2_1260",
        "lat": 48.126715,
        "lon": -1.665432,
        "name": "Gros Chêne",
        "code": 1260
      },
      "arrival": 50040,
      "departure": 50040
    },
    {
      "stop": {
        "id": "2_1261",
        "lat": 48.125322,
        "lon": -1.666645,
        "name": "Volney",
        "code": 1261
      },
      "arrival": 50100,
      "departure": 50100
    },
    {
      "stop": {
        "id": "2_1011",
        "lat": 48.118312,
        "lon": -1.671315,
        "name": "Fac de Droit",
        "code": 1011
      },
      "arrival": 50400,
      "departure": 50400
    },
    {
      "stop": {
        "id": "2_1606",
        "lat": 48.115697,
        "lon": -1.676699,
        "name": "Hoche",
        "code": 1606
      },
      "arrival": 50520,
      "departure": 50520
    }
  ],
  "route": {
    "id": "2_0051",
    "textColor": "FFFFFF",
    "color": "93117E",
    "description": "Métropolitaine",
    "longName": "Rennes (Hoche) \u003c\u003e Betton (Champ Devant)",
    "shortName": "51",
    "type": 3,
    "agencyId": "2"
  }
}