{
  "headsign": "72 | Rennes Henri Fréville",
  "stopTimes": [
    {
      "stop": {
        "id": "2_3924",
        "lat": 47.99991179,
        "lon": -1.69692096,
        "name": "Bois Esnault",
        "code": 3924
      },
      "arrival": 37800,
      "departure": 37800
    },
    {
      "stop": {
        "id": "2_3902",
        "lat": 48.00647989,
        "lon": -1.69857206,
        "name": "Caliorne",
        "code": 3902
      },
      "arrival": 37920,
      "departure": 37920
    },
    {
      "stop": {
        "id": "2_3903",
        "lat": 48.01062006,
        "lon": -1.70099518,
        "name": "Mouton Blanc",
        "code": 3903
      },
      "arrival": 37980,
      "departure": 37980
    },
    {
      "stop": {
        "id": "2_3913",
        "lat": 48.01296314,
        "lon": -1.703044,
        "name": "Chemin Vert",
        "code": 3913
      },
      "arrival": 38040,
      "departure": 38040
    },
    {
      "stop": {
        "id": "2_3905",
        "lat": 48.01057926,
        "lon": -1.70697013,
        "name": "Pont Péan Mairie",
        "code": 3905
      },
      "arrival": 38100,
      "departure": 38100
    },
    {
      "stop": {
        "id": "2_3906",
        "lat": 48.0136449,
        "lon": -1.70763245,
        "name": "Rivaudière",
        "code": 3906
      },
      "arrival": 38160,
      "departure": 38160
    },
    {
      "stop": {
        "id": "2_3907",
        "lat": 48.01629245,
        "lon": -1.70567784,
        "name": "Fontaine Blanche",
        "code": 3907
      },
      "arrival": 38160,
      "departure": 38160
    },
    {
      "stop": {
        "id": "2_3908",
        "lat": 48.01989989,
        "lon": -1.70699303,
        "name": "Renaissance",
        "code": 3908
      },
      "arrival": 38220,
      "departure": 38220
    },
    {
      "stop": {
        "id": "2_2928",
        "lat": 48.03144516,
        "lon": -1.70886705,
        "name": "Constant Mérel",
        "code": 2928
      },
      "arrival": 38400,
      "departure": 38400
    },
    {
      "stop": {
        "id": "2_2911",
        "lat": 48.03319414,
        "lon": -1.70728888,
        "name": "Parc de Loisirs",
        "code": 2911
      },
      "arrival": 38460,
      "departure": 38460
    },
    {
      "stop": {
        "id": "2_2912",
        "lat": 48.03551346,
        "lon": -1.70632588,
        "name": "Argoat",
        "code": 2912
      },
      "arrival": 38520,
      "departure": 38520
    },
    {
      "stop": {
        "id": "2_2913",
        "lat": 48.03465949,
        "lon": -1.69950247,
        "name": "Cornouaille",
        "code": 2913
      },
      "arrival": 38580,
      "departure": 38580
    },
    {
      "stop": {
        "id": "2_2914",
        "lat": 48.03691975,
        "lon": -1.69708216,
        "name": "Vieux Bourg",
        "code": 2914
      },
      "arrival": 38640,
      "departure": 38640
    },
    {
      "stop": {
        "id": "2_2915",
        "lat": 48.04133261,
        "lon": -1.69832095,
        "name": "Collège Pôle Sud",
        "code": 2915
      },
      "arrival": 38760,
      "departure": 38760
    },
    {
      "stop": {
        "id": "2_2916",
        "lat": 48.0416478,
        "lon": -1.70262208,
        "name": "Auditoire",
        "code": 2916
      },
      "arrival": 38820,
      "departure": 38820
    },
    {
      "stop": {
        "id": "2_2917",
        "lat": 48.04230372,
        "lon": -1.70649993,
        "name": "Chartres Centre",
        "code": 2917
      },
      "arrival": 38880,
      "departure": 38880
    },
    {
      "stop": {
        "id": "2_2905",
        "lat": 48.04226025,
        "lon": -1.71208839,
        "name": "Callouët",
        "code": 2905
      },
      "arrival": 38940,
      "departure": 38940
    },
    {
      "stop": {
        "id": "2_2906",
        "lat": 48.0459329,
        "lon": -1.71017676,
        "name": "Croix aux Potiers",
        "code": 2906
      },
      "arrival": 39000,
      "departure": 39000
    },
    {
      "stop": {
        "id": "2_2701",
        "lat": 48.05897113,
        "lon": -1.70107764,
        "name": "Janais",
        "code": 2701
      },
      "arrival": 39120,
      "departure": 39120
    },
    {
      "stop": {
        "id": "2_2702",
        "lat": 48.06829803,
        "lon": -1.69763551,
        "name": "Vallon",
        "code": 2702
      },
      "arrival": 39240,
      "departure": 39240
    },
    {
      "stop": {
        "id": "2_1270",
        "lat": 48.08578354,
        "lon": -1.69404539,
        "name": "Félix Eboué",
        "code": 1270
      },
      "arrival": 39420,
      "departure": 39420
    },
    {
      "stop": {
        "id": "2_1456",
        "lat": 48.08658018,
        "lon": -1.68739623,
        "name": "Coubertin",
        "code": 1456
      },
      "arrival": 39540,
      "departure": 39540
    },
    {
      "stop": {
        "id": "2_1457",
        "lat": 48.08679431,
        "lon": -1.6838896,
        "name": "Norvège",
        "code": 1457
      },
      "arrival": 39600,
      "departure": 39600
    },
    {
      "stop": {
        "id": "2_1510",
        "lat": 48.08777947,
        "lon": -1.67446532,
        "name": "Henri Fréville",
        "code": 1510
      },
      "arrival": 39720,
      "departure": 39720
    }
  ],
  "route": {
    "id": "2_0072",
    "textColor": "FFFFFF",
    "color": "004293",
    "description": "Métropolitaine",
    "longName": "Rennes (Henri Fréville) \u003c\u003e Chartres-de-Bretagne / Pont-Péan / Laillé",
    "shortName": "72",
    "type": 3,
    "agencyId": "2"
  }
}