{
  "headsign": "11 | ZI Ouest",
  "stopTimes": [
    {
      "stop": {
        "id": "2_1639",
        "lat": 48.088146,
        "lon": -1.644513,
        "name": "La Poterie",
        "code": 1639
      },
      "arrival": 34020,
      "departure": 34020
    },
    {
      "stop": {
        "id": "2_1066",
        "lat": 48.087788,
        "lon": -1.638596,
        "name": "Monnet",
        "code": 1066
      },
      "arrival": 34140,
      "departure": 34140
    },
    {
      "stop": {
        "id": "2_1067",
        "lat": 48.089455,
        "lon": -1.635281,
        "name": "Bourgueil",
        "code": 1067
      },
      "arrival": 34140,
      "departure": 34140
    },
    {
      "stop": {
        "id": "2_1068",
        "lat": 48.092067,
        "lon": -1.636471,
        "name": "Gohier",
        "code": 1068
      },
      "arrival": 34260,
      "departure": 34260
    },
    {
      "stop": {
        "id": "2_1069",
        "lat": 48.092756,
        "lon": -1.63962,
        "name": "Ronceray",
        "code": 1069
      },
      "arrival": 34260,
      "departure": 34260
    },
    {
      "stop": {
        "id": "2_1070",
        "lat": 48.094492,
        "lon": -1.637889,
        "name": "CARSAT",
        "code": 1070
      },
      "arrival": 34320,
      "departure": 34320
    },
    {
      "stop": {
        "id": "2_1636",
        "lat": 48.095933,
        "lon": -1.637156,
        "name": "Haut Sancé",
        "code": 1636
      },
      "arrival": 34380,
      "departure": 34380
    },
    {
      "stop": {
        "id": "2_1251",
        "lat": 48.097042,
        "lon": -1.629126,
        "name": "Veyettes",
        "code": 1251
      },
      "arrival": 34500,
      "departure": 34500
    },
    {
      "stop": {
        "id": "2_3014",
        "lat": 48.098087,
        "lon": -1.622908,
        "name": "Breillou",
        "code": 3014
      },
      "arrival": 34560,
      "departure": 34560
    },
    {
      "stop": {
        "id": "2_2035",
        "lat": 48.09967,
        "lon": -1.620857,
        "name": "Forum",
        "code": 2035
      },
      "arrival": 34620,
      "departure": 34620
    },
    {
      "stop": {
        "id": "2_2033",
        "lat": 48.10133,
        "lon": -1.623467,
        "name": "Bas Village",
        "code": 2033
      },
      "arrival": 34680,
      "departure": 34680
    },
    {
      "stop": {
        "id": "2_2061",
        "lat": 48.106515,
        "lon": -1.621243,
        "name": "Charmilles",
        "code": 2061
      },
      "arrival": 34740,
      "departure": 34740
    },
    {
      "stop": {
        "id": "2_2102",
        "lat": 48.106097,
        "lon": -1.625877,
        "name": "Erbonière",
        "code": 2102
      },
      "arrival": 34800,
      "departure": 34800
    },
    {
      "stop": {
        "id": "2_2122",
        "lat": 48.104575,
        "lon": -1.630458,
        "name": "Buisson",
        "code": 2122
      },
      "arrival": 34860,
      "departure": 34860
    },
    {
      "stop": {
        "id": "2_1629",
        "lat": 48.104031,
        "lon": -1.635026,
        "name": "Pré Garel",
        "code": 1629
      },
      "arrival": 34860,
      "departure": 34860
    },
    {
      "stop": {
        "id": "2_1208",
        "lat": 48.104165,
        "lon": -1.637787,
        "name": "Saint-Saëns",
        "code": 1208
      },
      "arrival": 34920,
      "departure": 34920
    },
    {
      "stop": {
        "id": "2_1209",
        "lat": 48.105033,
        "lon": -1.64458,
        "name": "Pavie",
        "code": 1209
      },
      "arrival": 34980,
      "departure": 34980
    },
    {
      "stop": {
        "id": "2_1210",
        "lat": 48.10431,
        "lon": -1.64971,
        "name": "Cimetière de l\u0027Est",
        "code": 1210
      },
      "arrival": 35040,
      "departure": 35040
    },
    {
      "stop": {
        "id": "2_1245",
        "lat": 48.103213,
        "lon": -1.652536,
        "name": "Serpette",
        "code": 1245
      },
      "arrival": 35100,
      "departure": 35100
    },
    {
      "stop": {
        "id": "2_1212",
        "lat": 48.101949,
        "lon": -1.656538,
        "name": "Mouézy",
        "code": 1212
      },
      "arrival": 35160,
      "departure": 35160
    },
    {
      "stop": {
        "id": "2_1213",
        "lat": 48.102902,
        "lon": -1.661403,
        "name": "Croix Saint-Hélier",
        "code": 1213
      },
      "arrival": 35220,
      "departure": 35220
    },
    {
      "stop": {
        "id": "2_1057",
        "lat": 48.104747,
        "lon": -1.667176,
        "name": "Laënnec",
        "code": 1057
      },
      "arrival": 35340,
      "departure": 35340
    },
    {
      "stop": {
        "id": "2_1056",
        "lat": 48.103956,
        "lon": -1.673185,
        "name": "Gares",
        "code": 1056
      },
      "arrival": 35460,
      "departure": 35460
    },
    {
      "stop": {
        "id": "2_1055",
        "lat": 48.106057,
        "lon": -1.67401,
        "name": "Champs Libres",
        "code": 1055
      },
      "arrival": 35580,
      "departure": 35580
    },
    {
      "stop": {
        "id": "2_1054",
        "lat": 48.107564,
        "lon": -1.675176,
        "name": "Liberté TNB",
        "code": 1054
      },
      "arrival": 35640,
      "departure": 35640
    },
    {
      "stop": {
        "id": "2_1214",
        "lat": 48.109932,
        "lon": -1.679644,
        "name": "République",
        "code": 1214
      },
      "arrival": 35880,
      "departure": 35880
    },
    {
      "stop": {
        "id": "2_1051",
        "lat": 48.109888,
        "lon": -1.68328,
        "name": "Place de Bretagne",
        "code": 1051
      },
      "arrival": 35940,
      "departure": 35940
    },
    {
      "stop": {
        "id": "2_1216",
        "lat": 48.109176,
        "lon": -1.690514,
        "name": "Le Mail",
        "code": 1216
      },
      "arrival": 36060,
      "departure": 36060
    },
    {
      "stop": {
        "id": "2_1217",
        "lat": 48.108252,
        "lon": -1.694511,
        "name": "Chèques Postaux",
        "code": 1217
      },
      "arrival": 36120,
      "departure": 36120
    },
    {
      "stop": {
        "id": "2_1218",
        "lat": 48.109099,
        "lon": -1.697997,
        "name": "Guilloux Lorient",
        "code": 1218
      },
      "arrival": 36240,
      "departure": 36240
    },
    {
      "stop": {
        "id": "2_1219",
        "lat": 48.108274,
        "lon": -1.703743,
        "name": "Papeteries",
        "code": 1219
      },
      "arrival": 36300,
      "departure": 36300
    },
    {
      "stop": {
        "id": "2_1220",
        "lat": 48.109162,
        "lon": -1.706366,
        "name": "Kerviler",
        "code": 1220
      },
      "arrival": 36360,
      "departure": 36360
    },
    {
      "stop": {
        "id": "2_1221",
        "lat": 48.108871,
        "lon": -1.710766,
        "name": "Géniaux",
        "code": 1221
      },
      "arrival": 36420,
      "departure": 36420
    },
    {
      "stop": {
        "id": "2_1222",
        "lat": 48.108107,
        "lon": -1.714065,
        "name": "Stade Rennais",
        "code": 1222
      },
      "arrival": 36480,
      "departure": 36480
    },
    {
      "stop": {
        "id": "2_1223",
        "lat": 48.106212,
        "lon": -1.723891,
        "name": "Le Hô",
        "code": 1223
      },
      "arrival": 36660,
      "departure": 36660
    },
    {
      "stop": {
        "id": "2_1224",
        "lat": 48.102975,
        "lon": -1.7234,
        "name": "Robinot de St-Cyr",
        "code": 1224
      },
      "arrival": 36720,
      "departure": 36720
    },
    {
      "stop": {
        "id": "2_1225",
        "lat": 48.10213,
        "lon": -1.727062,
        "name": "Jardin Moderne",
        "code": 1225
      },
      "arrival": 36780,
      "departure": 36780
    },
    {
      "stop": {
        "id": "2_1226",
        "lat": 48.101258,
        "lon": -1.731769,
        "name": "Servigné",
        "code": 1226
      },
      "arrival": 36840,
      "departure": 36840
    },
    {
      "stop": {
        "id": "2_3768",
        "lat": 48.104219,
        "lon": -1.735894,
        "name": "Marais",
        "code": 3768
      },
      "arrival": 36900,
      "departure": 36900
    },
    {
      "stop": {
        "id": "2_3753",
        "lat": 48.10575,
        "lon": -1.740014,
        "name": "Trois Marches",
        "code": 3753
      },
      "arrival": 36960,
      "departure": 36960
    },
    {
      "stop": {
        "id": "2_3751",
        "lat": 48.107431,
        "lon": -1.739281,
        "name": "ZI Ouest",
        "code": 3751
      },
      "arrival": 37020,
      "departure": 37020
    }
  ],
  "route": {
    "id": "2_0011",
    "textColor": "FFFFFF",
    "color": "DD84B1",
    "description": "Urbaine",
    "longName": "ZI Ouest / Stade Rennais \u003c\u003e Saint-Saëns / La Poterie",
    "shortName": "11",
    "type": 3,
    "agencyId": "2"
  }
}