{
  "headsign": "56 | Chavagne",
  "stopTimes": [
    {
      "stop": {
        "id": "2_1595",
        "lat": 48.10582657,
        "lon": -1.67734271,
        "name": "Charles de Gaulle",
        "code": 1595
      },
      "arrival": 43320,
      "departure": 43320
    },
    {
      "stop": {
        "id": "2_1214",
        "lat": 48.10990137,
        "lon": -1.6796669,
        "name": "République",
        "code": 1214
      },
      "arrival": 43500,
      "departure": 43500
    },
    {
      "stop": {
        "id": "2_1540",
        "lat": 48.1099522,
        "lon": -1.68519001,
        "name": "Pont de Bretagne",
        "code": 1540
      },
      "arrival": 43560,
      "departure": 43560
    },
    {
      "stop": {
        "id": "2_1217",
        "lat": 48.10823293,
        "lon": -1.69450077,
        "name": "Chèques Postaux",
        "code": 1217
      },
      "arrival": 43740,
      "departure": 43740
    },
    {
      "stop": {
        "id": "2_1218",
        "lat": 48.10910111,
        "lon": -1.69795527,
        "name": "Guilloux Lorient",
        "code": 1218
      },
      "arrival": 43800,
      "departure": 43800
    },
    {
      "stop": {
        "id": "2_1221",
        "lat": 48.10886589,
        "lon": -1.71061365,
        "name": "Géniaux",
        "code": 1221
      },
      "arrival": 43920,
      "departure": 43920
    },
    {
      "stop": {
        "id": "2_1539",
        "lat": 48.10723127,
        "lon": -1.72306614,
        "name": "Lemaistre",
        "code": 1539
      },
      "arrival": 44100,
      "departure": 44100
    },
    {
      "stop": {
        "id": "2_1506",
        "lat": 48.10648051,
        "lon": -1.73143819,
        "name": "Berthault",
        "code": 1506
      },
      "arrival": 44160,
      "departure": 44160
    },
    {
      "stop": {
        "id": "2_3766",
        "lat": 48.10499211,
        "lon": -1.74065229,
        "name": "Trois Marches",
        "code": 3766
      },
      "arrival": 44280,
      "departure": 44280
    },
    {
      "stop": {
        "id": "2_2512",
        "lat": 48.09623468,
        "lon": -1.76464809,
        "name": "Pont d\u0027Avoine",
        "code": 2512
      },
      "arrival": 44400,
      "departure": 44400
    },
    {
      "stop": {
        "id": "2_2523",
        "lat": 48.09407165,
        "lon": -1.77398049,
        "name": "Mahomat",
        "code": 2523
      },
      "arrival": 44460,
      "departure": 44460
    },
    {
      "stop": {
        "id": "2_2529",
        "lat": 48.0803048,
        "lon": -1.77444546,
        "name": "Moigné",
        "code": 2529
      },
      "arrival": 44580,
      "departure": 44580
    },
    {
      "stop": {
        "id": "2_2530",
        "lat": 48.07879295,
        "lon": -1.77215639,
        "name": "Haut Plessis",
        "code": 2530
      },
      "arrival": 44580,
      "departure": 44580
    },
    {
      "stop": {
        "id": "2_4207",
        "lat": 48.063395,
        "lon": -1.77238031,
        "name": "Mare Doux",
        "code": 4207
      },
      "arrival": 44760,
      "departure": 44760
    },
    {
      "stop": {
        "id": "2_4208",
        "lat": 48.05776111,
        "lon": -1.7763633,
        "name": "Grippay",
        "code": 4208
      },
      "arrival": 44820,
      "departure": 44820
    },
    {
      "stop": {
        "id": "2_4209",
        "lat": 48.05408189,
        "lon": -1.78370908,
        "name": "Avenir",
        "code": 4209
      },
      "arrival": 44880,
      "departure": 44880
    },
    {
      "stop": {
        "id": "2_4203",
        "lat": 48.05509706,
        "lon": -1.79000007,
        "name": "Alfred de Musset",
        "code": 4203
      },
      "arrival": 45000,
      "departure": 45000
    },
    {
      "stop": {
        "id": "2_4211",
        "lat": 48.05245322,
        "lon": -1.79050012,
        "name": "Calvaire",
        "code": 4211
      },
      "arrival": 45000,
      "departure": 45000
    },
    {
      "stop": {
        "id": "2_4201",
        "lat": 48.0519556,
        "lon": -1.79762199,
        "name": "Croix Blanche",
        "code": 4201
      },
      "arrival": 45120,
      "departure": 45120
    }
  ],
  "route": {
    "id": "2_0056",
    "textColor": "FFFFFF",
    "color": "009A47",
    "description": "Métropolitaine",
    "longName": "Rennes (Charles de Gaulle) \u003c\u003e Chavagne",
    "shortName": "56",
    "type": 3,
    "agencyId": "2"
  }
}