{
  "headsign": "238 | Mordelles Pâtis",
  "stopTimes": [
    {
      "stop": {
        "id": "2_4267",
        "lat": 48.122595,
        "lon": -1.868366,
        "name": "Ville aux Archers",
        "code": 4267
      },
      "arrival": 31800,
      "departure": 31800
    },
    {
      "stop": {
        "id": "2_4264",
        "lat": 48.123069,
        "lon": -1.865899,
        "name": "Place de la Mairie",
        "code": 4264
      },
      "arrival": 31860,
      "departure": 31860
    },
    {
      "stop": {
        "id": "2_4252",
        "lat": 48.123011,
        "lon": -1.860726,
        "name": "Rochers",
        "code": 4252
      },
      "arrival": 31980,
      "departure": 31980
    },
    {
      "stop": {
        "id": "2_4253",
        "lat": 48.121939,
        "lon": -1.846158,
        "name": "Piardière",
        "code": 4253
      },
      "arrival": 32100,
      "departure": 32100
    },
    {
      "stop": {
        "id": "2_4254",
        "lat": 48.121285,
        "lon": -1.837645,
        "name": "Grippière",
        "code": 4254
      },
      "arrival": 32160,
      "departure": 32160
    },
    {
      "stop": {
        "id": "2_4301",
        "lat": 48.122924,
        "lon": -1.821633,
        "name": "Hautière",
        "code": 4301
      },
      "arrival": 32280,
      "departure": 32280
    },
    {
      "stop": {
        "id": "2_4303",
        "lat": 48.123875,
        "lon": -1.817721,
        "name": "L\u0027Hermitage Gare",
        "code": 4303
      },
      "arrival": 32340,
      "departure": 32340
    },
    {
      "stop": {
        "id": "2_4322",
        "lat": 48.125447,
        "lon": -1.815491,
        "name": "L\u0027Hermitage Centre",
        "code": 4322
      },
      "arrival": 32400,
      "departure": 32400
    },
    {
      "stop": {
        "id": "2_4305",
        "lat": 48.124609,
        "lon": -1.811557,
        "name": "Village",
        "code": 4305
      },
      "arrival": 32520,
      "departure": 32520
    },
    {
      "stop": {
        "id": "2_4306",
        "lat": 48.123163,
        "lon": -1.806172,
        "name": "Clairefontaine",
        "code": 4306
      },
      "arrival": 32580,
      "departure": 32580
    },
    {
      "stop": {
        "id": "2_2534",
        "lat": 48.098948,
        "lon": -1.800305,
        "name": "Collège Brassens",
        "code": 2534
      },
      "arrival": 33180,
      "departure": 33180
    },
    {
      "stop": {
        "id": "2_2502",
        "lat": 48.100526,
        "lon": -1.806596,
        "name": "Lycée Monod",
        "code": 2502
      },
      "arrival": 33300,
      "departure": 33300
    }
  ],
  "route": {
    "id": "2_0238",
    "textColor": "FFFFFF",
    "color": "BA67A6",
    "description": "Complémentaire",
    "longName": "La Chapelle-Thouarault (Ville aux Archers) \u003c\u003e Le Rheu (Lycée Théodore Monod)",
    "shortName": "238",
    "type": 3,
    "agencyId": "2"
  }
}