{
  "headsign": "41 | ZAC Saint-Sulpice",
  "stopTimes": [
    {
      "stop": {
        "id": "2_1477",
        "lat": 48.10388016,
        "lon": -1.67284842,
        "name": "Gares",
        "code": 1477
      },
      "arrival": 28800,
      "departure": 28800
    },
    {
      "stop": {
        "id": "2_1171",
        "lat": 48.11006771,
        "lon": -1.66358483,
        "name": "Pont de Châteaudun",
        "code": 1171
      },
      "arrival": 29100,
      "departure": 29100
    },
    {
      "stop": {
        "id": "2_1610",
        "lat": 48.11406056,
        "lon": -1.63602668,
        "name": "Tournebride",
        "code": 1610
      },
      "arrival": 29400,
      "departure": 29400
    },
    {
      "stop": {
        "id": "2_1175",
        "lat": 48.11698398,
        "lon": -1.63390592,
        "name": "Beaulieu Chimie",
        "code": 1175
      },
      "arrival": 29520,
      "departure": 29520
    },
    {
      "stop": {
        "id": "2_1204",
        "lat": 48.11947652,
        "lon": -1.63539005,
        "name": "Beaulieu INSA",
        "code": 1204
      },
      "arrival": 29520,
      "departure": 29520
    },
    {
      "stop": {
        "id": "2_1313",
        "lat": 48.12187502,
        "lon": -1.63834696,
        "name": "Beaulieu Restau. U.",
        "code": 1313
      },
      "arrival": 29640,
      "departure": 29640
    },
    {
      "stop": {
        "id": "2_1314",
        "lat": 48.1250923,
        "lon": -1.63309609,
        "name": "IUT",
        "code": 1314
      },
      "arrival": 29700,
      "departure": 29700
    },
    {
      "stop": {
        "id": "2_1290",
        "lat": 48.12688601,
        "lon": -1.62954442,
        "name": "Clos Courtel",
        "code": 1290
      },
      "arrival": 29760,
      "departure": 29760
    },
    {
      "stop": {
        "id": "2_2121",
        "lat": 48.13036758,
        "lon": -1.63131354,
        "name": "Longs Champs Est",
        "code": 2121
      },
      "arrival": 29820,
      "departure": 29820
    },
    {
      "stop": {
        "id": "2_1484",
        "lat": 48.13185965,
        "lon": -1.63589821,
        "name": "Gaudinais (futur ZA Saint-Sulpice)",
        "code": 1484
      },
      "arrival": 29940,
      "departure": 29940
    },
    {
      "stop": {
        "id": "2_1483",
        "lat": 48.12955581,
        "lon": -1.64358619,
        "name": "ZAC Saint-Sulpice (futur Pâtis Tatelin)",
        "code": 1483
      },
      "arrival": 30060,
      "departure": 30060
    }
  ],
  "route": {
    "id": "2_0041",
    "textColor": "00903B",
    "color": "FCE000",
    "description": "Express urbaine",
    "longName": "Gares \u003c\u003e ZAC Saint-Sulpice",
    "shortName": "41",
    "type": 3,
    "agencyId": "2"
  }
}