{
  "headsign": "75 | Rennes La Poterie",
  "stopTimes": [
    {
      "stop": {
        "id": "2_3401",
        "lat": 48.04139981,
        "lon": -1.55336797,
        "name": "Parc des Sports",
        "code": 3401
      },
      "arrival": 66600,
      "departure": 66600
    },
    {
      "stop": {
        "id": "2_3410",
        "lat": 48.0409078,
        "lon": -1.54977715,
        "name": "Langlois",
        "code": 3410
      },
      "arrival": 66660,
      "departure": 66660
    },
    {
      "stop": {
        "id": "2_3408",
        "lat": 48.04042496,
        "lon": -1.54198016,
        "name": "Chêne Centenaire",
        "code": 3408
      },
      "arrival": 66780,
      "departure": 66780
    },
    {
      "stop": {
        "id": "2_3404",
        "lat": 48.0412779,
        "lon": -1.54463411,
        "name": "Menault",
        "code": 3404
      },
      "arrival": 66840,
      "departure": 66840
    },
    {
      "stop": {
        "id": "2_3405",
        "lat": 48.04453229,
        "lon": -1.56162229,
        "name": "Eclosel",
        "code": 3405
      },
      "arrival": 66960,
      "departure": 66960
    },
    {
      "stop": {
        "id": "2_2631",
        "lat": 48.04763801,
        "lon": -1.59853624,
        "name": "Moulin",
        "code": 2631
      },
      "arrival": 67200,
      "departure": 67200
    },
    {
      "stop": {
        "id": "2_2630",
        "lat": 48.04502874,
        "lon": -1.59887396,
        "name": "Maillardière",
        "code": 2630
      },
      "arrival": 67260,
      "departure": 67260
    },
    {
      "stop": {
        "id": "2_2603",
        "lat": 48.04468923,
        "lon": -1.60398268,
        "name": "La Poste",
        "code": 2603
      },
      "arrival": 67320,
      "departure": 67320
    },
    {
      "stop": {
        "id": "2_1511",
        "lat": 48.08753912,
        "lon": -1.64345457,
        "name": "La Poterie",
        "code": 1511
      },
      "arrival": 67800,
      "departure": 67800
    }
  ],
  "route": {
    "id": "2_0075",
    "textColor": "201D21",
    "color": "F2973E",
    "description": "Métropolitaine",
    "longName": "Rennes (La Poterie) \u003c\u003e Nouvoitou",
    "shortName": "75",
    "type": 3,
    "agencyId": "2"
  }
}