{
  "headsign": "5 | Lycée Bréquigny",
  "stopTimes": [
    {
      "stop": {
        "id": "2_1252",
        "lat": 48.13876768,
        "lon": -1.66595729,
        "name": "Patton",
        "code": 1252
      },
      "arrival": 66720,
      "departure": 66720
    },
    {
      "stop": {
        "id": "2_1253",
        "lat": 48.13666007,
        "lon": -1.66750822,
        "name": "Monts d\u0027Arrée",
        "code": 1253
      },
      "arrival": 66780,
      "departure": 66780
    },
    {
      "stop": {
        "id": "2_1254",
        "lat": 48.13675375,
        "lon": -1.67105825,
        "name": "Neruda",
        "code": 1254
      },
      "arrival": 66840,
      "departure": 66840
    },
    {
      "stop": {
        "id": "2_1255",
        "lat": 48.13455033,
        "lon": -1.67297749,
        "name": "Condate",
        "code": 1255
      },
      "arrival": 66900,
      "departure": 66900
    },
    {
      "stop": {
        "id": "2_1256",
        "lat": 48.13264262,
        "lon": -1.67175832,
        "name": "Bellangerais",
        "code": 1256
      },
      "arrival": 66960,
      "departure": 66960
    },
    {
      "stop": {
        "id": "2_1257",
        "lat": 48.13269574,
        "lon": -1.66757286,
        "name": "Morbihan",
        "code": 1257
      },
      "arrival": 67020,
      "departure": 67020
    },
    {
      "stop": {
        "id": "2_1258",
        "lat": 48.13080831,
        "lon": -1.66390739,
        "name": "Houx Cité U.",
        "code": 1258
      },
      "arrival": 67080,
      "departure": 67080
    },
    {
      "stop": {
        "id": "2_1259",
        "lat": 48.12800553,
        "lon": -1.6645754,
        "name": "Rochester",
        "code": 1259
      },
      "arrival": 67140,
      "departure": 67140
    },
    {
      "stop": {
        "id": "2_1260",
        "lat": 48.12670281,
        "lon": -1.66538386,
        "name": "Gros Chêne",
        "code": 1260
      },
      "arrival": 67200,
      "departure": 67200
    },
    {
      "stop": {
        "id": "2_1261",
        "lat": 48.12528168,
        "lon": -1.66666402,
        "name": "Volney",
        "code": 1261
      },
      "arrival": 67260,
      "departure": 67260
    },
    {
      "stop": {
        "id": "2_1262",
        "lat": 48.12147137,
        "lon": -1.67091812,
        "name": "Jules Ferry",
        "code": 1262
      },
      "arrival": 67380,
      "departure": 67380
    },
    {
      "stop": {
        "id": "2_1263",
        "lat": 48.11963635,
        "lon": -1.67422912,
        "name": "Rectorat",
        "code": 1263
      },
      "arrival": 67440,
      "departure": 67440
    },
    {
      "stop": {
        "id": "2_1027",
        "lat": 48.11723114,
        "lon": -1.67736823,
        "name": "Hôtel Dieu",
        "code": 1027
      },
      "arrival": 67500,
      "departure": 67500
    },
    {
      "stop": {
        "id": "2_1014",
        "lat": 48.11371103,
        "lon": -1.67903599,
        "name": "Sainte-Anne",
        "code": 1014
      },
      "arrival": 67740,
      "departure": 67740
    },
    {
      "stop": {
        "id": "2_1015",
        "lat": 48.11252173,
        "lon": -1.68031651,
        "name": "Champ Jacquet",
        "code": 1015
      },
      "arrival": 67800,
      "departure": 67800
    },
    {
      "stop": {
        "id": "2_1024",
        "lat": 48.10997886,
        "lon": -1.68021216,
        "name": "République Nemours",
        "code": 1024
      },
      "arrival": 67980,
      "departure": 67980
    },
    {
      "stop": {
        "id": "2_1017",
        "lat": 48.10834873,
        "lon": -1.6801754,
        "name": "Les Halles",
        "code": 1017
      },
      "arrival": 68040,
      "departure": 68040
    },
    {
      "stop": {
        "id": "2_1018",
        "lat": 48.10604754,
        "lon": -1.68160006,
        "name": "Plélo Colombier",
        "code": 1018
      },
      "arrival": 68160,
      "departure": 68160
    },
    {
      "stop": {
        "id": "2_1019",
        "lat": 48.1051576,
        "lon": -1.68471093,
        "name": "Cité Judiciaire",
        "code": 1019
      },
      "arrival": 68280,
      "departure": 68280
    },
    {
      "stop": {
        "id": "2_1264",
        "lat": 48.10211461,
        "lon": -1.68438725,
        "name": "Pont de Nantes",
        "code": 1264
      },
      "arrival": 68340,
      "departure": 68340
    },
    {
      "stop": {
        "id": "2_1265",
        "lat": 48.0997896,
        "lon": -1.68708791,
        "name": "Foyer Rennais",
        "code": 1265
      },
      "arrival": 68460,
      "departure": 68460
    },
    {
      "stop": {
        "id": "2_1266",
        "lat": 48.09708914,
        "lon": -1.68902834,
        "name": "Mermoz",
        "code": 1266
      },
      "arrival": 68520,
      "departure": 68520
    },
    {
      "stop": {
        "id": "2_2219",
        "lat": 48.09407071,
        "lon": -1.69057703,
        "name": "Pilate",
        "code": 2219
      },
      "arrival": 68580,
      "departure": 68580
    },
    {
      "stop": {
        "id": "2_2218",
        "lat": 48.09238093,
        "lon": -1.69158421,
        "name": "Saint-Yves",
        "code": 2218
      },
      "arrival": 68640,
      "departure": 68640
    },
    {
      "stop": {
        "id": "2_2228",
        "lat": 48.08980582,
        "lon": -1.69309127,
        "name": "Pigeon Blanc",
        "code": 2228
      },
      "arrival": 68700,
      "departure": 68700
    },
    {
      "stop": {
        "id": "2_2216",
        "lat": 48.08728351,
        "lon": -1.69462978,
        "name": "Pressoirs",
        "code": 2216
      },
      "arrival": 68820,
      "departure": 68820
    },
    {
      "stop": {
        "id": "2_1267",
        "lat": 48.0857359,
        "lon": -1.69390359,
        "name": "Félix Eboué",
        "code": 1267
      },
      "arrival": 68880,
      "departure": 68880
    },
    {
      "stop": {
        "id": "2_1268",
        "lat": 48.08376367,
        "lon": -1.69360406,
        "name": "Boberil",
        "code": 1268
      },
      "arrival": 68940,
      "departure": 68940
    },
    {
      "stop": {
        "id": "2_1269",
        "lat": 48.08423941,
        "lon": -1.69207225,
        "name": "Lycée Bréquigny",
        "code": 1269
      },
      "arrival": 69000,
      "departure": 69000
    }
  ],
  "route": {
    "id": "2_0005",
    "textColor": "ffffff",
    "color": "eb8200",
    "description": "Majeure",
    "longName": "Patton \u003c\u003e Lycée Bréquigny",
    "shortName": "5",
    "type": 3,
    "agencyId": "2"
  }
}