{
  "headsign": "173 | Rennes La Poterie",
  "stopTimes": [
    {
      "stop": {
        "id": "2_4101",
        "lat": 47.98501008,
        "lon": -1.57628621,
        "name": "Corps-Nuds Gare",
        "code": 4101
      },
      "arrival": 25200,
      "departure": 25200
    },
    {
      "stop": {
        "id": "2_4102",
        "lat": 47.98240342,
        "lon": -1.58071998,
        "name": "Huberdières",
        "code": 4102
      },
      "arrival": 25260,
      "departure": 25260
    },
    {
      "stop": {
        "id": "2_4103",
        "lat": 47.97775083,
        "lon": -1.58490906,
        "name": "Place de Kildare",
        "code": 4103
      },
      "arrival": 25320,
      "departure": 25320
    },
    {
      "stop": {
        "id": "2_4104",
        "lat": 47.97932856,
        "lon": -1.58790538,
        "name": "Corps-Nuds Mairie",
        "code": 4104
      },
      "arrival": 25380,
      "departure": 25380
    },
    {
      "stop": {
        "id": "2_4105",
        "lat": 47.98205291,
        "lon": -1.58831596,
        "name": "Chêne Hervé",
        "code": 4105
      },
      "arrival": 25380,
      "departure": 25380
    },
    {
      "stop": {
        "id": "2_4551",
        "lat": 48.0134184,
        "lon": -1.59096813,
        "name": "Saint-Armel Eglise",
        "code": 4551
      },
      "arrival": 25860,
      "departure": 25860
    },
    {
      "stop": {
        "id": "2_4555",
        "lat": 48.01402453,
        "lon": -1.59440297,
        "name": "Saint-Armel Gare",
        "code": 4555
      },
      "arrival": 25920,
      "departure": 25920
    },
    {
      "stop": {
        "id": "2_1511",
        "lat": 48.08753912,
        "lon": -1.64345457,
        "name": "La Poterie",
        "code": 1511
      },
      "arrival": 26700,
      "departure": 26700
    }
  ],
  "route": {
    "id": "2_0173",
    "textColor": "BF82B2",
    "color": "FCE000",
    "description": "Express métropolitaine",
    "longName": "Rennes (La Poterie) \u003c\u003e Saint-Armel / Corps-Nuds",
    "shortName": "173",
    "type": 3,
    "agencyId": "2"
  }
}