{
  "headsign": "94 | Betton Centre",
  "stopTimes": [
    {
      "stop": {
        "id": "2_3951",
        "lat": 48.22528095,
        "lon": -1.57037306,
        "name": "Cropy",
        "code": 3951
      },
      "arrival": 69960,
      "departure": 69960
    },
    {
      "stop": {
        "id": "2_3952",
        "lat": 48.223221,
        "lon": -1.5763179,
        "name": "Chesnais",
        "code": 3952
      },
      "arrival": 70020,
      "departure": 70020
    },
    {
      "stop": {
        "id": "2_3953",
        "lat": 48.21792113,
        "lon": -1.58142255,
        "name": "Bourg",
        "code": 3953
      },
      "arrival": 70080,
      "departure": 70080
    },
    {
      "stop": {
        "id": "2_3960",
        "lat": 48.2146956,
        "lon": -1.58674396,
        "name": "Terrain des Sports",
        "code": 3960
      },
      "arrival": 70140,
      "departure": 70140
    },
    {
      "stop": {
        "id": "2_3955",
        "lat": 48.21169142,
        "lon": -1.59075734,
        "name": "Tronchay",
        "code": 3955
      },
      "arrival": 70200,
      "departure": 70200
    },
    {
      "stop": {
        "id": "2_4604",
        "lat": 48.21008788,
        "lon": -1.62587418,
        "name": "Pommiers",
        "code": 4604
      },
      "arrival": 70500,
      "departure": 70500
    },
    {
      "stop": {
        "id": "2_4605",
        "lat": 48.21442422,
        "lon": -1.62878295,
        "name": "Fonderies",
        "code": 4605
      },
      "arrival": 70620,
      "departure": 70620
    },
    {
      "stop": {
        "id": "2_4606",
        "lat": 48.21193255,
        "lon": -1.63026334,
        "name": "Chevaigné Mairie",
        "code": 4606
      },
      "arrival": 70680,
      "departure": 70680
    },
    {
      "stop": {
        "id": "2_4607",
        "lat": 48.20764802,
        "lon": -1.63080398,
        "name": "Chevaigné Gare",
        "code": 4607
      },
      "arrival": 70740,
      "departure": 70740
    },
    {
      "stop": {
        "id": "2_4609",
        "lat": 48.19917578,
        "lon": -1.62757919,
        "name": "Chopinais",
        "code": 4609
      },
      "arrival": 70860,
      "departure": 70860
    },
    {
      "stop": {
        "id": "2_2451",
        "lat": 48.19085557,
        "lon": -1.62920813,
        "name": "Gentilhommière",
        "code": 2451
      },
      "arrival": 70980,
      "departure": 70980
    },
    {
      "stop": {
        "id": "2_2432",
        "lat": 48.18633047,
        "lon": -1.63325395,
        "name": "J. Sébastien Bach",
        "code": 2432
      },
      "arrival": 71040,
      "departure": 71040
    },
    {
      "stop": {
        "id": "2_2431",
        "lat": 48.18305974,
        "lon": -1.63721735,
        "name": "Mozart",
        "code": 2431
      },
      "arrival": 71100,
      "departure": 71100
    },
    {
      "stop": {
        "id": "2_2406",
        "lat": 48.18119826,
        "lon": -1.6380241,
        "name": "Betton Centre",
        "code": 2406
      },
      "arrival": 71160,
      "departure": 71160
    }
  ],
  "route": {
    "id": "2_0094",
    "textColor": "1A171B",
    "color": "AECC52",
    "description": "Intercommunale",
    "longName": "Saint-Sulpice-la-Forêt / Chevaigné \u003c\u003e Betton (Centre)",
    "shortName": "94",
    "type": 3,
    "agencyId": "2"
  }
}