{
  "headsign": "67 | Cesson-Sévigné Rigourdière",
  "stopTimes": [
    {
      "stop": {
        "id": "2_1556",
        "lat": 48.10943229,
        "lon": -1.67763328,
        "name": "République",
        "code": 1556
      },
      "arrival": 51600,
      "departure": 51600
    },
    {
      "stop": {
        "id": "2_1169",
        "lat": 48.10985334,
        "lon": -1.67452094,
        "name": "Musée Beaux Arts",
        "code": 1169
      },
      "arrival": 51660,
      "departure": 51660
    },
    {
      "stop": {
        "id": "2_1172",
        "lat": 48.11007924,
        "lon": -1.65919453,
        "name": "Robidou",
        "code": 1172
      },
      "arrival": 51840,
      "departure": 51840
    },
    {
      "stop": {
        "id": "2_1525",
        "lat": 48.11355264,
        "lon": -1.6567289,
        "name": "Durafour Strasbourg",
        "code": 1525
      },
      "arrival": 51960,
      "departure": 51960
    },
    {
      "stop": {
        "id": "2_1524",
        "lat": 48.11467385,
        "lon": -1.65135039,
        "name": "Hôpital Régnier",
        "code": 1524
      },
      "arrival": 52020,
      "departure": 52020
    },
    {
      "stop": {
        "id": "2_1523",
        "lat": 48.11454875,
        "lon": -1.6499529,
        "name": "Moulin de Joué",
        "code": 1523
      },
      "arrival": 52080,
      "departure": 52080
    },
    {
      "stop": {
        "id": "2_1522",
        "lat": 48.11392882,
        "lon": -1.642818,
        "name": "Piletière",
        "code": 1522
      },
      "arrival": 52140,
      "departure": 52140
    },
    {
      "stop": {
        "id": "2_1610",
        "lat": 48.11406056,
        "lon": -1.63602668,
        "name": "Tournebride",
        "code": 1610
      },
      "arrival": 52200,
      "departure": 52200
    },
    {
      "stop": {
        "id": "2_2019",
        "lat": 48.1140789,
        "lon": -1.62801107,
        "name": "Champs Péans",
        "code": 2019
      },
      "arrival": 52260,
      "departure": 52260
    },
    {
      "stop": {
        "id": "2_2020",
        "lat": 48.11415,
        "lon": -1.62183892,
        "name": "Taillis",
        "code": 2020
      },
      "arrival": 52320,
      "departure": 52320
    },
    {
      "stop": {
        "id": "2_2062",
        "lat": 48.10782767,
        "lon": -1.61408468,
        "name": "Rond Point de Bray",
        "code": 2062
      },
      "arrival": 52500,
      "departure": 52500
    },
    {
      "stop": {
        "id": "2_2063",
        "lat": 48.1093024,
        "lon": -1.6089112,
        "name": "Monniais",
        "code": 2063
      },
      "arrival": 52560,
      "departure": 52560
    },
    {
      "stop": {
        "id": "2_2064",
        "lat": 48.11257019,
        "lon": -1.60740614,
        "name": "Peupliers",
        "code": 2064
      },
      "arrival": 52620,
      "departure": 52620
    },
    {
      "stop": {
        "id": "2_2065",
        "lat": 48.11382762,
        "lon": -1.60314125,
        "name": "Cesson Gare",
        "code": 2065
      },
      "arrival": 52680,
      "departure": 52680
    },
    {
      "stop": {
        "id": "2_2086",
        "lat": 48.11430452,
        "lon": -1.60048414,
        "name": "Bordage",
        "code": 2086
      },
      "arrival": 52740,
      "departure": 52740
    },
    {
      "stop": {
        "id": "2_2089",
        "lat": 48.11357205,
        "lon": -1.59052033,
        "name": "Rigourdière",
        "code": 2089
      },
      "arrival": 52860,
      "departure": 52860
    }
  ],
  "route": {
    "id": "2_0067",
    "textColor": "FFFFFF",
    "color": "E0083B",
    "description": "Métropolitaine",
    "longName": "Rennes (République) \u003c\u003e Cesson-Sévigné / Brécé",
    "shortName": "67",
    "type": 3,
    "agencyId": "2"
  }
}