{
  "headsign": "40 | République",
  "stopTimes": [
    {
      "stop": {
        "id": "2_1290",
        "lat": 48.126929,
        "lon": -1.629221,
        "name": "Clos Courtel",
        "code": 1290
      },
      "arrival": 28920,
      "departure": 28920
    },
    {
      "stop": {
        "id": "2_1291",
        "lat": 48.124789,
        "lon": -1.633892,
        "name": "IUT",
        "code": 1291
      },
      "arrival": 28980,
      "departure": 28980
    },
    {
      "stop": {
        "id": "2_1292",
        "lat": 48.121437,
        "lon": -1.638194,
        "name": "Beaulieu Restau U",
        "code": 1292
      },
      "arrival": 29100,
      "departure": 29100
    },
    {
      "stop": {
        "id": "2_1176",
        "lat": 48.119028,
        "lon": -1.63521,
        "name": "Beaulieu INSA",
        "code": 1176
      },
      "arrival": 29160,
      "departure": 29160
    },
    {
      "stop": {
        "id": "2_1312",
        "lat": 48.116581,
        "lon": -1.633944,
        "name": "Beaulieu Chimie",
        "code": 1312
      },
      "arrival": 29220,
      "departure": 29220
    },
    {
      "stop": {
        "id": "2_1160",
        "lat": 48.114099,
        "lon": -1.637565,
        "name": "Tournebride",
        "code": 1160
      },
      "arrival": 29280,
      "departure": 29280
    },
    {
      "stop": {
        "id": "2_1603",
        "lat": 48.11325,
        "lon": -1.641287,
        "name": "Les Préales",
        "code": 1603
      },
      "arrival": 29400,
      "departure": 29400
    },
    {
      "stop": {
        "id": "2_1161",
        "lat": 48.112232,
        "lon": -1.644227,
        "name": "Plaine de Baud",
        "code": 1161
      },
      "arrival": 29460,
      "departure": 29460
    },
    {
      "stop": {
        "id": "2_1166",
        "lat": 48.109914,
        "lon": -1.675145,
        "name": "Musée Beaux Arts",
        "code": 1166
      },
      "arrival": 29760,
      "departure": 29760
    },
    {
      "stop": {
        "id": "2_1090",
        "lat": 48.109526,
        "lon": -1.677947,
        "name": "République",
        "code": 1090
      },
      "arrival": 29880,
      "departure": 29880
    }
  ],
  "route": {
    "id": "2_0040",
    "textColor": "3D3C3F",
    "color": "FFDD00",
    "description": "Express urbaine",
    "longName": "République \u003c\u003e Beaulieu Atalante",
    "shortName": "40",
    "type": 3,
    "agencyId": "2"
  }
}