{
  "headsign": "2 | Grand Quartier",
  "stopTimes": [
    {
      "stop": {
        "id": "2_1071",
        "lat": 48.09618325,
        "lon": -1.63701996,
        "name": "Haut Sancé",
        "code": 1071
      },
      "arrival": 68100,
      "departure": 68100
    },
    {
      "stop": {
        "id": "2_1072",
        "lat": 48.09499328,
        "lon": -1.63793817,
        "name": "CARSAT",
        "code": 1072
      },
      "arrival": 68160,
      "departure": 68160
    },
    {
      "stop": {
        "id": "2_1073",
        "lat": 48.09257263,
        "lon": -1.63966324,
        "name": "Ronceray",
        "code": 1073
      },
      "arrival": 68220,
      "departure": 68220
    },
    {
      "stop": {
        "id": "2_1074",
        "lat": 48.09187614,
        "lon": -1.63629215,
        "name": "Gohier",
        "code": 1074
      },
      "arrival": 68280,
      "departure": 68280
    },
    {
      "stop": {
        "id": "2_1075",
        "lat": 48.08949402,
        "lon": -1.63543734,
        "name": "Bourgueil",
        "code": 1075
      },
      "arrival": 68340,
      "departure": 68340
    },
    {
      "stop": {
        "id": "2_1076",
        "lat": 48.08799285,
        "lon": -1.6383059,
        "name": "Monnet",
        "code": 1076
      },
      "arrival": 68400,
      "departure": 68400
    },
    {
      "stop": {
        "id": "2_1065",
        "lat": 48.08758724,
        "lon": -1.64393705,
        "name": "La Poterie",
        "code": 1065
      },
      "arrival": 68460,
      "departure": 68460
    },
    {
      "stop": {
        "id": "2_1078",
        "lat": 48.08988553,
        "lon": -1.64471493,
        "name": "Lycée Descartes",
        "code": 1078
      },
      "arrival": 68520,
      "departure": 68520
    },
    {
      "stop": {
        "id": "2_1079",
        "lat": 48.09274253,
        "lon": -1.64724001,
        "name": "Monsieur Vincent",
        "code": 1079
      },
      "arrival": 68580,
      "departure": 68580
    },
    {
      "stop": {
        "id": "2_1080",
        "lat": 48.09595122,
        "lon": -1.65158599,
        "name": "Calmette",
        "code": 1080
      },
      "arrival": 68700,
      "departure": 68700
    },
    {
      "stop": {
        "id": "2_1081",
        "lat": 48.09800207,
        "lon": -1.65534604,
        "name": "Bourgeois",
        "code": 1081
      },
      "arrival": 68760,
      "departure": 68760
    },
    {
      "stop": {
        "id": "2_1082",
        "lat": 48.0998966,
        "lon": -1.65781416,
        "name": "Piré",
        "code": 1082
      },
      "arrival": 68820,
      "departure": 68820
    },
    {
      "stop": {
        "id": "2_1213",
        "lat": 48.10287126,
        "lon": -1.66143906,
        "name": "Croix Saint-Hélier",
        "code": 1213
      },
      "arrival": 68880,
      "departure": 68880
    },
    {
      "stop": {
        "id": "2_1057",
        "lat": 48.10469525,
        "lon": -1.66716416,
        "name": "Laënnec",
        "code": 1057
      },
      "arrival": 69000,
      "departure": 69000
    },
    {
      "stop": {
        "id": "2_1056",
        "lat": 48.10391821,
        "lon": -1.67317044,
        "name": "Gares",
        "code": 1056
      },
      "arrival": 69180,
      "departure": 69180
    },
    {
      "stop": {
        "id": "2_1055",
        "lat": 48.1053351,
        "lon": -1.67389232,
        "name": "Champs Libres",
        "code": 1055
      },
      "arrival": 69300,
      "departure": 69300
    },
    {
      "stop": {
        "id": "2_1054",
        "lat": 48.10755037,
        "lon": -1.67508432,
        "name": "Liberté TNB",
        "code": 1054
      },
      "arrival": 69360,
      "departure": 69360
    },
    {
      "stop": {
        "id": "2_1315",
        "lat": 48.10969693,
        "lon": -1.67808112,
        "name": "République",
        "code": 1315
      },
      "arrival": 69540,
      "departure": 69540
    },
    {
      "stop": {
        "id": "2_1051",
        "lat": 48.10985855,
        "lon": -1.68327915,
        "name": "Place de Bretagne",
        "code": 1051
      },
      "arrival": 69660,
      "departure": 69660
    },
    {
      "stop": {
        "id": "2_1092",
        "lat": 48.11176634,
        "lon": -1.68626625,
        "name": "Les Lices",
        "code": 1092
      },
      "arrival": 69780,
      "departure": 69780
    },
    {
      "stop": {
        "id": "2_1093",
        "lat": 48.11174332,
        "lon": -1.68956204,
        "name": "Horizons",
        "code": 1093
      },
      "arrival": 69840,
      "departure": 69840
    },
    {
      "stop": {
        "id": "2_1094",
        "lat": 48.11309647,
        "lon": -1.69338394,
        "name": "Brest Verdun",
        "code": 1094
      },
      "arrival": 69960,
      "departure": 69960
    },
    {
      "stop": {
        "id": "2_1095",
        "lat": 48.11646145,
        "lon": -1.69082908,
        "name": "La Touche",
        "code": 1095
      },
      "arrival": 70020,
      "departure": 70020
    },
    {
      "stop": {
        "id": "2_1096",
        "lat": 48.11820647,
        "lon": -1.68928315,
        "name": "Anatole France",
        "code": 1096
      },
      "arrival": 70080,
      "departure": 70080
    },
    {
      "stop": {
        "id": "2_1097",
        "lat": 48.12102062,
        "lon": -1.68680476,
        "name": "ESPE",
        "code": 1097
      },
      "arrival": 70140,
      "departure": 70140
    },
    {
      "stop": {
        "id": "2_1099",
        "lat": 48.12361631,
        "lon": -1.68364233,
        "name": "Saint-Martin",
        "code": 1099
      },
      "arrival": 70200,
      "departure": 70200
    },
    {
      "stop": {
        "id": "2_1100",
        "lat": 48.12493529,
        "lon": -1.68198209,
        "name": "Cimetière Nord",
        "code": 1100
      },
      "arrival": 70260,
      "departure": 70260
    },
    {
      "stop": {
        "id": "2_1041",
        "lat": 48.12884166,
        "lon": -1.68371536,
        "name": "Trois Croix",
        "code": 1041
      },
      "arrival": 70380,
      "departure": 70380
    },
    {
      "stop": {
        "id": "2_1102",
        "lat": 48.13115995,
        "lon": -1.68458083,
        "name": "Donelière",
        "code": 1102
      },
      "arrival": 70440,
      "departure": 70440
    },
    {
      "stop": {
        "id": "2_1371",
        "lat": 48.13300291,
        "lon": -1.68506819,
        "name": "Lycée Mendès France",
        "code": 1371
      },
      "arrival": 70440,
      "departure": 70440
    },
    {
      "stop": {
        "id": "2_2803",
        "lat": 48.13739456,
        "lon": -1.6885143,
        "name": "La Plesse",
        "code": 2803
      },
      "arrival": 70560,
      "departure": 70560
    },
    {
      "stop": {
        "id": "2_2801",
        "lat": 48.13580525,
        "lon": -1.69311343,
        "name": "Grand Quartier",
        "code": 2801
      },
      "arrival": 70620,
      "departure": 70620
    }
  ],
  "route": {
    "id": "2_0002",
    "textColor": "FFFFFF",
    "color": "008BCF",
    "description": "Majeure",
    "longName": "Grand Quartier \u003c\u003e La Poterie / Haut Sancé",
    "shortName": "2",
    "type": 3,
    "agencyId": "2"
  }
}