{
  "headsign": "50 | Rennes République",
  "stopTimes": [
    {
      "stop": {
        "id": "2_3301",
        "lat": 48.15515021,
        "lon": -1.57316318,
        "name": "Landelles",
        "code": 3301
      },
      "arrival": 41520,
      "departure": 41520
    },
    {
      "stop": {
        "id": "2_3322",
        "lat": 48.1492763,
        "lon": -1.57750308,
        "name": "Curien",
        "code": 3322
      },
      "arrival": 41700,
      "departure": 41700
    },
    {
      "stop": {
        "id": "2_3315",
        "lat": 48.15354798,
        "lon": -1.5798402,
        "name": "Thorigné Mairie",
        "code": 3315
      },
      "arrival": 41760,
      "departure": 41760
    },
    {
      "stop": {
        "id": "2_3314",
        "lat": 48.15594837,
        "lon": -1.58069511,
        "name": "Anne de Bretagne",
        "code": 3314
      },
      "arrival": 41820,
      "departure": 41820
    },
    {
      "stop": {
        "id": "2_3305",
        "lat": 48.15897926,
        "lon": -1.57970534,
        "name": "Bocage",
        "code": 3305
      },
      "arrival": 41880,
      "departure": 41880
    },
    {
      "stop": {
        "id": "2_3306",
        "lat": 48.16417683,
        "lon": -1.57932113,
        "name": "Juteauderies",
        "code": 3306
      },
      "arrival": 41940,
      "departure": 41940
    },
    {
      "stop": {
        "id": "2_3307",
        "lat": 48.16041313,
        "lon": -1.58594602,
        "name": "Fouillard",
        "code": 3307
      },
      "arrival": 42060,
      "departure": 42060
    },
    {
      "stop": {
        "id": "2_3309",
        "lat": 48.15626165,
        "lon": -1.59233418,
        "name": "Portail",
        "code": 3309
      },
      "arrival": 42120,
      "departure": 42120
    },
    {
      "stop": {
        "id": "2_2070",
        "lat": 48.14510684,
        "lon": -1.6086299,
        "name": "Victoire",
        "code": 2070
      },
      "arrival": 42300,
      "departure": 42300
    },
    {
      "stop": {
        "id": "2_2071",
        "lat": 48.14041547,
        "lon": -1.61679887,
        "name": "Calendrou",
        "code": 2071
      },
      "arrival": 42360,
      "departure": 42360
    },
    {
      "stop": {
        "id": "2_2114",
        "lat": 48.13737913,
        "lon": -1.62240807,
        "name": "Château de Vaux",
        "code": 2114
      },
      "arrival": 42420,
      "departure": 42420
    },
    {
      "stop": {
        "id": "2_2076",
        "lat": 48.13406637,
        "lon": -1.6290629,
        "name": "Lande Bouhard",
        "code": 2076
      },
      "arrival": 42540,
      "departure": 42540
    },
    {
      "stop": {
        "id": "2_1484",
        "lat": 48.13185965,
        "lon": -1.63589821,
        "name": "Gaudinais (futur ZA Saint-Sulpice)",
        "code": 1484
      },
      "arrival": 42600,
      "departure": 42600
    },
    {
      "stop": {
        "id": "2_1530",
        "lat": 48.12899468,
        "lon": -1.64272897,
        "name": "ZAC Saint-Sulpice (futur Pâtis Tatelin)",
        "code": 1530
      },
      "arrival": 42660,
      "departure": 42660
    },
    {
      "stop": {
        "id": "2_1004",
        "lat": 48.12528847,
        "lon": -1.64253775,
        "name": "Donzelot",
        "code": 1004
      },
      "arrival": 42720,
      "departure": 42720
    },
    {
      "stop": {
        "id": "2_1005",
        "lat": 48.1233588,
        "lon": -1.64623199,
        "name": "Mirabeau",
        "code": 1005
      },
      "arrival": 42780,
      "departure": 42780
    },
    {
      "stop": {
        "id": "2_1006",
        "lat": 48.12226258,
        "lon": -1.65069568,
        "name": "Turmel",
        "code": 1006
      },
      "arrival": 42840,
      "departure": 42840
    },
    {
      "stop": {
        "id": "2_1111",
        "lat": 48.12024278,
        "lon": -1.65071004,
        "name": "Docteur Quentin",
        "code": 1111
      },
      "arrival": 42900,
      "departure": 42900
    },
    {
      "stop": {
        "id": "2_1432",
        "lat": 48.11876913,
        "lon": -1.64990717,
        "name": "Vitré Foulon",
        "code": 1432
      },
      "arrival": 42960,
      "departure": 42960
    },
    {
      "stop": {
        "id": "2_1513",
        "lat": 48.11548204,
        "lon": -1.64846012,
        "name": "Bois Perrin",
        "code": 1513
      },
      "arrival": 43020,
      "departure": 43020
    },
    {
      "stop": {
        "id": "2_1514",
        "lat": 48.11333583,
        "lon": -1.64760506,
        "name": "Moulin de Joué",
        "code": 1514
      },
      "arrival": 43020,
      "departure": 43020
    },
    {
      "stop": {
        "id": "2_1163",
        "lat": 48.1101066,
        "lon": -1.66054614,
        "name": "Robidou",
        "code": 1163
      },
      "arrival": 43200,
      "departure": 43200
    },
    {
      "stop": {
        "id": "2_1166",
        "lat": 48.10988328,
        "lon": -1.67512929,
        "name": "Musée Beaux Arts",
        "code": 1166
      },
      "arrival": 43380,
      "departure": 43380
    },
    {
      "stop": {
        "id": "2_1563",
        "lat": 48.10969683,
        "lon": -1.67818363,
        "name": "République",
        "code": 1563
      },
      "arrival": 43440,
      "departure": 43440
    }
  ],
  "route": {
    "id": "2_0050",
    "textColor": "ffffff",
    "color": "8ea1cf",
    "description": "Métropolitaine",
    "longName": "Rennes (République) \u003c\u003e Thorigné-Fouillard",
    "shortName": "50",
    "type": 3,
    "agencyId": "2"
  }
}