{
  "headsign": "9 | Saint-Laurent",
  "stopTimes": [
    {
      "stop": {
        "id": "2_1390",
        "lat": 48.10413592,
        "lon": -1.71347582,
        "name": "Cleunay",
        "code": 1390
      },
      "arrival": 51840,
      "departure": 51840
    },
    {
      "stop": {
        "id": "2_1391",
        "lat": 48.1010791,
        "lon": -1.71178278,
        "name": "Clinique La Sagesse",
        "code": 1391
      },
      "arrival": 51960,
      "departure": 51960
    },
    {
      "stop": {
        "id": "2_1388",
        "lat": 48.099342,
        "lon": -1.7111775,
        "name": "Montand",
        "code": 1388
      },
      "arrival": 52020,
      "departure": 52020
    },
    {
      "stop": {
        "id": "2_1393",
        "lat": 48.09789624,
        "lon": -1.70765735,
        "name": "Récipon",
        "code": 1393
      },
      "arrival": 52080,
      "departure": 52080
    },
    {
      "stop": {
        "id": "2_1394",
        "lat": 48.09900079,
        "lon": -1.70550837,
        "name": "Guérinais",
        "code": 1394
      },
      "arrival": 52140,
      "departure": 52140
    },
    {
      "stop": {
        "id": "2_1395",
        "lat": 48.10101371,
        "lon": -1.70702001,
        "name": "De Lesseps",
        "code": 1395
      },
      "arrival": 52200,
      "departure": 52200
    },
    {
      "stop": {
        "id": "2_1396",
        "lat": 48.10225768,
        "lon": -1.70499098,
        "name": "Champion de Cicé",
        "code": 1396
      },
      "arrival": 52260,
      "departure": 52260
    },
    {
      "stop": {
        "id": "2_1383",
        "lat": 48.10360722,
        "lon": -1.70009111,
        "name": "Dargent",
        "code": 1383
      },
      "arrival": 52320,
      "departure": 52320
    },
    {
      "stop": {
        "id": "2_1382",
        "lat": 48.10510437,
        "lon": -1.69871692,
        "name": "Voltaire",
        "code": 1382
      },
      "arrival": 52380,
      "departure": 52380
    },
    {
      "stop": {
        "id": "2_1399",
        "lat": 48.10503717,
        "lon": -1.69542273,
        "name": "Malakoff",
        "code": 1399
      },
      "arrival": 52440,
      "departure": 52440
    },
    {
      "stop": {
        "id": "2_1612",
        "lat": 48.10354601,
        "lon": -1.6884609,
        "name": "Saint-Conwoïon",
        "code": 1612
      },
      "arrival": 52680,
      "departure": 52680
    },
    {
      "stop": {
        "id": "2_1401",
        "lat": 48.10562192,
        "lon": -1.68776692,
        "name": "Redon",
        "code": 1401
      },
      "arrival": 52740,
      "departure": 52740
    },
    {
      "stop": {
        "id": "2_1021",
        "lat": 48.10550614,
        "lon": -1.68388047,
        "name": "Cité Judiciaire",
        "code": 1021
      },
      "arrival": 52800,
      "departure": 52800
    },
    {
      "stop": {
        "id": "2_1022",
        "lat": 48.10635908,
        "lon": -1.68084592,
        "name": "Plélo Colombier",
        "code": 1022
      },
      "arrival": 52920,
      "departure": 52920
    },
    {
      "stop": {
        "id": "2_1023",
        "lat": 48.10798151,
        "lon": -1.68011595,
        "name": "Les Halles",
        "code": 1023
      },
      "arrival": 52980,
      "departure": 52980
    },
    {
      "stop": {
        "id": "2_1016",
        "lat": 48.11007256,
        "lon": -1.6801671,
        "name": "République Nemours",
        "code": 1016
      },
      "arrival": 53160,
      "departure": 53160
    },
    {
      "stop": {
        "id": "2_1025",
        "lat": 48.11273566,
        "lon": -1.68025817,
        "name": "Champ Jacquet",
        "code": 1025
      },
      "arrival": 53280,
      "departure": 53280
    },
    {
      "stop": {
        "id": "2_1026",
        "lat": 48.11478452,
        "lon": -1.67927843,
        "name": "Sainte-Anne",
        "code": 1026
      },
      "arrival": 53340,
      "departure": 53340
    },
    {
      "stop": {
        "id": "2_1027",
        "lat": 48.11723114,
        "lon": -1.67736823,
        "name": "Hôtel Dieu",
        "code": 1027
      },
      "arrival": 53460,
      "departure": 53460
    },
    {
      "stop": {
        "id": "2_1028",
        "lat": 48.11750653,
        "lon": -1.67360984,
        "name": "Sévigné",
        "code": 1028
      },
      "arrival": 53520,
      "departure": 53520
    },
    {
      "stop": {
        "id": "2_1029",
        "lat": 48.11831975,
        "lon": -1.66969704,
        "name": "Fac de Droit",
        "code": 1029
      },
      "arrival": 53580,
      "departure": 53580
    },
    {
      "stop": {
        "id": "2_1030",
        "lat": 48.11947818,
        "lon": -1.66685122,
        "name": "Guéhenno",
        "code": 1030
      },
      "arrival": 53640,
      "departure": 53640
    },
    {
      "stop": {
        "id": "2_1031",
        "lat": 48.12200441,
        "lon": -1.66224129,
        "name": "Metz Volney",
        "code": 1031
      },
      "arrival": 53760,
      "departure": 53760
    },
    {
      "stop": {
        "id": "2_1403",
        "lat": 48.12522631,
        "lon": -1.66100436,
        "name": "Saint-Exupéry",
        "code": 1403
      },
      "arrival": 53880,
      "departure": 53880
    },
    {
      "stop": {
        "id": "2_1404",
        "lat": 48.12676756,
        "lon": -1.65850144,
        "name": "Trégain",
        "code": 1404
      },
      "arrival": 53880,
      "departure": 53880
    },
    {
      "stop": {
        "id": "2_1405",
        "lat": 48.12842791,
        "lon": -1.65717779,
        "name": "Europe",
        "code": 1405
      },
      "arrival": 53940,
      "departure": 53940
    },
    {
      "stop": {
        "id": "2_1406",
        "lat": 48.13074039,
        "lon": -1.65650905,
        "name": "Gast",
        "code": 1406
      },
      "arrival": 54000,
      "departure": 54000
    },
    {
      "stop": {
        "id": "2_1407",
        "lat": 48.13305846,
        "lon": -1.65670003,
        "name": "Longs Prés",
        "code": 1407
      },
      "arrival": 54060,
      "departure": 54060
    },
    {
      "stop": {
        "id": "2_1373",
        "lat": 48.13520527,
        "lon": -1.65938653,
        "name": "Hôtel de Région",
        "code": 1373
      },
      "arrival": 54120,
      "departure": 54120
    },
    {
      "stop": {
        "id": "2_1372",
        "lat": 48.13840918,
        "lon": -1.65907086,
        "name": "Saint-Laurent",
        "code": 1372
      },
      "arrival": 54240,
      "departure": 54240
    }
  ],
  "route": {
    "id": "2_0009",
    "textColor": "FFFFFF",
    "color": "00519E",
    "description": "Majeure",
    "longName": "Saint-Laurent \u003c\u003e Cleunay",
    "shortName": "9",
    "type": 3,
    "agencyId": "2"
  }
}