{
  "headsign": "5 | Lycée Bréquigny",
  "stopTimes": [
    {
      "stop": {
        "id": "2_1252",
        "lat": 48.138782,
        "lon": -1.66602,
        "name": "Patton",
        "code": 1252
      },
      "arrival": 51240,
      "departure": 51240
    },
    {
      "stop": {
        "id": "2_1253",
        "lat": 48.136711,
        "lon": -1.667527,
        "name": "Monts d\u0027Arrée",
        "code": 1253
      },
      "arrival": 51300,
      "departure": 51300
    },
    {
      "stop": {
        "id": "2_1254",
        "lat": 48.136796,
        "lon": -1.671078,
        "name": "Neruda",
        "code": 1254
      },
      "arrival": 51360,
      "departure": 51360
    },
    {
      "stop": {
        "id": "2_1255",
        "lat": 48.134477,
        "lon": -1.673097,
        "name": "Condate",
        "code": 1255
      },
      "arrival": 51420,
      "departure": 51420
    },
    {
      "stop": {
        "id": "2_1256",
        "lat": 48.132591,
        "lon": -1.671614,
        "name": "Bellangerais",
        "code": 1256
      },
      "arrival": 51480,
      "departure": 51480
    },
    {
      "stop": {
        "id": "2_1257",
        "lat": 48.13267,
        "lon": -1.667599,
        "name": "Morbihan",
        "code": 1257
      },
      "arrival": 51540,
      "departure": 51540
    },
    {
      "stop": {
        "id": "2_1258",
        "lat": 48.130788,
        "lon": -1.663953,
        "name": "Houx Cité U",
        "code": 1258
      },
      "arrival": 51600,
      "departure": 51600
    },
    {
      "stop": {
        "id": "2_1259",
        "lat": 48.128031,
        "lon": -1.664667,
        "name": "Rochester",
        "code": 1259
      },
      "arrival": 51660,
      "departure": 51660
    },
    {
      "stop": {
        "id": "2_1260",
        "lat": 48.126715,
        "lon": -1.665432,
        "name": "Gros Chêne",
        "code": 1260
      },
      "arrival": 51720,
      "departure": 51720
    },
    {
      "stop": {
        "id": "2_1261",
        "lat": 48.125322,
        "lon": -1.666645,
        "name": "Volney",
        "code": 1261
      },
      "arrival": 51780,
      "departure": 51780
    },
    {
      "stop": {
        "id": "2_1262",
        "lat": 48.121471,
        "lon": -1.67097,
        "name": "Jules Ferry",
        "code": 1262
      },
      "arrival": 51900,
      "departure": 51900
    },
    {
      "stop": {
        "id": "2_1263",
        "lat": 48.119629,
        "lon": -1.674316,
        "name": "Rectorat",
        "code": 1263
      },
      "arrival": 51960,
      "departure": 51960
    },
    {
      "stop": {
        "id": "2_1027",
        "lat": 48.117163,
        "lon": -1.677351,
        "name": "Hôtel Dieu",
        "code": 1027
      },
      "arrival": 52020,
      "departure": 52020
    },
    {
      "stop": {
        "id": "2_1014",
        "lat": 48.113739,
        "lon": -1.679038,
        "name": "Sainte-Anne",
        "code": 1014
      },
      "arrival": 52260,
      "departure": 52260
    },
    {
      "stop": {
        "id": "2_1015",
        "lat": 48.11252,
        "lon": -1.680352,
        "name": "Champ Jacquet",
        "code": 1015
      },
      "arrival": 52320,
      "departure": 52320
    },
    {
      "stop": {
        "id": "2_1024",
        "lat": 48.109977,
        "lon": -1.680268,
        "name": "République Nemours",
        "code": 1024
      },
      "arrival": 52500,
      "departure": 52500
    },
    {
      "stop": {
        "id": "2_1017",
        "lat": 48.108415,
        "lon": -1.680213,
        "name": "Les Halles",
        "code": 1017
      },
      "arrival": 52560,
      "departure": 52560
    },
    {
      "stop": {
        "id": "2_1018",
        "lat": 48.106204,
        "lon": -1.680999,
        "name": "Plélo Colombier",
        "code": 1018
      },
      "arrival": 52680,
      "departure": 52680
    },
    {
      "stop": {
        "id": "2_1019",
        "lat": 48.105084,
        "lon": -1.684731,
        "name": "Cité Judiciaire",
        "code": 1019
      },
      "arrival": 52800,
      "departure": 52800
    },
    {
      "stop": {
        "id": "2_1264",
        "lat": 48.10206,
        "lon": -1.684417,
        "name": "Pont de Nantes",
        "code": 1264
      },
      "arrival": 52860,
      "departure": 52860
    },
    {
      "stop": {
        "id": "2_1265",
        "lat": 48.099809,
        "lon": -1.687123,
        "name": "Foyer Rennais",
        "code": 1265
      },
      "arrival": 52920,
      "departure": 52920
    },
    {
      "stop": {
        "id": "2_1266",
        "lat": 48.09714,
        "lon": -1.689057,
        "name": "Mermoz",
        "code": 1266
      },
      "arrival": 52980,
      "departure": 52980
    },
    {
      "stop": {
        "id": "2_2219",
        "lat": 48.09408,
        "lon": -1.690642,
        "name": "Pilate",
        "code": 2219
      },
      "arrival": 52980,
      "departure": 52980
    },
    {
      "stop": {
        "id": "2_2218",
        "lat": 48.092405,
        "lon": -1.69168,
        "name": "Saint-Yves",
        "code": 2218
      },
      "arrival": 53040,
      "departure": 53040
    },
    {
      "stop": {
        "id": "2_2228",
        "lat": 48.089797,
        "lon": -1.693146,
        "name": "Pigeon Blanc",
        "code": 2228
      },
      "arrival": 53100,
      "departure": 53100
    },
    {
      "stop": {
        "id": "2_2216",
        "lat": 48.08731,
        "lon": -1.69473,
        "name": "Pressoirs",
        "code": 2216
      },
      "arrival": 53160,
      "departure": 53160
    },
    {
      "stop": {
        "id": "2_1267",
        "lat": 48.085707,
        "lon": -1.693903,
        "name": "Félix Eboué",
        "code": 1267
      },
      "arrival": 53220,
      "departure": 53220
    },
    {
      "stop": {
        "id": "2_1268",
        "lat": 48.083743,
        "lon": -1.693637,
        "name": "Boberil",
        "code": 1268
      },
      "arrival": 53280,
      "departure": 53280
    },
    {
      "stop": {
        "id": "2_1269",
        "lat": 48.084081,
        "lon": -1.692043,
        "name": "Lycée Bréquigny",
        "code": 1269
      },
      "arrival": 53340,
      "departure": 53340
    }
  ],
  "route": {
    "id": "2_0005",
    "textColor": "FFFFFF",
    "color": "EE7F01",
    "description": "Majeure",
    "longName": "Patton \u003c\u003e Lycée Bréquigny",
    "shortName": "5",
    "type": 3,
    "agencyId": "2"
  }
}