{
  "headsign": "31 | Villejean Churchill",
  "stopTimes": [
    {
      "stop": {
        "id": "2_1175",
        "lat": 48.11698398,
        "lon": -1.63390592,
        "name": "Beaulieu Chimie",
        "code": 1175
      },
      "arrival": 55200,
      "departure": 55200
    },
    {
      "stop": {
        "id": "2_1204",
        "lat": 48.11947652,
        "lon": -1.63539005,
        "name": "Beaulieu INSA",
        "code": 1204
      },
      "arrival": 55260,
      "departure": 55260
    },
    {
      "stop": {
        "id": "2_1177",
        "lat": 48.12187978,
        "lon": -1.640286,
        "name": "Beaulieu Restau. U.",
        "code": 1177
      },
      "arrival": 55320,
      "departure": 55320
    },
    {
      "stop": {
        "id": "2_1178",
        "lat": 48.12078326,
        "lon": -1.64386488,
        "name": "Beaulieu Cité U.",
        "code": 1178
      },
      "arrival": 55380,
      "departure": 55380
    },
    {
      "stop": {
        "id": "2_1112",
        "lat": 48.11890008,
        "lon": -1.65092835,
        "name": "Vitré Danton",
        "code": 1112
      },
      "arrival": 55500,
      "departure": 55500
    },
    {
      "stop": {
        "id": "2_1179",
        "lat": 48.11698403,
        "lon": -1.65584808,
        "name": "Jeanne d\u0027Arc",
        "code": 1179
      },
      "arrival": 55620,
      "departure": 55620
    },
    {
      "stop": {
        "id": "2_1180",
        "lat": 48.1161613,
        "lon": -1.65932935,
        "name": "Balzac",
        "code": 1180
      },
      "arrival": 55620,
      "departure": 55620
    },
    {
      "stop": {
        "id": "2_1199",
        "lat": 48.11620028,
        "lon": -1.66290006,
        "name": "Musset Cité U.",
        "code": 1199
      },
      "arrival": 55680,
      "departure": 55680
    },
    {
      "stop": {
        "id": "2_1182",
        "lat": 48.11625003,
        "lon": -1.66505828,
        "name": "George Sand",
        "code": 1182
      },
      "arrival": 55740,
      "departure": 55740
    },
    {
      "stop": {
        "id": "2_1010",
        "lat": 48.11917574,
        "lon": -1.66765915,
        "name": "Guéhenno",
        "code": 1010
      },
      "arrival": 55860,
      "departure": 55860
    },
    {
      "stop": {
        "id": "2_1011",
        "lat": 48.11830509,
        "lon": -1.67120349,
        "name": "Fac de Droit",
        "code": 1011
      },
      "arrival": 55920,
      "departure": 55920
    },
    {
      "stop": {
        "id": "2_1572",
        "lat": 48.1179832,
        "lon": -1.67522707,
        "name": "Vincennes",
        "code": 1572
      },
      "arrival": 56040,
      "departure": 56040
    },
    {
      "stop": {
        "id": "2_1183",
        "lat": 48.11735545,
        "lon": -1.67855043,
        "name": "Hôtel Dieu",
        "code": 1183
      },
      "arrival": 56100,
      "departure": 56100
    },
    {
      "stop": {
        "id": "2_1184",
        "lat": 48.11717158,
        "lon": -1.68158998,
        "name": "Dinan",
        "code": 1184
      },
      "arrival": 56160,
      "departure": 56160
    },
    {
      "stop": {
        "id": "2_1185",
        "lat": 48.11767912,
        "lon": -1.68484515,
        "name": "Legraverend",
        "code": 1185
      },
      "arrival": 56280,
      "departure": 56280
    },
    {
      "stop": {
        "id": "2_1186",
        "lat": 48.11853287,
        "lon": -1.68815907,
        "name": "Anatole France",
        "code": 1186
      },
      "arrival": 56340,
      "departure": 56340
    },
    {
      "stop": {
        "id": "2_1047",
        "lat": 48.11617754,
        "lon": -1.69116733,
        "name": "La Touche",
        "code": 1047
      },
      "arrival": 56400,
      "departure": 56400
    },
    {
      "stop": {
        "id": "2_1048",
        "lat": 48.11334584,
        "lon": -1.69345994,
        "name": "Brest Verdun",
        "code": 1048
      },
      "arrival": 56520,
      "departure": 56520
    },
    {
      "stop": {
        "id": "2_1187",
        "lat": 48.11402889,
        "lon": -1.69825899,
        "name": "Maison Diocésaine",
        "code": 1187
      },
      "arrival": 56580,
      "departure": 56580
    },
    {
      "stop": {
        "id": "2_1192",
        "lat": 48.11489023,
        "lon": -1.70129713,
        "name": "La Salle",
        "code": 1192
      },
      "arrival": 56640,
      "departure": 56640
    },
    {
      "stop": {
        "id": "2_1189",
        "lat": 48.11603293,
        "lon": -1.70563932,
        "name": "Languedoc",
        "code": 1189
      },
      "arrival": 56700,
      "departure": 56700
    },
    {
      "stop": {
        "id": "2_1190",
        "lat": 48.11740687,
        "lon": -1.70825224,
        "name": "Villejean-Churchill",
        "code": 1190
      },
      "arrival": 56820,
      "departure": 56820
    }
  ],
  "route": {
    "id": "2_0031",
    "textColor": "DF171C",
    "color": "FEF466",
    "description": "Inter-quartiers",
    "longName": "Villejean-Churchill \u003c\u003e Beaulieu Ecole de Chimie",
    "shortName": "31",
    "type": 3,
    "agencyId": "2"
  }
}