{
  "headsign": "79 | Pont-Péan Laillé",
  "stopTimes": [
    {
      "stop": {
        "id": "2_1510",
        "lat": 48.08777947,
        "lon": -1.67446532,
        "name": "Henri Fréville",
        "code": 1510
      },
      "arrival": 65100,
      "departure": 65100
    },
    {
      "stop": {
        "id": "2_3910",
        "lat": 48.0169427,
        "lon": -1.7051982,
        "name": "Fontaine Blanche",
        "code": 3910
      },
      "arrival": 65820,
      "departure": 65820
    },
    {
      "stop": {
        "id": "2_3911",
        "lat": 48.01367131,
        "lon": -1.70764824,
        "name": "Rivaudière",
        "code": 3911
      },
      "arrival": 65880,
      "departure": 65880
    },
    {
      "stop": {
        "id": "2_3912",
        "lat": 48.01082475,
        "lon": -1.706468,
        "name": "Pont Péan Mairie",
        "code": 3912
      },
      "arrival": 66000,
      "departure": 66000
    },
    {
      "stop": {
        "id": "2_3904",
        "lat": 48.01295576,
        "lon": -1.70300304,
        "name": "Chemin Vert",
        "code": 3904
      },
      "arrival": 66060,
      "departure": 66060
    },
    {
      "stop": {
        "id": "2_3914",
        "lat": 48.01038435,
        "lon": -1.70102798,
        "name": "Mouton Blanc",
        "code": 3914
      },
      "arrival": 66120,
      "departure": 66120
    },
    {
      "stop": {
        "id": "2_4701",
        "lat": 47.97860622,
        "lon": -1.71298793,
        "name": "Point du Jour",
        "code": 4701
      },
      "arrival": 66600,
      "departure": 66600
    },
    {
      "stop": {
        "id": "2_4703",
        "lat": 47.97550719,
        "lon": -1.71717487,
        "name": "Orée du Bois",
        "code": 4703
      },
      "arrival": 66720,
      "departure": 66720
    },
    {
      "stop": {
        "id": "2_4705",
        "lat": 47.97798342,
        "lon": -1.71968327,
        "name": "Laillé Eglise",
        "code": 4705
      },
      "arrival": 66780,
      "departure": 66780
    },
    {
      "stop": {
        "id": "2_4707",
        "lat": 47.97928745,
        "lon": -1.72433103,
        "name": "Châtaigneraie",
        "code": 4707
      },
      "arrival": 66840,
      "departure": 66840
    },
    {
      "stop": {
        "id": "2_4708",
        "lat": 47.98009235,
        "lon": -1.7309092,
        "name": "Gingouillère",
        "code": 4708
      },
      "arrival": 66900,
      "departure": 66900
    }
  ],
  "route": {
    "id": "2_0079",
    "textColor": "000000",
    "color": "62C3D5",
    "description": "Métropolitaine",
    "longName": "Rennes (Henri Fréville) \u003c\u003e Laillé",
    "shortName": "79",
    "type": 3,
    "agencyId": "2"
  }
}