{
  "headsign": "57 | Rennes République",
  "stopTimes": [
    {
      "stop": {
        "id": "2_2338",
        "lat": 48.03327206,
        "lon": -1.7330462,
        "name": "Lavoisier",
        "code": 2338
      },
      "arrival": 52500,
      "departure": 52500
    },
    {
      "stop": {
        "id": "2_2339",
        "lat": 48.02837459,
        "lon": -1.73561585,
        "name": "Champ Niguel",
        "code": 2339
      },
      "arrival": 52560,
      "departure": 52560
    },
    {
      "stop": {
        "id": "2_2340",
        "lat": 48.02603219,
        "lon": -1.73454161,
        "name": "Bobinais",
        "code": 2340
      },
      "arrival": 52620,
      "departure": 52620
    },
    {
      "stop": {
        "id": "2_2341",
        "lat": 48.02366722,
        "lon": -1.73621021,
        "name": "Pasteur",
        "code": 2341
      },
      "arrival": 52620,
      "departure": 52620
    },
    {
      "stop": {
        "id": "2_2342",
        "lat": 48.02092837,
        "lon": -1.73825365,
        "name": "Du Guesclin",
        "code": 2342
      },
      "arrival": 52680,
      "departure": 52680
    },
    {
      "stop": {
        "id": "2_2343",
        "lat": 48.01957852,
        "lon": -1.74458947,
        "name": "Epalet",
        "code": 2343
      },
      "arrival": 52740,
      "departure": 52740
    },
    {
      "stop": {
        "id": "2_2344",
        "lat": 48.02159325,
        "lon": -1.75228218,
        "name": "Noë",
        "code": 2344
      },
      "arrival": 52860,
      "departure": 52860
    },
    {
      "stop": {
        "id": "2_2361",
        "lat": 48.02442778,
        "lon": -1.7448362,
        "name": "Bruz Centre",
        "code": 2361
      },
      "arrival": 52980,
      "departure": 52980
    },
    {
      "stop": {
        "id": "2_2302",
        "lat": 48.02485673,
        "lon": -1.7507341,
        "name": "Herverie",
        "code": 2302
      },
      "arrival": 53100,
      "departure": 53100
    },
    {
      "stop": {
        "id": "2_2303",
        "lat": 48.02466598,
        "lon": -1.75723493,
        "name": "Haut Launay",
        "code": 2303
      },
      "arrival": 53160,
      "departure": 53160
    },
    {
      "stop": {
        "id": "2_2304",
        "lat": 48.02572872,
        "lon": -1.76082474,
        "name": "Rabine",
        "code": 2304
      },
      "arrival": 53280,
      "departure": 53280
    },
    {
      "stop": {
        "id": "2_2322",
        "lat": 48.02941268,
        "lon": -1.75801123,
        "name": "Vert Buisson",
        "code": 2322
      },
      "arrival": 53340,
      "departure": 53340
    },
    {
      "stop": {
        "id": "2_2307",
        "lat": 48.03128037,
        "lon": -1.75948748,
        "name": "Gavrinis",
        "code": 2307
      },
      "arrival": 53400,
      "departure": 53400
    },
    {
      "stop": {
        "id": "2_2308",
        "lat": 48.0413371,
        "lon": -1.75451324,
        "name": "Croix Madame",
        "code": 2308
      },
      "arrival": 53520,
      "departure": 53520
    },
    {
      "stop": {
        "id": "2_2319",
        "lat": 48.04454125,
        "lon": -1.7463853,
        "name": "Schuman",
        "code": 2319
      },
      "arrival": 53580,
      "departure": 53580
    },
    {
      "stop": {
        "id": "2_2311",
        "lat": 48.04726387,
        "lon": -1.74200594,
        "name": "Coeur de Campus",
        "code": 2311
      },
      "arrival": 53640,
      "departure": 53640
    },
    {
      "stop": {
        "id": "2_2312",
        "lat": 48.04942067,
        "lon": -1.74051743,
        "name": "Etangs",
        "code": 2312
      },
      "arrival": 53700,
      "departure": 53700
    },
    {
      "stop": {
        "id": "2_2313",
        "lat": 48.05272866,
        "lon": -1.73833691,
        "name": "Lande du Pont",
        "code": 2313
      },
      "arrival": 53760,
      "departure": 53760
    },
    {
      "stop": {
        "id": "2_2236",
        "lat": 48.06002567,
        "lon": -1.7341661,
        "name": "Parc Expo",
        "code": 2236
      },
      "arrival": 53880,
      "departure": 53880
    },
    {
      "stop": {
        "id": "2_2238",
        "lat": 48.06498115,
        "lon": -1.72459031,
        "name": "Centre Météo",
        "code": 2238
      },
      "arrival": 54000,
      "departure": 54000
    },
    {
      "stop": {
        "id": "2_2237",
        "lat": 48.06734838,
        "lon": -1.72176227,
        "name": "Aire Libre Aéroport",
        "code": 2237
      },
      "arrival": 54060,
      "departure": 54060
    },
    {
      "stop": {
        "id": "2_2223",
        "lat": 48.06737644,
        "lon": -1.71701707,
        "name": "Abbé Grimault",
        "code": 2223
      },
      "arrival": 54120,
      "departure": 54120
    },
    {
      "stop": {
        "id": "2_2239",
        "lat": 48.07782462,
        "lon": -1.71251488,
        "name": "Haut Bois",
        "code": 2239
      },
      "arrival": 54300,
      "departure": 54300
    },
    {
      "stop": {
        "id": "2_2240",
        "lat": 48.08058042,
        "lon": -1.71235702,
        "name": "Malraux",
        "code": 2240
      },
      "arrival": 54300,
      "departure": 54300
    },
    {
      "stop": {
        "id": "2_2206",
        "lat": 48.08751801,
        "lon": -1.70704222,
        "name": "Gaité",
        "code": 2206
      },
      "arrival": 54420,
      "departure": 54420
    },
    {
      "stop": {
        "id": "2_2210",
        "lat": 48.09335368,
        "lon": -1.70154725,
        "name": "Lilas",
        "code": 2210
      },
      "arrival": 54540,
      "departure": 54540
    },
    {
      "stop": {
        "id": "2_2209",
        "lat": 48.09572605,
        "lon": -1.69450527,
        "name": "Commeurec",
        "code": 2209
      },
      "arrival": 54600,
      "departure": 54600
    },
    {
      "stop": {
        "id": "2_1573",
        "lat": 48.09706882,
        "lon": -1.69029866,
        "name": "Mermoz",
        "code": 1573
      },
      "arrival": 54660,
      "departure": 54660
    },
    {
      "stop": {
        "id": "2_1276",
        "lat": 48.09970592,
        "lon": -1.68624612,
        "name": "Foyer Rennais",
        "code": 1276
      },
      "arrival": 54720,
      "departure": 54720
    },
    {
      "stop": {
        "id": "2_1277",
        "lat": 48.1021686,
        "lon": -1.68416325,
        "name": "Pont de Nantes",
        "code": 1277
      },
      "arrival": 54780,
      "departure": 54780
    },
    {
      "stop": {
        "id": "2_1021",
        "lat": 48.10550614,
        "lon": -1.68388047,
        "name": "Cité Judiciaire",
        "code": 1021
      },
      "arrival": 54840,
      "departure": 54840
    },
    {
      "stop": {
        "id": "2_1022",
        "lat": 48.10635907,
        "lon": -1.68084592,
        "name": "Plélo Colombier",
        "code": 1022
      },
      "arrival": 54900,
      "departure": 54900
    },
    {
      "stop": {
        "id": "2_1023",
        "lat": 48.10798151,
        "lon": -1.68011595,
        "name": "Les Halles",
        "code": 1023
      },
      "arrival": 54960,
      "departure": 54960
    },
    {
      "stop": {
        "id": "2_1615",
        "lat": 48.1098306,
        "lon": -1.67828357,
        "name": "République",
        "code": 1615
      },
      "arrival": 55080,
      "departure": 55080
    }
  ],
  "route": {
    "id": "2_0057",
    "textColor": "FFFFFF",
    "color": "A9701E",
    "description": "Métropolitaine",
    "longName": "Rennes (République) \u003c\u003e Saint-Jacques-de-la-Lande / Bruz (Centre)",
    "shortName": "57",
    "type": 3,
    "agencyId": "2"
  }
}