{
  "headsign": "54 | Rennes Charles de Gaulle",
  "stopTimes": [
    {
      "stop": {
        "id": "2_4401",
        "lat": 48.06992252,
        "lon": -1.93239808,
        "name": "Le Verger Eglise",
        "code": 4401
      },
      "arrival": 57900,
      "departure": 57900
    },
    {
      "stop": {
        "id": "2_4402",
        "lat": 48.07025095,
        "lon": -1.92907905,
        "name": "Bouvrais",
        "code": 4402
      },
      "arrival": 57900,
      "departure": 57900
    },
    {
      "stop": {
        "id": "2_3851",
        "lat": 48.07460255,
        "lon": -1.85367611,
        "name": "Mordelles Pâtis",
        "code": 3851
      },
      "arrival": 58560,
      "departure": 58560
    },
    {
      "stop": {
        "id": "2_3852",
        "lat": 48.07194172,
        "lon": -1.84998802,
        "name": "Mordelles Eglise",
        "code": 3852
      },
      "arrival": 58620,
      "departure": 58620
    },
    {
      "stop": {
        "id": "2_3853",
        "lat": 48.07371138,
        "lon": -1.84642407,
        "name": "Mordelles Mairie",
        "code": 3853
      },
      "arrival": 58680,
      "departure": 58680
    },
    {
      "stop": {
        "id": "2_3854",
        "lat": 48.07584083,
        "lon": -1.8422202,
        "name": "Mordelles Lilas",
        "code": 3854
      },
      "arrival": 58740,
      "departure": 58740
    },
    {
      "stop": {
        "id": "2_3855",
        "lat": 48.07771885,
        "lon": -1.83754903,
        "name": "Gretay",
        "code": 3855
      },
      "arrival": 58800,
      "departure": 58800
    },
    {
      "stop": {
        "id": "2_2502",
        "lat": 48.1005527,
        "lon": -1.80657108,
        "name": "Lycée Monod",
        "code": 2502
      },
      "arrival": 59160,
      "departure": 59160
    },
    {
      "stop": {
        "id": "2_2503",
        "lat": 48.09895196,
        "lon": -1.80139197,
        "name": "Champs Freslons",
        "code": 2503
      },
      "arrival": 59280,
      "departure": 59280
    },
    {
      "stop": {
        "id": "2_2504",
        "lat": 48.09897121,
        "lon": -1.79693897,
        "name": "Brassens",
        "code": 2504
      },
      "arrival": 59340,
      "departure": 59340
    },
    {
      "stop": {
        "id": "2_2505",
        "lat": 48.10163022,
        "lon": -1.79451553,
        "name": "Bouleaux",
        "code": 2505
      },
      "arrival": 59400,
      "departure": 59400
    },
    {
      "stop": {
        "id": "2_2506",
        "lat": 48.09931104,
        "lon": -1.79124998,
        "name": "Genêts",
        "code": 2506
      },
      "arrival": 59460,
      "departure": 59460
    },
    {
      "stop": {
        "id": "2_2507",
        "lat": 48.09755056,
        "lon": -1.78133332,
        "name": "Barberais",
        "code": 2507
      },
      "arrival": 59580,
      "departure": 59580
    },
    {
      "stop": {
        "id": "2_2508",
        "lat": 48.09687556,
        "lon": -1.77558132,
        "name": "Les Pins",
        "code": 2508
      },
      "arrival": 59640,
      "departure": 59640
    },
    {
      "stop": {
        "id": "2_2509",
        "lat": 48.09614161,
        "lon": -1.76472044,
        "name": "Pont d\u0027Avoine",
        "code": 2509
      },
      "arrival": 59760,
      "departure": 59760
    },
    {
      "stop": {
        "id": "2_2510",
        "lat": 48.10386756,
        "lon": -1.75043717,
        "name": "Plessix Saucourt",
        "code": 2510
      },
      "arrival": 59880,
      "departure": 59880
    },
    {
      "stop": {
        "id": "2_3752",
        "lat": 48.10474061,
        "lon": -1.73906178,
        "name": "Trois Marches",
        "code": 3752
      },
      "arrival": 60000,
      "departure": 60000
    },
    {
      "stop": {
        "id": "2_1508",
        "lat": 48.10673486,
        "lon": -1.7291459,
        "name": "Berthault",
        "code": 1508
      },
      "arrival": 60060,
      "departure": 60060
    },
    {
      "stop": {
        "id": "2_1233",
        "lat": 48.10704453,
        "lon": -1.72187845,
        "name": "Lemaistre",
        "code": 1233
      },
      "arrival": 60120,
      "departure": 60120
    },
    {
      "stop": {
        "id": "2_1235",
        "lat": 48.10892663,
        "lon": -1.70977108,
        "name": "Géniaux",
        "code": 1235
      },
      "arrival": 60240,
      "departure": 60240
    },
    {
      "stop": {
        "id": "2_1238",
        "lat": 48.10869591,
        "lon": -1.69884796,
        "name": "Guilloux Lorient",
        "code": 1238
      },
      "arrival": 60360,
      "departure": 60360
    },
    {
      "stop": {
        "id": "2_1239",
        "lat": 48.10827073,
        "lon": -1.6941653,
        "name": "Chèques Postaux",
        "code": 1239
      },
      "arrival": 60420,
      "departure": 60420
    },
    {
      "stop": {
        "id": "2_1542",
        "lat": 48.10997275,
        "lon": -1.68535336,
        "name": "Pont de Bretagne",
        "code": 1542
      },
      "arrival": 60600,
      "departure": 60600
    },
    {
      "stop": {
        "id": "2_1242",
        "lat": 48.10980333,
        "lon": -1.6795219,
        "name": "République",
        "code": 1242
      },
      "arrival": 60660,
      "departure": 60660
    },
    {
      "stop": {
        "id": "2_1088",
        "lat": 48.10744897,
        "lon": -1.67491383,
        "name": "Liberté TNB",
        "code": 1088
      },
      "arrival": 60840,
      "departure": 60840
    },
    {
      "stop": {
        "id": "2_1567",
        "lat": 48.1062288,
        "lon": -1.67750174,
        "name": "Charles de Gaulle",
        "code": 1567
      },
      "arrival": 60960,
      "departure": 60960
    }
  ],
  "route": {
    "id": "2_0054",
    "textColor": "FFFFFF",
    "color": "CD93BD",
    "description": "Métropolitaine",
    "longName": "Rennes (Charles de Gaulle) \u003c\u003e Le Rheu / Cintré",
    "shortName": "54",
    "type": 3,
    "agencyId": "2"
  }
}