{
  "headsign": "50 | Thorigné-Fouillard",
  "stopTimes": [
    {
      "stop": {
        "id": "2_1563",
        "lat": 48.10969683,
        "lon": -1.67818363,
        "name": "République",
        "code": 1563
      },
      "arrival": 41400,
      "departure": 41400
    },
    {
      "stop": {
        "id": "2_1169",
        "lat": 48.10985334,
        "lon": -1.67452094,
        "name": "Musée Beaux Arts",
        "code": 1169
      },
      "arrival": 41460,
      "departure": 41460
    },
    {
      "stop": {
        "id": "2_1172",
        "lat": 48.11007924,
        "lon": -1.65919453,
        "name": "Robidou",
        "code": 1172
      },
      "arrival": 41640,
      "departure": 41640
    },
    {
      "stop": {
        "id": "2_1515",
        "lat": 48.11350079,
        "lon": -1.64755396,
        "name": "Moulin de Joué",
        "code": 1515
      },
      "arrival": 41820,
      "departure": 41820
    },
    {
      "stop": {
        "id": "2_1516",
        "lat": 48.11607506,
        "lon": -1.64842117,
        "name": "Bois Perrin",
        "code": 1516
      },
      "arrival": 41820,
      "departure": 41820
    },
    {
      "stop": {
        "id": "2_1152",
        "lat": 48.12043354,
        "lon": -1.65067299,
        "name": "Docteur Quentin",
        "code": 1152
      },
      "arrival": 41940,
      "departure": 41940
    },
    {
      "stop": {
        "id": "2_1034",
        "lat": 48.12221902,
        "lon": -1.65061867,
        "name": "Turmel",
        "code": 1034
      },
      "arrival": 41940,
      "departure": 41940
    },
    {
      "stop": {
        "id": "2_1035",
        "lat": 48.12370157,
        "lon": -1.64529281,
        "name": "Mirabeau",
        "code": 1035
      },
      "arrival": 42000,
      "departure": 42000
    },
    {
      "stop": {
        "id": "2_1036",
        "lat": 48.12553894,
        "lon": -1.64212893,
        "name": "Donzelot",
        "code": 1036
      },
      "arrival": 42000,
      "departure": 42000
    },
    {
      "stop": {
        "id": "2_1481",
        "lat": 48.12981846,
        "lon": -1.64241093,
        "name": "Pâtis Tatelin (ex ZAC Saint-Sulpice)",
        "code": 1481
      },
      "arrival": 42120,
      "departure": 42120
    },
    {
      "stop": {
        "id": "2_1480",
        "lat": 48.13202872,
        "lon": -1.63503782,
        "name": "ZA Saint-Sulpice (ex Gaudinais)",
        "code": 1480
      },
      "arrival": 42180,
      "departure": 42180
    },
    {
      "stop": {
        "id": "2_2077",
        "lat": 48.13420321,
        "lon": -1.62879212,
        "name": "Lande Bouhard",
        "code": 2077
      },
      "arrival": 42240,
      "departure": 42240
    },
    {
      "stop": {
        "id": "2_2115",
        "lat": 48.13732844,
        "lon": -1.62272404,
        "name": "Château de Vaux",
        "code": 2115
      },
      "arrival": 42300,
      "departure": 42300
    },
    {
      "stop": {
        "id": "2_2072",
        "lat": 48.14059929,
        "lon": -1.61647827,
        "name": "Calendrou",
        "code": 2072
      },
      "arrival": 42360,
      "departure": 42360
    },
    {
      "stop": {
        "id": "2_2073",
        "lat": 48.14510205,
        "lon": -1.60852174,
        "name": "Victoire",
        "code": 2073
      },
      "arrival": 42420,
      "departure": 42420
    },
    {
      "stop": {
        "id": "2_3310",
        "lat": 48.15630543,
        "lon": -1.59213593,
        "name": "Portail",
        "code": 3310
      },
      "arrival": 42540,
      "departure": 42540
    },
    {
      "stop": {
        "id": "2_3311",
        "lat": 48.16050547,
        "lon": -1.58565766,
        "name": "Fouillard",
        "code": 3311
      },
      "arrival": 42600,
      "departure": 42600
    },
    {
      "stop": {
        "id": "2_3312",
        "lat": 48.16302115,
        "lon": -1.57914001,
        "name": "Juteauderies",
        "code": 3312
      },
      "arrival": 42720,
      "departure": 42720
    },
    {
      "stop": {
        "id": "2_3313",
        "lat": 48.15918482,
        "lon": -1.57975012,
        "name": "Bocage",
        "code": 3313
      },
      "arrival": 42780,
      "departure": 42780
    },
    {
      "stop": {
        "id": "2_3304",
        "lat": 48.15563878,
        "lon": -1.580776,
        "name": "Anne de Bretagne",
        "code": 3304
      },
      "arrival": 42840,
      "departure": 42840
    },
    {
      "stop": {
        "id": "2_3302",
        "lat": 48.1530775,
        "lon": -1.57942222,
        "name": "Thorigné Mairie",
        "code": 3302
      },
      "arrival": 42900,
      "departure": 42900
    },
    {
      "stop": {
        "id": "2_3323",
        "lat": 48.14928986,
        "lon": -1.57715406,
        "name": "Curien",
        "code": 3323
      },
      "arrival": 43020,
      "departure": 43020
    },
    {
      "stop": {
        "id": "2_3301",
        "lat": 48.15515021,
        "lon": -1.57316318,
        "name": "Landelles",
        "code": 3301
      },
      "arrival": 43140,
      "departure": 43140
    }
  ],
  "route": {
    "id": "2_0050",
    "textColor": "FFFFFF",
    "color": "8DA6D2",
    "description": "Métropolitaine",
    "longName": "Rennes (République) \u003c\u003e Thorigné-Fouillard",
    "shortName": "50",
    "type": 3,
    "agencyId": "2"
  }
}