{
  "headsign": "216 | Cesson-Sévigné Base de Loisirs",
  "stopTimes": [
    {
      "stop": {
        "id": "2_1429",
        "lat": 48.127628,
        "lon": -1.650898,
        "name": "Joliot-Curie",
        "code": 1429
      },
      "arrival": 61200,
      "departure": 61200
    },
    {
      "stop": {
        "id": "2_1033",
        "lat": 48.12128,
        "lon": -1.655029,
        "name": "Assomption",
        "code": 1033
      },
      "arrival": 61380,
      "departure": 61380
    },
    {
      "stop": {
        "id": "2_1111",
        "lat": 48.120189,
        "lon": -1.65077,
        "name": "Docteur Quentin",
        "code": 1111
      },
      "arrival": 61500,
      "departure": 61500
    },
    {
      "stop": {
        "id": "2_1314",
        "lat": 48.125106,
        "lon": -1.632973,
        "name": "IUT",
        "code": 1314
      },
      "arrival": 61800,
      "departure": 61800
    },
    {
      "stop": {
        "id": "2_2048",
        "lat": 48.124466,
        "lon": -1.617618,
        "name": "Cormier",
        "code": 2048
      },
      "arrival": 62100,
      "departure": 62100
    },
    {
      "stop": {
        "id": "2_2042",
        "lat": 48.124644,
        "lon": -1.613102,
        "name": "Les Lacs",
        "code": 2042
      },
      "arrival": 62160,
      "departure": 62160
    },
    {
      "stop": {
        "id": "2_2075",
        "lat": 48.123363,
        "lon": -1.611301,
        "name": "Mare Pavée",
        "code": 2075
      },
      "arrival": 62220,
      "departure": 62220
    },
    {
      "stop": {
        "id": "2_2027",
        "lat": 48.123456,
        "lon": -1.608183,
        "name": "Fontenelle",
        "code": 2027
      },
      "arrival": 62280,
      "departure": 62280
    },
    {
      "stop": {
        "id": "2_2028",
        "lat": 48.123463,
        "lon": -1.604091,
        "name": "La Coulée",
        "code": 2028
      },
      "arrival": 62340,
      "departure": 62340
    },
    {
      "stop": {
        "id": "2_2029",
        "lat": 48.123131,
        "lon": -1.600719,
        "name": "Bourgchevreuil",
        "code": 2029
      },
      "arrival": 62400,
      "departure": 62400
    },
    {
      "stop": {
        "id": "2_2030",
        "lat": 48.124795,
        "lon": -1.596767,
        "name": "Petits Champs",
        "code": 2030
      },
      "arrival": 62460,
      "departure": 62460
    },
    {
      "stop": {
        "id": "2_2031",
        "lat": 48.123852,
        "lon": -1.593542,
        "name": "Grand Domaine",
        "code": 2031
      },
      "arrival": 62520,
      "departure": 62520
    },
    {
      "stop": {
        "id": "2_2088",
        "lat": 48.124676,
        "lon": -1.590653,
        "name": "Base de Loisirs",
        "code": 2088
      },
      "arrival": 62580,
      "departure": 62580
    }
  ],
  "route": {
    "id": "2_0216",
    "textColor": "1A171B",
    "color": "F29FC5",
    "description": "Complémentaire",
    "longName": "Cesson-Sévigné (Base de Loisirs) \u003c\u003e Rennes (Lycée Assomption)",
    "shortName": "216",
    "type": 3,
    "agencyId": "2"
  }
}