{
  "headsign": "201 | Rennes Lycée Assomption",
  "stopTimes": [
    {
      "stop": {
        "id": "2_3301",
        "lat": 48.15515021,
        "lon": -1.57316318,
        "name": "Landelles",
        "code": 3301
      },
      "arrival": 26880,
      "departure": 26880
    },
    {
      "stop": {
        "id": "2_3322",
        "lat": 48.14927631,
        "lon": -1.57750308,
        "name": "Curien",
        "code": 3322
      },
      "arrival": 27000,
      "departure": 27000
    },
    {
      "stop": {
        "id": "2_3315",
        "lat": 48.15354799,
        "lon": -1.5798402,
        "name": "Thorigné Mairie",
        "code": 3315
      },
      "arrival": 27120,
      "departure": 27120
    },
    {
      "stop": {
        "id": "2_3314",
        "lat": 48.15594837,
        "lon": -1.58069511,
        "name": "Anne de Bretagne",
        "code": 3314
      },
      "arrival": 27180,
      "departure": 27180
    },
    {
      "stop": {
        "id": "2_3305",
        "lat": 48.15897926,
        "lon": -1.57970534,
        "name": "Bocage",
        "code": 3305
      },
      "arrival": 27240,
      "departure": 27240
    },
    {
      "stop": {
        "id": "2_3306",
        "lat": 48.16417683,
        "lon": -1.57932113,
        "name": "Juteauderies",
        "code": 3306
      },
      "arrival": 27360,
      "departure": 27360
    },
    {
      "stop": {
        "id": "2_3307",
        "lat": 48.16041314,
        "lon": -1.58594602,
        "name": "Fouillard",
        "code": 3307
      },
      "arrival": 27480,
      "departure": 27480
    },
    {
      "stop": {
        "id": "2_3309",
        "lat": 48.15626165,
        "lon": -1.59233418,
        "name": "Portail",
        "code": 3309
      },
      "arrival": 27600,
      "departure": 27600
    },
    {
      "stop": {
        "id": "2_2070",
        "lat": 48.14510684,
        "lon": -1.6086299,
        "name": "Victoire",
        "code": 2070
      },
      "arrival": 27780,
      "departure": 27780
    },
    {
      "stop": {
        "id": "2_2071",
        "lat": 48.14041548,
        "lon": -1.61679887,
        "name": "Calendrou",
        "code": 2071
      },
      "arrival": 27840,
      "departure": 27840
    },
    {
      "stop": {
        "id": "2_2076",
        "lat": 48.13406638,
        "lon": -1.6290629,
        "name": "Lande Bouhard",
        "code": 2076
      },
      "arrival": 28020,
      "departure": 28020
    },
    {
      "stop": {
        "id": "2_1614",
        "lat": 48.12199696,
        "lon": -1.65646278,
        "name": "Assomption",
        "code": 1614
      },
      "arrival": 28800,
      "departure": 28800
    }
  ],
  "route": {
    "id": "2_0201",
    "textColor": "FFFFFF",
    "color": "E30613",
    "description": "Complémentaire",
    "longName": "Thorigné-Fouillard (Landelles) \u003c\u003e Rennes (Lycée Assomption)",
    "shortName": "201",
    "type": 3,
    "agencyId": "2"
  }
}