{
  "headsign": "57 | Rennes République",
  "stopTimes": [
    {
      "stop": {
        "id": "2_2361",
        "lat": 48.02442778,
        "lon": -1.7448362,
        "name": "Bruz Centre",
        "code": 2361
      },
      "arrival": 30900,
      "departure": 30900
    },
    {
      "stop": {
        "id": "2_2302",
        "lat": 48.02485673,
        "lon": -1.7507341,
        "name": "Herverie",
        "code": 2302
      },
      "arrival": 31020,
      "departure": 31020
    },
    {
      "stop": {
        "id": "2_2303",
        "lat": 48.02466598,
        "lon": -1.75723493,
        "name": "Haut Launay",
        "code": 2303
      },
      "arrival": 31080,
      "departure": 31080
    },
    {
      "stop": {
        "id": "2_2304",
        "lat": 48.02572872,
        "lon": -1.76082474,
        "name": "Rabine",
        "code": 2304
      },
      "arrival": 31200,
      "departure": 31200
    },
    {
      "stop": {
        "id": "2_2322",
        "lat": 48.02941268,
        "lon": -1.75801123,
        "name": "Vert Buisson",
        "code": 2322
      },
      "arrival": 31260,
      "departure": 31260
    },
    {
      "stop": {
        "id": "2_2307",
        "lat": 48.03128037,
        "lon": -1.75948748,
        "name": "Gavrinis",
        "code": 2307
      },
      "arrival": 31320,
      "departure": 31320
    },
    {
      "stop": {
        "id": "2_2308",
        "lat": 48.0413371,
        "lon": -1.75451324,
        "name": "Croix Madame",
        "code": 2308
      },
      "arrival": 31440,
      "departure": 31440
    },
    {
      "stop": {
        "id": "2_2319",
        "lat": 48.04454125,
        "lon": -1.7463853,
        "name": "Schuman",
        "code": 2319
      },
      "arrival": 31500,
      "departure": 31500
    },
    {
      "stop": {
        "id": "2_2311",
        "lat": 48.04726387,
        "lon": -1.74200594,
        "name": "Coeur de Campus",
        "code": 2311
      },
      "arrival": 31560,
      "departure": 31560
    },
    {
      "stop": {
        "id": "2_2312",
        "lat": 48.04942067,
        "lon": -1.74051743,
        "name": "Etangs",
        "code": 2312
      },
      "arrival": 31620,
      "departure": 31620
    },
    {
      "stop": {
        "id": "2_2313",
        "lat": 48.05272866,
        "lon": -1.73833691,
        "name": "Lande du Pont",
        "code": 2313
      },
      "arrival": 31680,
      "departure": 31680
    },
    {
      "stop": {
        "id": "2_2236",
        "lat": 48.06002567,
        "lon": -1.7341661,
        "name": "Parc Expo",
        "code": 2236
      },
      "arrival": 31800,
      "departure": 31800
    },
    {
      "stop": {
        "id": "2_2238",
        "lat": 48.06498115,
        "lon": -1.72459031,
        "name": "Centre Météo",
        "code": 2238
      },
      "arrival": 31920,
      "departure": 31920
    },
    {
      "stop": {
        "id": "2_2237",
        "lat": 48.06734838,
        "lon": -1.72176227,
        "name": "Aire Libre Aéroport",
        "code": 2237
      },
      "arrival": 31980,
      "departure": 31980
    },
    {
      "stop": {
        "id": "2_2223",
        "lat": 48.06737644,
        "lon": -1.71701707,
        "name": "Abbé Grimault",
        "code": 2223
      },
      "arrival": 32040,
      "departure": 32040
    },
    {
      "stop": {
        "id": "2_2239",
        "lat": 48.07782462,
        "lon": -1.71251488,
        "name": "Haut Bois",
        "code": 2239
      },
      "arrival": 32220,
      "departure": 32220
    },
    {
      "stop": {
        "id": "2_2240",
        "lat": 48.08058042,
        "lon": -1.71235702,
        "name": "Malraux",
        "code": 2240
      },
      "arrival": 32220,
      "departure": 32220
    },
    {
      "stop": {
        "id": "2_2206",
        "lat": 48.08751801,
        "lon": -1.70704222,
        "name": "Gaité",
        "code": 2206
      },
      "arrival": 32340,
      "departure": 32340
    },
    {
      "stop": {
        "id": "2_2210",
        "lat": 48.09335368,
        "lon": -1.70154725,
        "name": "Lilas",
        "code": 2210
      },
      "arrival": 32400,
      "departure": 32400
    },
    {
      "stop": {
        "id": "2_2209",
        "lat": 48.09572605,
        "lon": -1.69450527,
        "name": "Commeurec",
        "code": 2209
      },
      "arrival": 32460,
      "departure": 32460
    },
    {
      "stop": {
        "id": "2_1573",
        "lat": 48.09706882,
        "lon": -1.69029866,
        "name": "Mermoz",
        "code": 1573
      },
      "arrival": 32520,
      "departure": 32520
    },
    {
      "stop": {
        "id": "2_1276",
        "lat": 48.09970592,
        "lon": -1.68624612,
        "name": "Foyer Rennais",
        "code": 1276
      },
      "arrival": 32640,
      "departure": 32640
    },
    {
      "stop": {
        "id": "2_1277",
        "lat": 48.1021686,
        "lon": -1.68416325,
        "name": "Pont de Nantes",
        "code": 1277
      },
      "arrival": 32700,
      "departure": 32700
    },
    {
      "stop": {
        "id": "2_1021",
        "lat": 48.10550614,
        "lon": -1.68388047,
        "name": "Cité Judiciaire",
        "code": 1021
      },
      "arrival": 32760,
      "departure": 32760
    },
    {
      "stop": {
        "id": "2_1022",
        "lat": 48.10635907,
        "lon": -1.68084592,
        "name": "Plélo Colombier",
        "code": 1022
      },
      "arrival": 32820,
      "departure": 32820
    },
    {
      "stop": {
        "id": "2_1023",
        "lat": 48.10798151,
        "lon": -1.68011595,
        "name": "Les Halles",
        "code": 1023
      },
      "arrival": 32880,
      "departure": 32880
    },
    {
      "stop": {
        "id": "2_1615",
        "lat": 48.1098306,
        "lon": -1.67828357,
        "name": "République",
        "code": 1615
      },
      "arrival": 32940,
      "departure": 32940
    }
  ],
  "route": {
    "id": "2_0057",
    "textColor": "FFFFFF",
    "color": "A9701E",
    "description": "Métropolitaine",
    "longName": "Rennes (République) \u003c\u003e Saint-Jacques-de-la-Lande / Bruz (Centre)",
    "shortName": "57",
    "type": 3,
    "agencyId": "2"
  }
}