{
  "headsign": "61 | Rennes Henri Fréville",
  "stopTimes": [
    {
      "stop": {
        "id": "2_3801",
        "lat": 47.99009528,
        "lon": -1.6138293,
        "name": "Centre de Loisirs",
        "code": 3801
      },
      "arrival": 46800,
      "departure": 46800
    },
    {
      "stop": {
        "id": "2_3802",
        "lat": 47.99488016,
        "lon": -1.61426966,
        "name": "Bourgbarré Mairie",
        "code": 3802
      },
      "arrival": 46920,
      "departure": 46920
    },
    {
      "stop": {
        "id": "2_3803",
        "lat": 47.99607325,
        "lon": -1.61723784,
        "name": "La Motte",
        "code": 3803
      },
      "arrival": 46980,
      "departure": 46980
    },
    {
      "stop": {
        "id": "2_3804",
        "lat": 47.99514007,
        "lon": -1.62423419,
        "name": "La Basse Erable",
        "code": 3804
      },
      "arrival": 47040,
      "departure": 47040
    },
    {
      "stop": {
        "id": "2_3805",
        "lat": 47.99450137,
        "lon": -1.63152471,
        "name": "Perelle",
        "code": 3805
      },
      "arrival": 47100,
      "departure": 47100
    },
    {
      "stop": {
        "id": "2_3208",
        "lat": 47.99395077,
        "lon": -1.66549531,
        "name": "Chateaubriand",
        "code": 3208
      },
      "arrival": 47400,
      "departure": 47400
    },
    {
      "stop": {
        "id": "2_3209",
        "lat": 47.99249678,
        "lon": -1.66873811,
        "name": "Surcouf",
        "code": 3209
      },
      "arrival": 47520,
      "departure": 47520
    },
    {
      "stop": {
        "id": "2_3210",
        "lat": 47.99502137,
        "lon": -1.67075631,
        "name": "Coteau",
        "code": 3210
      },
      "arrival": 47580,
      "departure": 47580
    },
    {
      "stop": {
        "id": "2_3211",
        "lat": 47.99730201,
        "lon": -1.66850378,
        "name": "Groupe Scolaire",
        "code": 3211
      },
      "arrival": 47640,
      "departure": 47640
    },
    {
      "stop": {
        "id": "2_3212",
        "lat": 48.00074048,
        "lon": -1.66681908,
        "name": "Levant",
        "code": 3212
      },
      "arrival": 47700,
      "departure": 47700
    },
    {
      "stop": {
        "id": "2_3213",
        "lat": 48.00909705,
        "lon": -1.66635235,
        "name": "Plardière",
        "code": 3213
      },
      "arrival": 47820,
      "departure": 47820
    },
    {
      "stop": {
        "id": "2_3250",
        "lat": 48.01492514,
        "lon": -1.66387719,
        "name": "Orgerblon",
        "code": 3250
      },
      "arrival": 47880,
      "departure": 47880
    },
    {
      "stop": {
        "id": "2_4356",
        "lat": 48.01707559,
        "lon": -1.66458634,
        "name": "Croix du Pigeonnet",
        "code": 4356
      },
      "arrival": 47940,
      "departure": 47940
    },
    {
      "stop": {
        "id": "2_4351",
        "lat": 48.01725669,
        "lon": -1.66042889,
        "name": "Parc d\u0027Activités",
        "code": 4351
      },
      "arrival": 48000,
      "departure": 48000
    },
    {
      "stop": {
        "id": "2_4352",
        "lat": 48.01883453,
        "lon": -1.65769241,
        "name": "Champ Mulon",
        "code": 4352
      },
      "arrival": 48060,
      "departure": 48060
    },
    {
      "stop": {
        "id": "2_4353",
        "lat": 48.01766237,
        "lon": -1.65451232,
        "name": "Paul Féval",
        "code": 4353
      },
      "arrival": 48120,
      "departure": 48120
    },
    {
      "stop": {
        "id": "2_4362",
        "lat": 48.01622131,
        "lon": -1.65152108,
        "name": "Alexandre Gilois",
        "code": 4362
      },
      "arrival": 48120,
      "departure": 48120
    },
    {
      "stop": {
        "id": "2_4358",
        "lat": 48.01767454,
        "lon": -1.64942104,
        "name": "Croix Faucheux",
        "code": 4358
      },
      "arrival": 48180,
      "departure": 48180
    },
    {
      "stop": {
        "id": "2_4359",
        "lat": 48.02152221,
        "lon": -1.65356188,
        "name": "Leuzières",
        "code": 4359
      },
      "arrival": 48240,
      "departure": 48240
    },
    {
      "stop": {
        "id": "2_2705",
        "lat": 48.02898231,
        "lon": -1.65980879,
        "name": "Bray",
        "code": 2705
      },
      "arrival": 48360,
      "departure": 48360
    },
    {
      "stop": {
        "id": "2_2734",
        "lat": 48.03439807,
        "lon": -1.66349817,
        "name": "Côteaux",
        "code": 2734
      },
      "arrival": 48420,
      "departure": 48420
    },
    {
      "stop": {
        "id": "2_2727",
        "lat": 48.03842301,
        "lon": -1.66656825,
        "name": "Pont",
        "code": 2727
      },
      "arrival": 48480,
      "departure": 48480
    },
    {
      "stop": {
        "id": "2_2706",
        "lat": 48.0384178,
        "lon": -1.67071213,
        "name": "Molène",
        "code": 2706
      },
      "arrival": 48540,
      "departure": 48540
    },
    {
      "stop": {
        "id": "2_2707",
        "lat": 48.04080291,
        "lon": -1.6719381,
        "name": "Potiers",
        "code": 2707
      },
      "arrival": 48600,
      "departure": 48600
    },
    {
      "stop": {
        "id": "2_2708",
        "lat": 48.04239861,
        "lon": -1.66565541,
        "name": "Centre",
        "code": 2708
      },
      "arrival": 48660,
      "departure": 48660
    },
    {
      "stop": {
        "id": "2_2709",
        "lat": 48.0440963,
        "lon": -1.66126141,
        "name": "Salle Polyvalente",
        "code": 2709
      },
      "arrival": 48720,
      "departure": 48720
    },
    {
      "stop": {
        "id": "2_2710",
        "lat": 48.0471142,
        "lon": -1.66108375,
        "name": "Petite Saudrais",
        "code": 2710
      },
      "arrival": 48780,
      "departure": 48780
    },
    {
      "stop": {
        "id": "2_2711",
        "lat": 48.05658786,
        "lon": -1.66382824,
        "name": "Croix Fleurie",
        "code": 2711
      },
      "arrival": 48900,
      "departure": 48900
    },
    {
      "stop": {
        "id": "2_2712",
        "lat": 48.06366666,
        "lon": -1.66376685,
        "name": "Mail Lancé",
        "code": 2712
      },
      "arrival": 48960,
      "departure": 48960
    },
    {
      "stop": {
        "id": "2_2713",
        "lat": 48.06835652,
        "lon": -1.66575417,
        "name": "Petit Beaulieu",
        "code": 2713
      },
      "arrival": 48960,
      "departure": 48960
    },
    {
      "stop": {
        "id": "2_2714",
        "lat": 48.07719318,
        "lon": -1.66114018,
        "name": "Hil-Bintinais",
        "code": 2714
      },
      "arrival": 49080,
      "departure": 49080
    },
    {
      "stop": {
        "id": "2_1441",
        "lat": 48.08606219,
        "lon": -1.66094033,
        "name": "Triangle",
        "code": 1441
      },
      "arrival": 49200,
      "departure": 49200
    },
    {
      "stop": {
        "id": "2_1534",
        "lat": 48.08831454,
        "lon": -1.67444337,
        "name": "Henri Fréville",
        "code": 1534
      },
      "arrival": 49380,
      "departure": 49380
    }
  ],
  "route": {
    "id": "2_0061",
    "textColor": "FFFFFF",
    "color": "E6396C",
    "description": "Métropolitaine",
    "longName": "Rennes (Henri Fréville) \u003c\u003e Noyal-Châtillon-sur-Seiche / Saint-Erblon",
    "shortName": "61",
    "type": 3,
    "agencyId": "2"
  }
}