{
  "headsign": "4 | Plaine de Baud",
  "stopTimes": [
    {
      "stop": {
        "id": "2_1168",
        "lat": 48.10980866,
        "lon": -1.67882417,
        "name": "République",
        "code": 1168
      },
      "arrival": 19980,
      "departure": 19980
    },
    {
      "stop": {
        "id": "2_1169",
        "lat": 48.10985334,
        "lon": -1.67452094,
        "name": "Musée Beaux Arts",
        "code": 1169
      },
      "arrival": 20040,
      "departure": 20040
    },
    {
      "stop": {
        "id": "2_1170",
        "lat": 48.11003344,
        "lon": -1.66907214,
        "name": "Paul Bert",
        "code": 1170
      },
      "arrival": 20100,
      "departure": 20100
    },
    {
      "stop": {
        "id": "2_1171",
        "lat": 48.11006771,
        "lon": -1.66358483,
        "name": "Pont de Châteaudun",
        "code": 1171
      },
      "arrival": 20160,
      "departure": 20160
    },
    {
      "stop": {
        "id": "2_1172",
        "lat": 48.11007924,
        "lon": -1.65919453,
        "name": "Robidou",
        "code": 1172
      },
      "arrival": 20220,
      "departure": 20220
    },
    {
      "stop": {
        "id": "2_1173",
        "lat": 48.11008942,
        "lon": -1.65614253,
        "name": "Pont de Strasbourg",
        "code": 1173
      },
      "arrival": 20280,
      "departure": 20280
    },
    {
      "stop": {
        "id": "2_1174",
        "lat": 48.11246663,
        "lon": -1.64290057,
        "name": "Plaine de Baud",
        "code": 1174
      },
      "arrival": 20400,
      "departure": 20400
    }
  ],
  "route": {
    "id": "2_0004",
    "textColor": "FFFFFF",
    "color": "6F177E",
    "description": "Majeure",
    "longName": "Beauregard \u003c\u003e Beaulieu Atalante",
    "shortName": "4",
    "type": 3,
    "agencyId": "2"
  }
}