{
  "headsign": "68 | Rennes Villejean-Université",
  "stopTimes": [
    {
      "stop": {
        "id": "2_4507",
        "lat": 48.22177695,
        "lon": -1.80238235,
        "name": "Cheval Blanc",
        "code": 4507
      },
      "arrival": 42000,
      "departure": 42000
    },
    {
      "stop": {
        "id": "2_4508",
        "lat": 48.22450512,
        "lon": -1.8007874,
        "name": "Coualeuc",
        "code": 4508
      },
      "arrival": 42060,
      "departure": 42060
    },
    {
      "stop": {
        "id": "2_4510",
        "lat": 48.22362777,
        "lon": -1.79359835,
        "name": "Prés Verts",
        "code": 4510
      },
      "arrival": 42180,
      "departure": 42180
    },
    {
      "stop": {
        "id": "2_4502",
        "lat": 48.22104867,
        "lon": -1.78874652,
        "name": "Gévezé Mairie",
        "code": 4502
      },
      "arrival": 42240,
      "departure": 42240
    },
    {
      "stop": {
        "id": "2_4504",
        "lat": 48.21830476,
        "lon": -1.78327707,
        "name": "Flume",
        "code": 4504
      },
      "arrival": 42300,
      "departure": 42300
    },
    {
      "stop": {
        "id": "2_4062",
        "lat": 48.17676429,
        "lon": -1.72204091,
        "name": "La Brosse",
        "code": 4062
      },
      "arrival": 42780,
      "departure": 42780
    },
    {
      "stop": {
        "id": "2_3506",
        "lat": 48.15311386,
        "lon": -1.706642,
        "name": "Décoparc",
        "code": 3506
      },
      "arrival": 42960,
      "departure": 42960
    },
    {
      "stop": {
        "id": "2_1492",
        "lat": 48.13384612,
        "lon": -1.69386845,
        "name": "Grand Quartier",
        "code": 1492
      },
      "arrival": 43140,
      "departure": 43140
    },
    {
      "stop": {
        "id": "2_1543",
        "lat": 48.13134643,
        "lon": -1.69183512,
        "name": "Léonard",
        "code": 1543
      },
      "arrival": 43200,
      "departure": 43200
    },
    {
      "stop": {
        "id": "2_1493",
        "lat": 48.12716785,
        "lon": -1.69331907,
        "name": "Lycée Basch",
        "code": 1493
      },
      "arrival": 43260,
      "departure": 43260
    },
    {
      "stop": {
        "id": "2_1529",
        "lat": 48.12118964,
        "lon": -1.70297204,
        "name": "Villejean-Université",
        "code": 1529
      },
      "arrival": 43500,
      "departure": 43500
    }
  ],
  "route": {
    "id": "2_0068",
    "textColor": "1A171B",
    "color": "DDC500",
    "description": "Métropolitaine",
    "longName": "Rennes (Villejean-Université) \u003c\u003e Gévezé",
    "shortName": "68",
    "type": 3,
    "agencyId": "2"
  }
}