{
  "headsign": "68 | Gévezé",
  "stopTimes": [
    {
      "stop": {
        "id": "2_1529",
        "lat": 48.12118964,
        "lon": -1.70297204,
        "name": "Villejean-Université",
        "code": 1529
      },
      "arrival": 43800,
      "departure": 43800
    },
    {
      "stop": {
        "id": "2_1495",
        "lat": 48.12663856,
        "lon": -1.69309309,
        "name": "Lycée Basch",
        "code": 1495
      },
      "arrival": 43980,
      "departure": 43980
    },
    {
      "stop": {
        "id": "2_1537",
        "lat": 48.13157496,
        "lon": -1.69170144,
        "name": "Léonard",
        "code": 1537
      },
      "arrival": 44100,
      "departure": 44100
    },
    {
      "stop": {
        "id": "2_2830",
        "lat": 48.13432722,
        "lon": -1.69446334,
        "name": "Grand Quartier",
        "code": 2830
      },
      "arrival": 44160,
      "departure": 44160
    },
    {
      "stop": {
        "id": "2_3516",
        "lat": 48.15430663,
        "lon": -1.70724683,
        "name": "Décoparc",
        "code": 3516
      },
      "arrival": 44400,
      "departure": 44400
    },
    {
      "stop": {
        "id": "2_2837",
        "lat": 48.17692758,
        "lon": -1.7220151,
        "name": "La Brosse",
        "code": 2837
      },
      "arrival": 44580,
      "departure": 44580
    },
    {
      "stop": {
        "id": "2_4503",
        "lat": 48.21863623,
        "lon": -1.78399508,
        "name": "Flume",
        "code": 4503
      },
      "arrival": 45120,
      "departure": 45120
    },
    {
      "stop": {
        "id": "2_4505",
        "lat": 48.22096598,
        "lon": -1.78811849,
        "name": "Gévezé Mairie",
        "code": 4505
      },
      "arrival": 45120,
      "departure": 45120
    },
    {
      "stop": {
        "id": "2_4511",
        "lat": 48.22396408,
        "lon": -1.79380552,
        "name": "Prés Verts",
        "code": 4511
      },
      "arrival": 45180,
      "departure": 45180
    },
    {
      "stop": {
        "id": "2_4509",
        "lat": 48.22459945,
        "lon": -1.80043882,
        "name": "Coualeuc",
        "code": 4509
      },
      "arrival": 45300,
      "departure": 45300
    },
    {
      "stop": {
        "id": "2_4507",
        "lat": 48.22177695,
        "lon": -1.80238235,
        "name": "Cheval Blanc",
        "code": 4507
      },
      "arrival": 45360,
      "departure": 45360
    }
  ],
  "route": {
    "id": "2_0068",
    "textColor": "1A171B",
    "color": "DDC500",
    "description": "Métropolitaine",
    "longName": "Rennes (Villejean-Université) \u003c\u003e Gévezé",
    "shortName": "68",
    "type": 3,
    "agencyId": "2"
  }
}