{
  "headsign": "81 | Rennes Villejean-Université",
  "stopTimes": [
    {
      "stop": {
        "id": "2_6000",
        "lat": 48.21870667,
        "lon": -1.8933469,
        "name": "Romillé Collège",
        "code": 6000
      },
      "arrival": 39300,
      "departure": 39300
    },
    {
      "stop": {
        "id": "2_6002",
        "lat": 48.21672827,
        "lon": -1.89094337,
        "name": "Frères Aubert",
        "code": 6002
      },
      "arrival": 39360,
      "departure": 39360
    },
    {
      "stop": {
        "id": "2_6004",
        "lat": 48.21538709,
        "lon": -1.89228554,
        "name": "Romillé Mairie",
        "code": 6004
      },
      "arrival": 39480,
      "departure": 39480
    },
    {
      "stop": {
        "id": "2_6006",
        "lat": 48.21234128,
        "lon": -1.89087642,
        "name": "Mettrie Templiers",
        "code": 6006
      },
      "arrival": 39540,
      "departure": 39540
    },
    {
      "stop": {
        "id": "2_4452",
        "lat": 48.18138007,
        "lon": -1.85347313,
        "name": "Croix Simon",
        "code": 4452
      },
      "arrival": 39840,
      "departure": 39840
    },
    {
      "stop": {
        "id": "2_4460",
        "lat": 48.17807468,
        "lon": -1.85281717,
        "name": "La Cour aux Pages",
        "code": 4460
      },
      "arrival": 39900,
      "departure": 39900
    },
    {
      "stop": {
        "id": "2_4453",
        "lat": 48.17601811,
        "lon": -1.85254844,
        "name": "Clayes Centre",
        "code": 4453
      },
      "arrival": 39960,
      "departure": 39960
    },
    {
      "stop": {
        "id": "2_3732",
        "lat": 48.14932288,
        "lon": -1.83903709,
        "name": "Ile des Bois",
        "code": 3732
      },
      "arrival": 40320,
      "departure": 40320
    },
    {
      "stop": {
        "id": "2_3717",
        "lat": 48.15401352,
        "lon": -1.83761056,
        "name": "Maison Neuve",
        "code": 3717
      },
      "arrival": 40380,
      "departure": 40380
    },
    {
      "stop": {
        "id": "2_3715",
        "lat": 48.15376806,
        "lon": -1.83402942,
        "name": "Clos des Cerisiers",
        "code": 3715
      },
      "arrival": 40440,
      "departure": 40440
    },
    {
      "stop": {
        "id": "2_3705",
        "lat": 48.15297271,
        "lon": -1.82975865,
        "name": "Saint-Gilles Centre",
        "code": 3705
      },
      "arrival": 40440,
      "departure": 40440
    },
    {
      "stop": {
        "id": "2_3707",
        "lat": 48.15070786,
        "lon": -1.82521706,
        "name": "Pont aux Moines",
        "code": 3707
      },
      "arrival": 40560,
      "departure": 40560
    },
    {
      "stop": {
        "id": "2_3708",
        "lat": 48.15283954,
        "lon": -1.82071011,
        "name": "Vigne",
        "code": 3708
      },
      "arrival": 40620,
      "departure": 40620
    },
    {
      "stop": {
        "id": "2_3709",
        "lat": 48.15291812,
        "lon": -1.80907719,
        "name": "Fouaye",
        "code": 3709
      },
      "arrival": 40740,
      "departure": 40740
    },
    {
      "stop": {
        "id": "2_3102",
        "lat": 48.15130194,
        "lon": -1.79231921,
        "name": "Pie Neuve",
        "code": 3102
      },
      "arrival": 40860,
      "departure": 40860
    },
    {
      "stop": {
        "id": "2_3103",
        "lat": 48.14925877,
        "lon": -1.78891407,
        "name": "Docteur Léon",
        "code": 3103
      },
      "arrival": 40920,
      "departure": 40920
    },
    {
      "stop": {
        "id": "2_3104",
        "lat": 48.14851135,
        "lon": -1.78489927,
        "name": "Touche Milon",
        "code": 3104
      },
      "arrival": 40920,
      "departure": 40920
    },
    {
      "stop": {
        "id": "2_3119",
        "lat": 48.14754795,
        "lon": -1.78109404,
        "name": "Pinault",
        "code": 3119
      },
      "arrival": 40980,
      "departure": 40980
    },
    {
      "stop": {
        "id": "2_3134",
        "lat": 48.14165529,
        "lon": -1.77056625,
        "name": "Nominoë",
        "code": 3134
      },
      "arrival": 41100,
      "departure": 41100
    },
    {
      "stop": {
        "id": "2_1517",
        "lat": 48.11854026,
        "lon": -1.71363649,
        "name": "Berry",
        "code": 1517
      },
      "arrival": 41460,
      "departure": 41460
    },
    {
      "stop": {
        "id": "2_1520",
        "lat": 48.12050245,
        "lon": -1.70973991,
        "name": "Bourbonnais",
        "code": 1520
      },
      "arrival": 41580,
      "departure": 41580
    },
    {
      "stop": {
        "id": "2_1497",
        "lat": 48.12102411,
        "lon": -1.70300103,
        "name": "Villejean-Université",
        "code": 1497
      },
      "arrival": 41700,
      "departure": 41700
    }
  ],
  "route": {
    "id": "2_0081",
    "textColor": "FFFFFF",
    "color": "0081C6",
    "description": "Métropolitaine",
    "longName": "Rennes (Villejean-Université) \u003c\u003e Clayes / Romillé",
    "shortName": "81",
    "type": 3,
    "agencyId": "2"
  }
}