{
  "headsign": "51 | Rennes Hoche",
  "stopTimes": [
    {
      "stop": {
        "id": "2_2401",
        "lat": 48.17703667,
        "lon": -1.65122928,
        "name": "Champ Devant",
        "code": 2401
      },
      "arrival": 33000,
      "departure": 33000
    },
    {
      "stop": {
        "id": "2_2402",
        "lat": 48.17926699,
        "lon": -1.65112944,
        "name": "Omblais",
        "code": 2402
      },
      "arrival": 33060,
      "departure": 33060
    },
    {
      "stop": {
        "id": "2_2403",
        "lat": 48.18066394,
        "lon": -1.65204781,
        "name": "Brocéliande",
        "code": 2403
      },
      "arrival": 33120,
      "departure": 33120
    },
    {
      "stop": {
        "id": "2_2404",
        "lat": 48.18305535,
        "lon": -1.64603174,
        "name": "Trégor",
        "code": 2404
      },
      "arrival": 33240,
      "departure": 33240
    },
    {
      "stop": {
        "id": "2_2405",
        "lat": 48.18191274,
        "lon": -1.64173916,
        "name": "Betton Mairie",
        "code": 2405
      },
      "arrival": 33300,
      "departure": 33300
    },
    {
      "stop": {
        "id": "2_2406",
        "lat": 48.18119826,
        "lon": -1.6380241,
        "name": "Betton Centre",
        "code": 2406
      },
      "arrival": 33360,
      "departure": 33360
    },
    {
      "stop": {
        "id": "2_2407",
        "lat": 48.18021327,
        "lon": -1.6348781,
        "name": "Haye Renaud Gare",
        "code": 2407
      },
      "arrival": 33420,
      "departure": 33420
    },
    {
      "stop": {
        "id": "2_2408",
        "lat": 48.17623356,
        "lon": -1.63729111,
        "name": "Marronniers",
        "code": 2408
      },
      "arrival": 33480,
      "departure": 33480
    },
    {
      "stop": {
        "id": "2_2409",
        "lat": 48.17240012,
        "lon": -1.63735842,
        "name": "Housset",
        "code": 2409
      },
      "arrival": 33540,
      "departure": 33540
    },
    {
      "stop": {
        "id": "2_2410",
        "lat": 48.17135339,
        "lon": -1.64196927,
        "name": "Enseigne Abbaye",
        "code": 2410
      },
      "arrival": 33600,
      "departure": 33600
    },
    {
      "stop": {
        "id": "2_2411",
        "lat": 48.16179617,
        "lon": -1.64775716,
        "name": "Betton Vallée",
        "code": 2411
      },
      "arrival": 33720,
      "departure": 33720
    },
    {
      "stop": {
        "id": "2_9200",
        "lat": 48.14667941,
        "lon": -1.656969,
        "name": "Maison Blanche (provisoire)",
        "code": 9200
      },
      "arrival": 34260,
      "departure": 34260
    },
    {
      "stop": {
        "id": "2_1485",
        "lat": 48.13797172,
        "lon": -1.65873598,
        "name": "Saint-Laurent",
        "code": 1485
      },
      "arrival": 34380,
      "departure": 34380
    },
    {
      "stop": {
        "id": "2_1486",
        "lat": 48.13482757,
        "lon": -1.65983208,
        "name": "Hôtel de Région",
        "code": 1486
      },
      "arrival": 34440,
      "departure": 34440
    },
    {
      "stop": {
        "id": "2_1487",
        "lat": 48.13141312,
        "lon": -1.66229111,
        "name": "Patton Gast",
        "code": 1487
      },
      "arrival": 34560,
      "departure": 34560
    },
    {
      "stop": {
        "id": "2_1260",
        "lat": 48.12670281,
        "lon": -1.66538386,
        "name": "Gros Chêne",
        "code": 1260
      },
      "arrival": 34620,
      "departure": 34620
    },
    {
      "stop": {
        "id": "2_1261",
        "lat": 48.12528168,
        "lon": -1.66666402,
        "name": "Volney",
        "code": 1261
      },
      "arrival": 34680,
      "departure": 34680
    },
    {
      "stop": {
        "id": "2_1262",
        "lat": 48.12147137,
        "lon": -1.67091812,
        "name": "Jules Ferry",
        "code": 1262
      },
      "arrival": 34800,
      "departure": 34800
    },
    {
      "stop": {
        "id": "2_1011",
        "lat": 48.11830509,
        "lon": -1.67120349,
        "name": "Fac de Droit",
        "code": 1011
      },
      "arrival": 34860,
      "departure": 34860
    },
    {
      "stop": {
        "id": "2_1606",
        "lat": 48.11563108,
        "lon": -1.67670645,
        "name": "Hoche",
        "code": 1606
      },
      "arrival": 34920,
      "departure": 34920
    }
  ],
  "route": {
    "id": "2_0051",
    "textColor": "FFFFFF",
    "color": "93007C",
    "description": "Métropolitaine",
    "longName": "Rennes (Hoche) \u003c\u003e Betton (Champ Devant)",
    "shortName": "51",
    "type": 3,
    "agencyId": "2"
  }
}