{
  "headsign": "11 | ZI Ouest",
  "stopTimes": [
    {
      "stop": {
        "id": "2_1639",
        "lat": 48.088146,
        "lon": -1.644513,
        "name": "La Poterie",
        "code": 1639
      },
      "arrival": 62040,
      "departure": 62040
    },
    {
      "stop": {
        "id": "2_1066",
        "lat": 48.087788,
        "lon": -1.638596,
        "name": "Monnet",
        "code": 1066
      },
      "arrival": 62160,
      "departure": 62160
    },
    {
      "stop": {
        "id": "2_1067",
        "lat": 48.089455,
        "lon": -1.635281,
        "name": "Bourgueil",
        "code": 1067
      },
      "arrival": 62160,
      "departure": 62160
    },
    {
      "stop": {
        "id": "2_1068",
        "lat": 48.092067,
        "lon": -1.636471,
        "name": "Gohier",
        "code": 1068
      },
      "arrival": 62280,
      "departure": 62280
    },
    {
      "stop": {
        "id": "2_1069",
        "lat": 48.092756,
        "lon": -1.63962,
        "name": "Ronceray",
        "code": 1069
      },
      "arrival": 62280,
      "departure": 62280
    },
    {
      "stop": {
        "id": "2_1070",
        "lat": 48.094492,
        "lon": -1.637889,
        "name": "CARSAT",
        "code": 1070
      },
      "arrival": 62340,
      "departure": 62340
    },
    {
      "stop": {
        "id": "2_1636",
        "lat": 48.095933,
        "lon": -1.637156,
        "name": "Haut Sancé",
        "code": 1636
      },
      "arrival": 62400,
      "departure": 62400
    },
    {
      "stop": {
        "id": "2_1251",
        "lat": 48.097042,
        "lon": -1.629126,
        "name": "Veyettes",
        "code": 1251
      },
      "arrival": 62580,
      "departure": 62580
    },
    {
      "stop": {
        "id": "2_3014",
        "lat": 48.098087,
        "lon": -1.622908,
        "name": "Breillou",
        "code": 3014
      },
      "arrival": 62760,
      "departure": 62760
    },
    {
      "stop": {
        "id": "2_2035",
        "lat": 48.09967,
        "lon": -1.620857,
        "name": "Forum",
        "code": 2035
      },
      "arrival": 62820,
      "departure": 62820
    },
    {
      "stop": {
        "id": "2_2033",
        "lat": 48.10133,
        "lon": -1.623467,
        "name": "Bas Village",
        "code": 2033
      },
      "arrival": 62880,
      "departure": 62880
    },
    {
      "stop": {
        "id": "2_2061",
        "lat": 48.106515,
        "lon": -1.621243,
        "name": "Charmilles",
        "code": 2061
      },
      "arrival": 63000,
      "departure": 63000
    },
    {
      "stop": {
        "id": "2_2102",
        "lat": 48.106097,
        "lon": -1.625877,
        "name": "Erbonière",
        "code": 2102
      },
      "arrival": 63060,
      "departure": 63060
    },
    {
      "stop": {
        "id": "2_2122",
        "lat": 48.104575,
        "lon": -1.630458,
        "name": "Buisson",
        "code": 2122
      },
      "arrival": 63120,
      "departure": 63120
    },
    {
      "stop": {
        "id": "2_1629",
        "lat": 48.104031,
        "lon": -1.635026,
        "name": "Pré Garel",
        "code": 1629
      },
      "arrival": 63180,
      "departure": 63180
    },
    {
      "stop": {
        "id": "2_1208",
        "lat": 48.104165,
        "lon": -1.637787,
        "name": "Saint-Saëns",
        "code": 1208
      },
      "arrival": 63240,
      "departure": 63240
    },
    {
      "stop": {
        "id": "2_1209",
        "lat": 48.105033,
        "lon": -1.64458,
        "name": "Pavie",
        "code": 1209
      },
      "arrival": 63300,
      "departure": 63300
    },
    {
      "stop": {
        "id": "2_1210",
        "lat": 48.10431,
        "lon": -1.64971,
        "name": "Cimetière de l\u0027Est",
        "code": 1210
      },
      "arrival": 63360,
      "departure": 63360
    },
    {
      "stop": {
        "id": "2_1245",
        "lat": 48.103213,
        "lon": -1.652536,
        "name": "Serpette",
        "code": 1245
      },
      "arrival": 63420,
      "departure": 63420
    },
    {
      "stop": {
        "id": "2_1212",
        "lat": 48.101949,
        "lon": -1.656538,
        "name": "Mouézy",
        "code": 1212
      },
      "arrival": 63480,
      "departure": 63480
    },
    {
      "stop": {
        "id": "2_1213",
        "lat": 48.102902,
        "lon": -1.661403,
        "name": "Croix Saint-Hélier",
        "code": 1213
      },
      "arrival": 63600,
      "departure": 63600
    },
    {
      "stop": {
        "id": "2_1057",
        "lat": 48.104747,
        "lon": -1.667176,
        "name": "Laënnec",
        "code": 1057
      },
      "arrival": 63720,
      "departure": 63720
    },
    {
      "stop": {
        "id": "2_1056",
        "lat": 48.103956,
        "lon": -1.673185,
        "name": "Gares",
        "code": 1056
      },
      "arrival": 63840,
      "departure": 63840
    },
    {
      "stop": {
        "id": "2_1055",
        "lat": 48.106057,
        "lon": -1.67401,
        "name": "Champs Libres",
        "code": 1055
      },
      "arrival": 63960,
      "departure": 63960
    },
    {
      "stop": {
        "id": "2_1054",
        "lat": 48.107564,
        "lon": -1.675176,
        "name": "Liberté TNB",
        "code": 1054
      },
      "arrival": 64080,
      "departure": 64080
    },
    {
      "stop": {
        "id": "2_1214",
        "lat": 48.109932,
        "lon": -1.679644,
        "name": "République",
        "code": 1214
      },
      "arrival": 64320,
      "departure": 64320
    },
    {
      "stop": {
        "id": "2_1051",
        "lat": 48.109888,
        "lon": -1.68328,
        "name": "Place de Bretagne",
        "code": 1051
      },
      "arrival": 64380,
      "departure": 64380
    },
    {
      "stop": {
        "id": "2_1216",
        "lat": 48.109176,
        "lon": -1.690514,
        "name": "Le Mail",
        "code": 1216
      },
      "arrival": 64500,
      "departure": 64500
    },
    {
      "stop": {
        "id": "2_1217",
        "lat": 48.108252,
        "lon": -1.694511,
        "name": "Chèques Postaux",
        "code": 1217
      },
      "arrival": 64560,
      "departure": 64560
    },
    {
      "stop": {
        "id": "2_1218",
        "lat": 48.109099,
        "lon": -1.697997,
        "name": "Guilloux Lorient",
        "code": 1218
      },
      "arrival": 64680,
      "departure": 64680
    },
    {
      "stop": {
        "id": "2_1219",
        "lat": 48.108274,
        "lon": -1.703743,
        "name": "Papeteries",
        "code": 1219
      },
      "arrival": 64800,
      "departure": 64800
    },
    {
      "stop": {
        "id": "2_1220",
        "lat": 48.109162,
        "lon": -1.706366,
        "name": "Kerviler",
        "code": 1220
      },
      "arrival": 64860,
      "departure": 64860
    },
    {
      "stop": {
        "id": "2_1221",
        "lat": 48.108871,
        "lon": -1.710766,
        "name": "Géniaux",
        "code": 1221
      },
      "arrival": 64980,
      "departure": 64980
    },
    {
      "stop": {
        "id": "2_1222",
        "lat": 48.108107,
        "lon": -1.714065,
        "name": "Stade Rennais",
        "code": 1222
      },
      "arrival": 65040,
      "departure": 65040
    },
    {
      "stop": {
        "id": "2_1223",
        "lat": 48.106212,
        "lon": -1.723891,
        "name": "Le Hô",
        "code": 1223
      },
      "arrival": 65280,
      "departure": 65280
    },
    {
      "stop": {
        "id": "2_1224",
        "lat": 48.102975,
        "lon": -1.7234,
        "name": "Robinot de St-Cyr",
        "code": 1224
      },
      "arrival": 65340,
      "departure": 65340
    },
    {
      "stop": {
        "id": "2_1225",
        "lat": 48.10213,
        "lon": -1.727062,
        "name": "Jardin Moderne",
        "code": 1225
      },
      "arrival": 65400,
      "departure": 65400
    },
    {
      "stop": {
        "id": "2_1226",
        "lat": 48.101258,
        "lon": -1.731769,
        "name": "Servigné",
        "code": 1226
      },
      "arrival": 65460,
      "departure": 65460
    },
    {
      "stop": {
        "id": "2_3768",
        "lat": 48.104219,
        "lon": -1.735894,
        "name": "Marais",
        "code": 3768
      },
      "arrival": 65580,
      "departure": 65580
    },
    {
      "stop": {
        "id": "2_3753",
        "lat": 48.10575,
        "lon": -1.740014,
        "name": "Trois Marches",
        "code": 3753
      },
      "arrival": 65640,
      "departure": 65640
    },
    {
      "stop": {
        "id": "2_3751",
        "lat": 48.107431,
        "lon": -1.739281,
        "name": "ZI Ouest",
        "code": 3751
      },
      "arrival": 65700,
      "departure": 65700
    }
  ],
  "route": {
    "id": "2_0011",
    "textColor": "FFFFFF",
    "color": "DD84B1",
    "description": "Urbaine",
    "longName": "ZI Ouest / Stade Rennais \u003c\u003e Saint-Saëns / La Poterie",
    "shortName": "11",
    "type": 3,
    "agencyId": "2"
  }
}