{
  "headsign": "67 | Rennes République",
  "stopTimes": [
    {
      "stop": {
        "id": "2_4151",
        "lat": 48.10975091,
        "lon": -1.48097238,
        "name": "Anjou",
        "code": 4151
      },
      "arrival": 36600,
      "departure": 36600
    },
    {
      "stop": {
        "id": "2_4152",
        "lat": 48.10905522,
        "lon": -1.47841022,
        "name": "Mainguère",
        "code": 4152
      },
      "arrival": 36720,
      "departure": 36720
    },
    {
      "stop": {
        "id": "2_4153",
        "lat": 48.10706252,
        "lon": -1.47914293,
        "name": "Saules",
        "code": 4153
      },
      "arrival": 36720,
      "departure": 36720
    },
    {
      "stop": {
        "id": "2_4154",
        "lat": 48.10749969,
        "lon": -1.48292686,
        "name": "Provence",
        "code": 4154
      },
      "arrival": 36780,
      "departure": 36780
    },
    {
      "stop": {
        "id": "2_4155",
        "lat": 48.10758915,
        "lon": -1.48614508,
        "name": "Destiers",
        "code": 4155
      },
      "arrival": 36840,
      "departure": 36840
    },
    {
      "stop": {
        "id": "2_4156",
        "lat": 48.10941494,
        "lon": -1.50301501,
        "name": "Pâtis",
        "code": 4156
      },
      "arrival": 36960,
      "departure": 36960
    },
    {
      "stop": {
        "id": "2_4162",
        "lat": 48.10839195,
        "lon": -1.5077338,
        "name": "Turbanière",
        "code": 4162
      },
      "arrival": 37020,
      "departure": 37020
    },
    {
      "stop": {
        "id": "2_2085",
        "lat": 48.11613432,
        "lon": -1.58235705,
        "name": "Champelé",
        "code": 2085
      },
      "arrival": 37560,
      "departure": 37560
    },
    {
      "stop": {
        "id": "2_2038",
        "lat": 48.11496603,
        "lon": -1.59060111,
        "name": "Haut Grippé",
        "code": 2038
      },
      "arrival": 37560,
      "departure": 37560
    },
    {
      "stop": {
        "id": "2_2089",
        "lat": 48.11357205,
        "lon": -1.59052033,
        "name": "Rigourdière",
        "code": 2089
      },
      "arrival": 37620,
      "departure": 37620
    },
    {
      "stop": {
        "id": "2_2039",
        "lat": 48.11441474,
        "lon": -1.60044452,
        "name": "Bordage",
        "code": 2039
      },
      "arrival": 37740,
      "departure": 37740
    },
    {
      "stop": {
        "id": "2_2057",
        "lat": 48.1138863,
        "lon": -1.60325405,
        "name": "Cesson Gare",
        "code": 2057
      },
      "arrival": 37800,
      "departure": 37800
    },
    {
      "stop": {
        "id": "2_2058",
        "lat": 48.11260658,
        "lon": -1.60716704,
        "name": "Peupliers",
        "code": 2058
      },
      "arrival": 37800,
      "departure": 37800
    },
    {
      "stop": {
        "id": "2_2059",
        "lat": 48.1092987,
        "lon": -1.6090051,
        "name": "Monniais",
        "code": 2059
      },
      "arrival": 37920,
      "departure": 37920
    },
    {
      "stop": {
        "id": "2_2060",
        "lat": 48.10779161,
        "lon": -1.61466557,
        "name": "Rond Point de Bray",
        "code": 2060
      },
      "arrival": 37980,
      "departure": 37980
    },
    {
      "stop": {
        "id": "2_2016",
        "lat": 48.11418172,
        "lon": -1.62194938,
        "name": "Taillis",
        "code": 2016
      },
      "arrival": 38100,
      "departure": 38100
    },
    {
      "stop": {
        "id": "2_2017",
        "lat": 48.11408545,
        "lon": -1.63036724,
        "name": "Champs Péans",
        "code": 2017
      },
      "arrival": 38160,
      "departure": 38160
    },
    {
      "stop": {
        "id": "2_1609",
        "lat": 48.11419402,
        "lon": -1.63648162,
        "name": "Tournebride",
        "code": 1609
      },
      "arrival": 38220,
      "departure": 38220
    },
    {
      "stop": {
        "id": "2_1528",
        "lat": 48.11399429,
        "lon": -1.64435828,
        "name": "Piletière",
        "code": 1528
      },
      "arrival": 38280,
      "departure": 38280
    },
    {
      "stop": {
        "id": "2_1527",
        "lat": 48.11433481,
        "lon": -1.64920718,
        "name": "Moulin de Joué",
        "code": 1527
      },
      "arrival": 38340,
      "departure": 38340
    },
    {
      "stop": {
        "id": "2_1526",
        "lat": 48.11479096,
        "lon": -1.65317793,
        "name": "Hôpital Régnier",
        "code": 1526
      },
      "arrival": 38400,
      "departure": 38400
    },
    {
      "stop": {
        "id": "2_1474",
        "lat": 48.11351559,
        "lon": -1.65671606,
        "name": "Durafour Strasbourg",
        "code": 1474
      },
      "arrival": 38460,
      "departure": 38460
    },
    {
      "stop": {
        "id": "2_1163",
        "lat": 48.1101066,
        "lon": -1.66054614,
        "name": "Robidou",
        "code": 1163
      },
      "arrival": 38580,
      "departure": 38580
    },
    {
      "stop": {
        "id": "2_1556",
        "lat": 48.10943229,
        "lon": -1.67763328,
        "name": "République",
        "code": 1556
      },
      "arrival": 38820,
      "departure": 38820
    }
  ],
  "route": {
    "id": "2_0067",
    "textColor": "FFFFFF",
    "color": "E0083B",
    "description": "Métropolitaine",
    "longName": "Rennes (République) \u003c\u003e Cesson-Sévigné / Brécé",
    "shortName": "67",
    "type": 3,
    "agencyId": "2"
  }
}