{
  "headsign": "5 | Lycée Bréquigny",
  "stopTimes": [
    {
      "stop": {
        "id": "2_1252",
        "lat": 48.138782,
        "lon": -1.66602,
        "name": "Patton",
        "code": 1252
      },
      "arrival": 63780,
      "departure": 63780
    },
    {
      "stop": {
        "id": "2_1253",
        "lat": 48.136711,
        "lon": -1.667527,
        "name": "Monts d\u0027Arrée",
        "code": 1253
      },
      "arrival": 63840,
      "departure": 63840
    },
    {
      "stop": {
        "id": "2_1254",
        "lat": 48.136796,
        "lon": -1.671078,
        "name": "Neruda",
        "code": 1254
      },
      "arrival": 63900,
      "departure": 63900
    },
    {
      "stop": {
        "id": "2_1255",
        "lat": 48.134477,
        "lon": -1.673097,
        "name": "Condate",
        "code": 1255
      },
      "arrival": 63960,
      "departure": 63960
    },
    {
      "stop": {
        "id": "2_1256",
        "lat": 48.132591,
        "lon": -1.671614,
        "name": "Bellangerais",
        "code": 1256
      },
      "arrival": 64020,
      "departure": 64020
    },
    {
      "stop": {
        "id": "2_1257",
        "lat": 48.13267,
        "lon": -1.667599,
        "name": "Morbihan",
        "code": 1257
      },
      "arrival": 64080,
      "departure": 64080
    },
    {
      "stop": {
        "id": "2_1258",
        "lat": 48.130788,
        "lon": -1.663953,
        "name": "Houx Cité U",
        "code": 1258
      },
      "arrival": 64140,
      "departure": 64140
    },
    {
      "stop": {
        "id": "2_1259",
        "lat": 48.129452,
        "lon": -1.663592,
        "name": "Rochester",
        "code": 1259
      },
      "arrival": 64200,
      "departure": 64200
    },
    {
      "stop": {
        "id": "2_1260",
        "lat": 48.126715,
        "lon": -1.665432,
        "name": "Gros Chêne",
        "code": 1260
      },
      "arrival": 64260,
      "departure": 64260
    },
    {
      "stop": {
        "id": "2_1261",
        "lat": 48.125322,
        "lon": -1.666645,
        "name": "Volney",
        "code": 1261
      },
      "arrival": 64320,
      "departure": 64320
    },
    {
      "stop": {
        "id": "2_1262",
        "lat": 48.121471,
        "lon": -1.67097,
        "name": "Jules Ferry",
        "code": 1262
      },
      "arrival": 64440,
      "departure": 64440
    },
    {
      "stop": {
        "id": "2_1263",
        "lat": 48.119629,
        "lon": -1.674316,
        "name": "Rectorat",
        "code": 1263
      },
      "arrival": 64500,
      "departure": 64500
    },
    {
      "stop": {
        "id": "2_1027",
        "lat": 48.117163,
        "lon": -1.677351,
        "name": "Hôtel Dieu",
        "code": 1027
      },
      "arrival": 64620,
      "departure": 64620
    },
    {
      "stop": {
        "id": "2_1014",
        "lat": 48.113739,
        "lon": -1.679038,
        "name": "Sainte-Anne",
        "code": 1014
      },
      "arrival": 64860,
      "departure": 64860
    },
    {
      "stop": {
        "id": "2_1015",
        "lat": 48.11252,
        "lon": -1.680352,
        "name": "Champ Jacquet",
        "code": 1015
      },
      "arrival": 64920,
      "departure": 64920
    },
    {
      "stop": {
        "id": "2_1024",
        "lat": 48.109977,
        "lon": -1.680268,
        "name": "République Nemours",
        "code": 1024
      },
      "arrival": 65100,
      "departure": 65100
    },
    {
      "stop": {
        "id": "2_1017",
        "lat": 48.108415,
        "lon": -1.680213,
        "name": "Les Halles",
        "code": 1017
      },
      "arrival": 65160,
      "departure": 65160
    },
    {
      "stop": {
        "id": "2_1018",
        "lat": 48.106204,
        "lon": -1.680999,
        "name": "Plélo Colombier",
        "code": 1018
      },
      "arrival": 65280,
      "departure": 65280
    },
    {
      "stop": {
        "id": "2_1019",
        "lat": 48.105084,
        "lon": -1.684731,
        "name": "Cité Judiciaire",
        "code": 1019
      },
      "arrival": 65400,
      "departure": 65400
    },
    {
      "stop": {
        "id": "2_1264",
        "lat": 48.10206,
        "lon": -1.684417,
        "name": "Pont de Nantes",
        "code": 1264
      },
      "arrival": 65520,
      "departure": 65520
    },
    {
      "stop": {
        "id": "2_1265",
        "lat": 48.099809,
        "lon": -1.687123,
        "name": "Foyer Rennais",
        "code": 1265
      },
      "arrival": 65580,
      "departure": 65580
    },
    {
      "stop": {
        "id": "2_1266",
        "lat": 48.09714,
        "lon": -1.689057,
        "name": "Mermoz",
        "code": 1266
      },
      "arrival": 65700,
      "departure": 65700
    },
    {
      "stop": {
        "id": "2_2219",
        "lat": 48.09408,
        "lon": -1.690642,
        "name": "Pilate",
        "code": 2219
      },
      "arrival": 65760,
      "departure": 65760
    },
    {
      "stop": {
        "id": "2_2218",
        "lat": 48.092405,
        "lon": -1.69168,
        "name": "Saint-Yves",
        "code": 2218
      },
      "arrival": 65820,
      "departure": 65820
    },
    {
      "stop": {
        "id": "2_2228",
        "lat": 48.089797,
        "lon": -1.693146,
        "name": "Pigeon Blanc",
        "code": 2228
      },
      "arrival": 65940,
      "departure": 65940
    },
    {
      "stop": {
        "id": "2_2216",
        "lat": 48.08731,
        "lon": -1.69473,
        "name": "Pressoirs",
        "code": 2216
      },
      "arrival": 66000,
      "departure": 66000
    },
    {
      "stop": {
        "id": "2_1267",
        "lat": 48.085707,
        "lon": -1.693903,
        "name": "Félix Eboué",
        "code": 1267
      },
      "arrival": 66060,
      "departure": 66060
    },
    {
      "stop": {
        "id": "2_1268",
        "lat": 48.083743,
        "lon": -1.693637,
        "name": "Boberil",
        "code": 1268
      },
      "arrival": 66180,
      "departure": 66180
    },
    {
      "stop": {
        "id": "2_1269",
        "lat": 48.084081,
        "lon": -1.692043,
        "name": "Lycée Bréquigny",
        "code": 1269
      },
      "arrival": 66240,
      "departure": 66240
    }
  ],
  "route": {
    "id": "2_0005",
    "textColor": "FFFFFF",
    "color": "EE7F01",
    "description": "Majeure",
    "longName": "Patton \u003c\u003e Lycée Bréquigny",
    "shortName": "5",
    "type": 3,
    "agencyId": "2"
  }
}