{
  "headsign": "68 | Rennes Villejean-Université",
  "stopTimes": [
    {
      "stop": {
        "id": "2_4507",
        "lat": 48.22177695,
        "lon": -1.80238235,
        "name": "Cheval Blanc",
        "code": 4507
      },
      "arrival": 32700,
      "departure": 32700
    },
    {
      "stop": {
        "id": "2_4508",
        "lat": 48.22450512,
        "lon": -1.8007874,
        "name": "Coualeuc",
        "code": 4508
      },
      "arrival": 32760,
      "departure": 32760
    },
    {
      "stop": {
        "id": "2_4510",
        "lat": 48.22362777,
        "lon": -1.79359835,
        "name": "Prés Verts",
        "code": 4510
      },
      "arrival": 32880,
      "departure": 32880
    },
    {
      "stop": {
        "id": "2_4502",
        "lat": 48.22104867,
        "lon": -1.78874652,
        "name": "Gévezé Mairie",
        "code": 4502
      },
      "arrival": 32940,
      "departure": 32940
    },
    {
      "stop": {
        "id": "2_4504",
        "lat": 48.21830476,
        "lon": -1.78327707,
        "name": "Flume",
        "code": 4504
      },
      "arrival": 33000,
      "departure": 33000
    },
    {
      "stop": {
        "id": "2_4062",
        "lat": 48.17676429,
        "lon": -1.72204091,
        "name": "La Brosse",
        "code": 4062
      },
      "arrival": 33480,
      "departure": 33480
    },
    {
      "stop": {
        "id": "2_3506",
        "lat": 48.15311386,
        "lon": -1.706642,
        "name": "Décoparc",
        "code": 3506
      },
      "arrival": 33720,
      "departure": 33720
    },
    {
      "stop": {
        "id": "2_1492",
        "lat": 48.13384612,
        "lon": -1.69386845,
        "name": "Grand Quartier",
        "code": 1492
      },
      "arrival": 33900,
      "departure": 33900
    },
    {
      "stop": {
        "id": "2_1543",
        "lat": 48.13134643,
        "lon": -1.69183512,
        "name": "Léonard",
        "code": 1543
      },
      "arrival": 33960,
      "departure": 33960
    },
    {
      "stop": {
        "id": "2_1493",
        "lat": 48.12716785,
        "lon": -1.69331907,
        "name": "Lycée Basch",
        "code": 1493
      },
      "arrival": 34080,
      "departure": 34080
    },
    {
      "stop": {
        "id": "2_1529",
        "lat": 48.12118964,
        "lon": -1.70297204,
        "name": "Villejean-Université",
        "code": 1529
      },
      "arrival": 34320,
      "departure": 34320
    }
  ],
  "route": {
    "id": "2_0068",
    "textColor": "1A171B",
    "color": "DDC500",
    "description": "Métropolitaine",
    "longName": "Rennes (Villejean-Université) \u003c\u003e Gévezé",
    "shortName": "68",
    "type": 3,
    "agencyId": "2"
  }
}