{
  "headsign": "34 | ZA Saint-Sulpice",
  "stopTimes": [
    {
      "stop": {
        "id": "2_3028",
        "lat": 48.08547293,
        "lon": -1.60397916,
        "name": "Rosa Parks",
        "code": 3028
      },
      "arrival": 60000,
      "departure": 60000
    },
    {
      "stop": {
        "id": "2_3027",
        "lat": 48.08576141,
        "lon": -1.60813614,
        "name": "Touche Annette",
        "code": 3027
      },
      "arrival": 60060,
      "departure": 60060
    },
    {
      "stop": {
        "id": "2_3032",
        "lat": 48.08517236,
        "lon": -1.61074847,
        "name": "Gériatrie",
        "code": 3032
      },
      "arrival": 60120,
      "departure": 60120
    },
    {
      "stop": {
        "id": "2_3002",
        "lat": 48.08572691,
        "lon": -1.61407942,
        "name": "Deux Ruisseaux",
        "code": 3002
      },
      "arrival": 60180,
      "departure": 60180
    },
    {
      "stop": {
        "id": "2_3037",
        "lat": 48.08757816,
        "lon": -1.61672885,
        "name": "Chantepie Eglise",
        "code": 3037
      },
      "arrival": 60240,
      "departure": 60240
    },
    {
      "stop": {
        "id": "2_3006",
        "lat": 48.08845908,
        "lon": -1.61922326,
        "name": "Chantepie Mairie",
        "code": 3006
      },
      "arrival": 60300,
      "departure": 60300
    },
    {
      "stop": {
        "id": "2_3036",
        "lat": 48.09068404,
        "lon": -1.61884439,
        "name": "Landes",
        "code": 3036
      },
      "arrival": 60360,
      "departure": 60360
    },
    {
      "stop": {
        "id": "2_3034",
        "lat": 48.09853082,
        "lon": -1.6213966,
        "name": "Breillou",
        "code": 3034
      },
      "arrival": 60480,
      "departure": 60480
    },
    {
      "stop": {
        "id": "2_2035",
        "lat": 48.09961861,
        "lon": -1.62094448,
        "name": "Forum",
        "code": 2035
      },
      "arrival": 60480,
      "departure": 60480
    },
    {
      "stop": {
        "id": "2_2033",
        "lat": 48.10138971,
        "lon": -1.62358898,
        "name": "Bas Village",
        "code": 2033
      },
      "arrival": 60540,
      "departure": 60540
    },
    {
      "stop": {
        "id": "2_2061",
        "lat": 48.10650335,
        "lon": -1.62127777,
        "name": "Charmilles",
        "code": 2061
      },
      "arrival": 60600,
      "departure": 60600
    },
    {
      "stop": {
        "id": "2_2062",
        "lat": 48.10782767,
        "lon": -1.61408468,
        "name": "Rond Point de Bray",
        "code": 2062
      },
      "arrival": 60660,
      "departure": 60660
    },
    {
      "stop": {
        "id": "2_2063",
        "lat": 48.1087734,
        "lon": -1.6096273,
        "name": "Monniais",
        "code": 2063
      },
      "arrival": 60720,
      "departure": 60720
    },
    {
      "stop": {
        "id": "2_2064",
        "lat": 48.11257019,
        "lon": -1.60740614,
        "name": "Peupliers",
        "code": 2064
      },
      "arrival": 60840,
      "departure": 60840
    },
    {
      "stop": {
        "id": "2_2065",
        "lat": 48.11382762,
        "lon": -1.60314125,
        "name": "Cesson Gare",
        "code": 2065
      },
      "arrival": 60900,
      "departure": 60900
    },
    {
      "stop": {
        "id": "2_2022",
        "lat": 48.11467541,
        "lon": -1.60958194,
        "name": "Place Sévigné",
        "code": 2022
      },
      "arrival": 60960,
      "departure": 60960
    },
    {
      "stop": {
        "id": "2_2023",
        "lat": 48.11561362,
        "lon": -1.60698111,
        "name": "Vilaine",
        "code": 2023
      },
      "arrival": 61020,
      "departure": 61020
    },
    {
      "stop": {
        "id": "2_2066",
        "lat": 48.11834687,
        "lon": -1.60420821,
        "name": "Cesson Mairie",
        "code": 2066
      },
      "arrival": 61140,
      "departure": 61140
    },
    {
      "stop": {
        "id": "2_2067",
        "lat": 48.12037328,
        "lon": -1.60240598,
        "name": "Cesson Piscine",
        "code": 2067
      },
      "arrival": 61200,
      "departure": 61200
    },
    {
      "stop": {
        "id": "2_2068",
        "lat": 48.12317362,
        "lon": -1.60178843,
        "name": "Métairies Chalotais",
        "code": 2068
      },
      "arrival": 61260,
      "departure": 61260
    },
    {
      "stop": {
        "id": "2_2008",
        "lat": 48.12358605,
        "lon": -1.60438229,
        "name": "La Coulée",
        "code": 2008
      },
      "arrival": 61320,
      "departure": 61320
    },
    {
      "stop": {
        "id": "2_2009",
        "lat": 48.12352951,
        "lon": -1.60813346,
        "name": "Fontenelle",
        "code": 2009
      },
      "arrival": 61320,
      "departure": 61320
    },
    {
      "stop": {
        "id": "2_2074",
        "lat": 48.12353242,
        "lon": -1.611284,
        "name": "Mare Pavée",
        "code": 2074
      },
      "arrival": 61380,
      "departure": 61380
    },
    {
      "stop": {
        "id": "2_2049",
        "lat": 48.12439647,
        "lon": -1.61407898,
        "name": "Les Lacs",
        "code": 2049
      },
      "arrival": 61440,
      "departure": 61440
    },
    {
      "stop": {
        "id": "2_2043",
        "lat": 48.12431543,
        "lon": -1.61844738,
        "name": "Cormier",
        "code": 2043
      },
      "arrival": 61500,
      "departure": 61500
    },
    {
      "stop": {
        "id": "2_2044",
        "lat": 48.1273076,
        "lon": -1.62420233,
        "name": "Belle Fontaine",
        "code": 2044
      },
      "arrival": 61620,
      "departure": 61620
    },
    {
      "stop": {
        "id": "2_2045",
        "lat": 48.12734821,
        "lon": -1.62821813,
        "name": "Clos Courtel",
        "code": 2045
      },
      "arrival": 61680,
      "departure": 61680
    },
    {
      "stop": {
        "id": "2_2121",
        "lat": 48.13034917,
        "lon": -1.63135124,
        "name": "Longs Champs Est",
        "code": 2121
      },
      "arrival": 61800,
      "departure": 61800
    },
    {
      "stop": {
        "id": "2_1631",
        "lat": 48.13235258,
        "lon": -1.63615194,
        "name": "ZA Saint-Sulpice",
        "code": 1631
      },
      "arrival": 61920,
      "departure": 61920
    }
  ],
  "route": {
    "id": "2_0034",
    "textColor": "E2001A",
    "color": "FFF164",
    "description": "Inter-quartiers",
    "longName": "Chantepie (Rosa Parks) \u003c\u003e ZAC Saint-Sulpice",
    "shortName": "34",
    "type": 3,
    "agencyId": "2"
  }
}