{
  "headsign": "31 | Cesson-Sévigné Base de Loisirs",
  "stopTimes": [
    {
      "stop": {
        "id": "2_1190",
        "lat": 48.11740687,
        "lon": -1.70825224,
        "name": "Villejean-Churchill",
        "code": 1190
      },
      "arrival": 53100,
      "departure": 53100
    },
    {
      "stop": {
        "id": "2_1191",
        "lat": 48.11557373,
        "lon": -1.70472339,
        "name": "Languedoc",
        "code": 1191
      },
      "arrival": 53160,
      "departure": 53160
    },
    {
      "stop": {
        "id": "2_1188",
        "lat": 48.11498492,
        "lon": -1.70208633,
        "name": "La Salle",
        "code": 1188
      },
      "arrival": 53220,
      "departure": 53220
    },
    {
      "stop": {
        "id": "2_1193",
        "lat": 48.11377696,
        "lon": -1.6980212,
        "name": "Maison Diocésaine",
        "code": 1193
      },
      "arrival": 53280,
      "departure": 53280
    },
    {
      "stop": {
        "id": "2_1094",
        "lat": 48.11309647,
        "lon": -1.69338394,
        "name": "Brest Verdun",
        "code": 1094
      },
      "arrival": 53400,
      "departure": 53400
    },
    {
      "stop": {
        "id": "2_1095",
        "lat": 48.11646144,
        "lon": -1.69082908,
        "name": "La Touche",
        "code": 1095
      },
      "arrival": 53460,
      "departure": 53460
    },
    {
      "stop": {
        "id": "2_1194",
        "lat": 48.1182104,
        "lon": -1.68720155,
        "name": "Anatole France",
        "code": 1194
      },
      "arrival": 53580,
      "departure": 53580
    },
    {
      "stop": {
        "id": "2_1195",
        "lat": 48.11776089,
        "lon": -1.6850048,
        "name": "Legraverend",
        "code": 1195
      },
      "arrival": 53640,
      "departure": 53640
    },
    {
      "stop": {
        "id": "2_1196",
        "lat": 48.11720567,
        "lon": -1.68231994,
        "name": "Dinan",
        "code": 1196
      },
      "arrival": 53700,
      "departure": 53700
    },
    {
      "stop": {
        "id": "2_1027",
        "lat": 48.11723114,
        "lon": -1.67736823,
        "name": "Hôtel Dieu",
        "code": 1027
      },
      "arrival": 53880,
      "departure": 53880
    },
    {
      "stop": {
        "id": "2_1197",
        "lat": 48.11640279,
        "lon": -1.67325639,
        "name": "Sévigné",
        "code": 1197
      },
      "arrival": 53940,
      "departure": 53940
    },
    {
      "stop": {
        "id": "2_1198",
        "lat": 48.11631466,
        "lon": -1.66888706,
        "name": "George Sand",
        "code": 1198
      },
      "arrival": 54000,
      "departure": 54000
    },
    {
      "stop": {
        "id": "2_1181",
        "lat": 48.11619453,
        "lon": -1.66258994,
        "name": "Musset Cité U",
        "code": 1181
      },
      "arrival": 54120,
      "departure": 54120
    },
    {
      "stop": {
        "id": "2_1200",
        "lat": 48.11682755,
        "lon": -1.6563862,
        "name": "Jeanne d\u0027Arc",
        "code": 1200
      },
      "arrival": 54180,
      "departure": 54180
    },
    {
      "stop": {
        "id": "2_1201",
        "lat": 48.11911266,
        "lon": -1.64919701,
        "name": "Vitré Foulon",
        "code": 1201
      },
      "arrival": 54300,
      "departure": 54300
    },
    {
      "stop": {
        "id": "2_1202",
        "lat": 48.12062049,
        "lon": -1.64433521,
        "name": "Beaulieu Cité U",
        "code": 1202
      },
      "arrival": 54360,
      "departure": 54360
    },
    {
      "stop": {
        "id": "2_1203",
        "lat": 48.12203302,
        "lon": -1.6395994,
        "name": "Beaulieu Restau U",
        "code": 1203
      },
      "arrival": 54420,
      "departure": 54420
    },
    {
      "stop": {
        "id": "2_1176",
        "lat": 48.11901733,
        "lon": -1.63514782,
        "name": "Beaulieu INSA",
        "code": 1176
      },
      "arrival": 54480,
      "departure": 54480
    },
    {
      "stop": {
        "id": "2_1312",
        "lat": 48.1166495,
        "lon": -1.63393042,
        "name": "Beaulieu Chimie",
        "code": 1312
      },
      "arrival": 54540,
      "departure": 54540
    },
    {
      "stop": {
        "id": "2_2019",
        "lat": 48.1140789,
        "lon": -1.62801107,
        "name": "Champs Péans",
        "code": 2019
      },
      "arrival": 54660,
      "departure": 54660
    },
    {
      "stop": {
        "id": "2_2020",
        "lat": 48.11415,
        "lon": -1.62183892,
        "name": "Taillis",
        "code": 2020
      },
      "arrival": 54720,
      "departure": 54720
    },
    {
      "stop": {
        "id": "2_2021",
        "lat": 48.11421456,
        "lon": -1.61375483,
        "name": "Hublais",
        "code": 2021
      },
      "arrival": 54840,
      "departure": 54840
    },
    {
      "stop": {
        "id": "2_2022",
        "lat": 48.11467541,
        "lon": -1.60958194,
        "name": "Place Sévigné",
        "code": 2022
      },
      "arrival": 54900,
      "departure": 54900
    },
    {
      "stop": {
        "id": "2_2023",
        "lat": 48.11604857,
        "lon": -1.60696924,
        "name": "Vilaine",
        "code": 2023
      },
      "arrival": 54960,
      "departure": 54960
    },
    {
      "stop": {
        "id": "2_2066",
        "lat": 48.11834687,
        "lon": -1.60420821,
        "name": "Cesson Mairie",
        "code": 2066
      },
      "arrival": 55020,
      "departure": 55020
    },
    {
      "stop": {
        "id": "2_2067",
        "lat": 48.12037328,
        "lon": -1.60240598,
        "name": "Cesson Piscine",
        "code": 2067
      },
      "arrival": 55080,
      "departure": 55080
    },
    {
      "stop": {
        "id": "2_2068",
        "lat": 48.12317362,
        "lon": -1.60178843,
        "name": "Métairies Chalotais",
        "code": 2068
      },
      "arrival": 55140,
      "departure": 55140
    },
    {
      "stop": {
        "id": "2_2029",
        "lat": 48.12314683,
        "lon": -1.60062832,
        "name": "Bourgchevreuil",
        "code": 2029
      },
      "arrival": 55140,
      "departure": 55140
    },
    {
      "stop": {
        "id": "2_2030",
        "lat": 48.12481844,
        "lon": -1.5968293,
        "name": "Petits Champs",
        "code": 2030
      },
      "arrival": 55200,
      "departure": 55200
    },
    {
      "stop": {
        "id": "2_2031",
        "lat": 48.1239136,
        "lon": -1.59345217,
        "name": "Grand Domaine",
        "code": 2031
      },
      "arrival": 55260,
      "departure": 55260
    },
    {
      "stop": {
        "id": "2_2088",
        "lat": 48.12464409,
        "lon": -1.59098871,
        "name": "Base de Loisirs",
        "code": 2088
      },
      "arrival": 55320,
      "departure": 55320
    }
  ],
  "route": {
    "id": "2_0031",
    "textColor": "E2001A",
    "color": "FFF164",
    "description": "Inter-quartiers",
    "longName": "Villejean-Churchill \u003c\u003e Cesson-Sévigné (Base de Loisirs)",
    "shortName": "31",
    "type": 3,
    "agencyId": "2"
  }
}