{
  "headsign": "206 | Rennes Lycée Assomption",
  "stopTimes": [
    {
      "stop": {
        "id": "2_2054",
        "lat": 48.123129,
        "lon": -1.601975,
        "name": "Métairies Chalotais",
        "code": 2054
      },
      "arrival": 27180,
      "departure": 27180
    },
    {
      "stop": {
        "id": "2_2055",
        "lat": 48.119961,
        "lon": -1.602179,
        "name": "Cesson Piscine",
        "code": 2055
      },
      "arrival": 27240,
      "departure": 27240
    },
    {
      "stop": {
        "id": "2_2056",
        "lat": 48.118557,
        "lon": -1.604529,
        "name": "Cesson Mairie",
        "code": 2056
      },
      "arrival": 27300,
      "departure": 27300
    },
    {
      "stop": {
        "id": "2_2013",
        "lat": 48.116419,
        "lon": -1.607397,
        "name": "Vilaine",
        "code": 2013
      },
      "arrival": 27420,
      "departure": 27420
    },
    {
      "stop": {
        "id": "2_2014",
        "lat": 48.114721,
        "lon": -1.609708,
        "name": "Place Sévigné",
        "code": 2014
      },
      "arrival": 27480,
      "departure": 27480
    },
    {
      "stop": {
        "id": "2_2059",
        "lat": 48.109302,
        "lon": -1.609073,
        "name": "Monniais",
        "code": 2059
      },
      "arrival": 27600,
      "departure": 27600
    },
    {
      "stop": {
        "id": "2_2015",
        "lat": 48.114253,
        "lon": -1.616314,
        "name": "Hublais",
        "code": 2015
      },
      "arrival": 27780,
      "departure": 27780
    },
    {
      "stop": {
        "id": "2_2016",
        "lat": 48.114224,
        "lon": -1.621951,
        "name": "Taillis",
        "code": 2016
      },
      "arrival": 27840,
      "departure": 27840
    },
    {
      "stop": {
        "id": "2_2017",
        "lat": 48.114121,
        "lon": -1.630367,
        "name": "Champs Péans",
        "code": 2017
      },
      "arrival": 27900,
      "departure": 27900
    },
    {
      "stop": {
        "id": "2_1160",
        "lat": 48.114099,
        "lon": -1.637565,
        "name": "Tournebride",
        "code": 1160
      },
      "arrival": 28020,
      "departure": 28020
    },
    {
      "stop": {
        "id": "2_1152",
        "lat": 48.120615,
        "lon": -1.650675,
        "name": "Docteur Quentin",
        "code": 1152
      },
      "arrival": 28260,
      "departure": 28260
    },
    {
      "stop": {
        "id": "2_1007",
        "lat": 48.121446,
        "lon": -1.655036,
        "name": "Assomption",
        "code": 1007
      },
      "arrival": 28500,
      "departure": 28500
    },
    {
      "stop": {
        "id": "2_1532",
        "lat": 48.127001,
        "lon": -1.652714,
        "name": "Joliot-Curie",
        "code": 1532
      },
      "arrival": 28800,
      "departure": 28800
    }
  ],
  "route": {
    "id": "2_0206",
    "textColor": "1A171B",
    "color": "FECC00",
    "description": "Complémentaire",
    "longName": "Cesson-Sévigné (Métairies Chalotais) \u003c\u003e Rennes (Lycée Assomption)",
    "shortName": "206",
    "type": 3,
    "agencyId": "2"
  }
}