{
  "headsign": "65 | Parthenay-de-Bretagne",
  "stopTimes": [
    {
      "stop": {
        "id": "2_3115",
        "lat": 48.1479969,
        "lon": -1.7697924,
        "name": "Pacé Cimetière",
        "code": 3115
      },
      "arrival": 54300,
      "departure": 54300
    },
    {
      "stop": {
        "id": "2_3116",
        "lat": 48.15088755,
        "lon": -1.77187229,
        "name": "Duchesse Anne",
        "code": 3116
      },
      "arrival": 54360,
      "departure": 54360
    },
    {
      "stop": {
        "id": "2_3117",
        "lat": 48.15123454,
        "lon": -1.77754822,
        "name": "Renan",
        "code": 3117
      },
      "arrival": 54420,
      "departure": 54420
    },
    {
      "stop": {
        "id": "2_3141",
        "lat": 48.15471747,
        "lon": -1.78435726,
        "name": "Pont Amelin",
        "code": 3141
      },
      "arrival": 54480,
      "departure": 54480
    },
    {
      "stop": {
        "id": "2_3143",
        "lat": 48.16992161,
        "lon": -1.78800014,
        "name": "Haute Rabine",
        "code": 3143
      },
      "arrival": 54600,
      "departure": 54600
    },
    {
      "stop": {
        "id": "2_3124",
        "lat": 48.17528483,
        "lon": -1.79000995,
        "name": "Chapitre",
        "code": 3124
      },
      "arrival": 54660,
      "departure": 54660
    },
    {
      "stop": {
        "id": "2_3146",
        "lat": 48.18007473,
        "lon": -1.80190215,
        "name": "Touche Champagne",
        "code": 3146
      },
      "arrival": 54720,
      "departure": 54720
    },
    {
      "stop": {
        "id": "2_3611",
        "lat": 48.18636688,
        "lon": -1.81649511,
        "name": "Le Reuvre",
        "code": 3611
      },
      "arrival": 54840,
      "departure": 54840
    },
    {
      "stop": {
        "id": "2_3612",
        "lat": 48.18991366,
        "lon": -1.82014907,
        "name": "Placis de la Touche",
        "code": 3612
      },
      "arrival": 54900,
      "departure": 54900
    },
    {
      "stop": {
        "id": "2_3613",
        "lat": 48.19124712,
        "lon": -1.82435607,
        "name": "La Noë",
        "code": 3613
      },
      "arrival": 54900,
      "departure": 54900
    },
    {
      "stop": {
        "id": "2_3614",
        "lat": 48.19177543,
        "lon": -1.82774803,
        "name": "Clos des Tilleuls",
        "code": 3614
      },
      "arrival": 54960,
      "departure": 54960
    },
    {
      "stop": {
        "id": "2_3615",
        "lat": 48.19212549,
        "lon": -1.83142977,
        "name": "Parthenay Mairie",
        "code": 3615
      },
      "arrival": 54960,
      "departure": 54960
    },
    {
      "stop": {
        "id": "2_3616",
        "lat": 48.18330757,
        "lon": -1.83617991,
        "name": "La Renardière",
        "code": 3616
      },
      "arrival": 55080,
      "departure": 55080
    },
    {
      "stop": {
        "id": "2_4455",
        "lat": 48.18091858,
        "lon": -1.84496532,
        "name": "Terseul",
        "code": 4455
      },
      "arrival": 55200,
      "departure": 55200
    },
    {
      "stop": {
        "id": "2_4451",
        "lat": 48.18086287,
        "lon": -1.85048693,
        "name": "Clairville",
        "code": 4451
      },
      "arrival": 55260,
      "departure": 55260
    },
    {
      "stop": {
        "id": "2_4452",
        "lat": 48.18138007,
        "lon": -1.85347313,
        "name": "Croix Simon",
        "code": 4452
      },
      "arrival": 55320,
      "departure": 55320
    },
    {
      "stop": {
        "id": "2_4453",
        "lat": 48.1760181,
        "lon": -1.85254844,
        "name": "Clayes Centre",
        "code": 4453
      },
      "arrival": 55440,
      "departure": 55440
    },
    {
      "stop": {
        "id": "2_4456",
        "lat": 48.1743824,
        "lon": -1.846508,
        "name": "La Tour",
        "code": 4456
      },
      "arrival": 55500,
      "departure": 55500
    }
  ],
  "route": {
    "id": "2_0065",
    "textColor": "FFFFFF",
    "color": "E16BA0",
    "description": "Métropolitaine",
    "longName": "Rennes (Villejean-Université) \u003c\u003e Pacé / Parthenay-de-Bretagne",
    "shortName": "65",
    "type": 3,
    "agencyId": "2"
  }
}