{
  "headsign": "71 | Betton Chevaigné",
  "stopTimes": [
    {
      "stop": {
        "id": "2_1606",
        "lat": 48.11563108,
        "lon": -1.67670645,
        "name": "Hoche",
        "code": 1606
      },
      "arrival": 58500,
      "departure": 58500
    },
    {
      "stop": {
        "id": "2_1279",
        "lat": 48.11946401,
        "lon": -1.67448311,
        "name": "Rectorat",
        "code": 1279
      },
      "arrival": 58680,
      "departure": 58680
    },
    {
      "stop": {
        "id": "2_1280",
        "lat": 48.12141907,
        "lon": -1.67087311,
        "name": "Jules Ferry",
        "code": 1280
      },
      "arrival": 58740,
      "departure": 58740
    },
    {
      "stop": {
        "id": "2_1281",
        "lat": 48.12528439,
        "lon": -1.66636805,
        "name": "Volney",
        "code": 1281
      },
      "arrival": 58920,
      "departure": 58920
    },
    {
      "stop": {
        "id": "2_1490",
        "lat": 48.13593467,
        "lon": -1.65918915,
        "name": "Hôtel de Région",
        "code": 1490
      },
      "arrival": 59160,
      "departure": 59160
    },
    {
      "stop": {
        "id": "2_1491",
        "lat": 48.13884258,
        "lon": -1.65836842,
        "name": "Saint-Laurent",
        "code": 1491
      },
      "arrival": 59220,
      "departure": 59220
    },
    {
      "stop": {
        "id": "2_9201",
        "lat": 48.1467799,
        "lon": -1.6568735,
        "name": "Maison Blanche (provisoire)",
        "code": 9201
      },
      "arrival": 59340,
      "departure": 59340
    },
    {
      "stop": {
        "id": "2_2412",
        "lat": 48.16199698,
        "lon": -1.64746497,
        "name": "Betton Vallée",
        "code": 2412
      },
      "arrival": 59940,
      "departure": 59940
    },
    {
      "stop": {
        "id": "2_2413",
        "lat": 48.17110928,
        "lon": -1.64175914,
        "name": "Enseigne Abbaye",
        "code": 2413
      },
      "arrival": 60060,
      "departure": 60060
    },
    {
      "stop": {
        "id": "2_2436",
        "lat": 48.17590175,
        "lon": -1.63953946,
        "name": "Betton Rue de Rennes",
        "code": 2436
      },
      "arrival": 60120,
      "departure": 60120
    },
    {
      "stop": {
        "id": "2_2417",
        "lat": 48.18170386,
        "lon": -1.63855109,
        "name": "Betton Centre",
        "code": 2417
      },
      "arrival": 60240,
      "departure": 60240
    },
    {
      "stop": {
        "id": "2_2435",
        "lat": 48.18305974,
        "lon": -1.63721735,
        "name": "Mozart",
        "code": 2435
      },
      "arrival": 60300,
      "departure": 60300
    },
    {
      "stop": {
        "id": "2_2434",
        "lat": 48.18635458,
        "lon": -1.63319375,
        "name": "J.-Sébastien Bach",
        "code": 2434
      },
      "arrival": 60420,
      "departure": 60420
    },
    {
      "stop": {
        "id": "2_2450",
        "lat": 48.18980379,
        "lon": -1.62615025,
        "name": "Gentilhommière",
        "code": 2450
      },
      "arrival": 60540,
      "departure": 60540
    },
    {
      "stop": {
        "id": "2_4610",
        "lat": 48.19918212,
        "lon": -1.62764716,
        "name": "Chopinais",
        "code": 4610
      },
      "arrival": 60660,
      "departure": 60660
    },
    {
      "stop": {
        "id": "2_4608",
        "lat": 48.20787045,
        "lon": -1.63064822,
        "name": "Chevaigné Gare",
        "code": 4608
      },
      "arrival": 60840,
      "departure": 60840
    },
    {
      "stop": {
        "id": "2_4601",
        "lat": 48.21171751,
        "lon": -1.63046022,
        "name": "Chevaigné Mairie",
        "code": 4601
      },
      "arrival": 60900,
      "departure": 60900
    },
    {
      "stop": {
        "id": "2_4602",
        "lat": 48.21431434,
        "lon": -1.62905651,
        "name": "Fonderies",
        "code": 4602
      },
      "arrival": 60960,
      "departure": 60960
    },
    {
      "stop": {
        "id": "2_4603",
        "lat": 48.21095412,
        "lon": -1.62602395,
        "name": "Pommiers",
        "code": 4603
      },
      "arrival": 61020,
      "departure": 61020
    }
  ],
  "route": {
    "id": "2_0071",
    "textColor": "FFFFFF",
    "color": "A57223",
    "description": "Métropolitaine",
    "longName": "Rennes (Hoche) \u003c\u003e Betton / Chevaigné",
    "shortName": "71",
    "type": 3,
    "agencyId": "2"
  }
}