{
  "headsign": "14 | Stade Rennais",
  "stopTimes": [
    {
      "stop": {
        "id": "2_1290",
        "lat": 48.12688601,
        "lon": -1.62954442,
        "name": "Clos Courtel",
        "code": 1290
      },
      "arrival": 46140,
      "departure": 46140
    },
    {
      "stop": {
        "id": "2_1291",
        "lat": 48.12475494,
        "lon": -1.63388413,
        "name": "IUT",
        "code": 1291
      },
      "arrival": 46260,
      "departure": 46260
    },
    {
      "stop": {
        "id": "2_1177",
        "lat": 48.12187978,
        "lon": -1.640286,
        "name": "Beaulieu Restau U",
        "code": 1177
      },
      "arrival": 46320,
      "departure": 46320
    },
    {
      "stop": {
        "id": "2_1178",
        "lat": 48.12078326,
        "lon": -1.64386488,
        "name": "Beaulieu Cité U",
        "code": 1178
      },
      "arrival": 46380,
      "departure": 46380
    },
    {
      "stop": {
        "id": "2_1152",
        "lat": 48.12043354,
        "lon": -1.65067299,
        "name": "Docteur Quentin",
        "code": 1152
      },
      "arrival": 46500,
      "departure": 46500
    },
    {
      "stop": {
        "id": "2_1638",
        "lat": 48.12250411,
        "lon": -1.65118232,
        "name": "Lycée Chateaubriand",
        "code": 1638
      },
      "arrival": 46560,
      "departure": 46560
    },
    {
      "stop": {
        "id": "2_1007",
        "lat": 48.12141888,
        "lon": -1.65505801,
        "name": "Assomption",
        "code": 1007
      },
      "arrival": 46620,
      "departure": 46620
    },
    {
      "stop": {
        "id": "2_1634",
        "lat": 48.12368537,
        "lon": -1.66052861,
        "name": "Painlevé",
        "code": 1634
      },
      "arrival": 46740,
      "departure": 46740
    },
    {
      "stop": {
        "id": "2_1403",
        "lat": 48.12522631,
        "lon": -1.66100436,
        "name": "Saint-Exupéry",
        "code": 1403
      },
      "arrival": 46800,
      "departure": 46800
    },
    {
      "stop": {
        "id": "2_1404",
        "lat": 48.12676756,
        "lon": -1.65850144,
        "name": "Trégain",
        "code": 1404
      },
      "arrival": 46860,
      "departure": 46860
    },
    {
      "stop": {
        "id": "2_1405",
        "lat": 48.12842791,
        "lon": -1.65717779,
        "name": "Europe",
        "code": 1405
      },
      "arrival": 46920,
      "departure": 46920
    },
    {
      "stop": {
        "id": "2_1406",
        "lat": 48.13074039,
        "lon": -1.65650905,
        "name": "Gast",
        "code": 1406
      },
      "arrival": 46980,
      "departure": 46980
    },
    {
      "stop": {
        "id": "2_1407",
        "lat": 48.13305846,
        "lon": -1.65670003,
        "name": "Longs Prés",
        "code": 1407
      },
      "arrival": 46980,
      "departure": 46980
    },
    {
      "stop": {
        "id": "2_1428",
        "lat": 48.13448589,
        "lon": -1.65867078,
        "name": "Hôtel de Région",
        "code": 1428
      },
      "arrival": 47040,
      "departure": 47040
    },
    {
      "stop": {
        "id": "2_1410",
        "lat": 48.1364873,
        "lon": -1.66253723,
        "name": "Hélias",
        "code": 1410
      },
      "arrival": 47100,
      "departure": 47100
    },
    {
      "stop": {
        "id": "2_1253",
        "lat": 48.13666007,
        "lon": -1.66750822,
        "name": "Monts d\u0027Arrée",
        "code": 1253
      },
      "arrival": 47160,
      "departure": 47160
    },
    {
      "stop": {
        "id": "2_1254",
        "lat": 48.13675376,
        "lon": -1.67105825,
        "name": "Neruda",
        "code": 1254
      },
      "arrival": 47220,
      "departure": 47220
    },
    {
      "stop": {
        "id": "2_1255",
        "lat": 48.13455033,
        "lon": -1.67297749,
        "name": "Condate",
        "code": 1255
      },
      "arrival": 47280,
      "departure": 47280
    },
    {
      "stop": {
        "id": "2_1411",
        "lat": 48.13216463,
        "lon": -1.67290099,
        "name": "Bellangerais",
        "code": 1411
      },
      "arrival": 47340,
      "departure": 47340
    },
    {
      "stop": {
        "id": "2_1626",
        "lat": 48.13062079,
        "lon": -1.67700897,
        "name": "Armorique",
        "code": 1626
      },
      "arrival": 47400,
      "departure": 47400
    },
    {
      "stop": {
        "id": "2_1041",
        "lat": 48.12884166,
        "lon": -1.68371536,
        "name": "Trois Croix",
        "code": 1041
      },
      "arrival": 47520,
      "departure": 47520
    },
    {
      "stop": {
        "id": "2_1102",
        "lat": 48.13115995,
        "lon": -1.68458083,
        "name": "Donelière",
        "code": 1102
      },
      "arrival": 47580,
      "departure": 47580
    },
    {
      "stop": {
        "id": "2_1371",
        "lat": 48.13300291,
        "lon": -1.68506819,
        "name": "Lycée Mendès France",
        "code": 1371
      },
      "arrival": 47580,
      "departure": 47580
    },
    {
      "stop": {
        "id": "2_2803",
        "lat": 48.13739456,
        "lon": -1.6885143,
        "name": "La Plesse",
        "code": 2803
      },
      "arrival": 47760,
      "departure": 47760
    },
    {
      "stop": {
        "id": "2_2801",
        "lat": 48.13580525,
        "lon": -1.69311343,
        "name": "Grand Quartier",
        "code": 2801
      },
      "arrival": 47820,
      "departure": 47820
    },
    {
      "stop": {
        "id": "2_1543",
        "lat": 48.13134643,
        "lon": -1.69183513,
        "name": "Léonard",
        "code": 1543
      },
      "arrival": 47940,
      "departure": 47940
    },
    {
      "stop": {
        "id": "2_1303",
        "lat": 48.12832572,
        "lon": -1.69414225,
        "name": "Préfecture",
        "code": 1303
      },
      "arrival": 48060,
      "departure": 48060
    },
    {
      "stop": {
        "id": "2_1300",
        "lat": 48.12858619,
        "lon": -1.69873296,
        "name": "Cucillé",
        "code": 1300
      },
      "arrival": 48180,
      "departure": 48180
    },
    {
      "stop": {
        "id": "2_1305",
        "lat": 48.12765808,
        "lon": -1.70324184,
        "name": "Olympe de Gouges",
        "code": 1305
      },
      "arrival": 48240,
      "departure": 48240
    },
    {
      "stop": {
        "id": "2_1306",
        "lat": 48.12533687,
        "lon": -1.70312933,
        "name": "Bois Labbé",
        "code": 1306
      },
      "arrival": 48300,
      "departure": 48300
    },
    {
      "stop": {
        "id": "2_1307",
        "lat": 48.12192614,
        "lon": -1.70388916,
        "name": "Villejean-Université",
        "code": 1307
      },
      "arrival": 48420,
      "departure": 48420
    },
    {
      "stop": {
        "id": "2_1412",
        "lat": 48.12134176,
        "lon": -1.70777107,
        "name": "Cours Kennedy",
        "code": 1412
      },
      "arrival": 48480,
      "departure": 48480
    },
    {
      "stop": {
        "id": "2_1423",
        "lat": 48.11853035,
        "lon": -1.70811008,
        "name": "Villejean-Churchill",
        "code": 1423
      },
      "arrival": 48600,
      "departure": 48600
    },
    {
      "stop": {
        "id": "2_1414",
        "lat": 48.11638524,
        "lon": -1.71215936,
        "name": "Merlin",
        "code": 1414
      },
      "arrival": 48720,
      "departure": 48720
    },
    {
      "stop": {
        "id": "2_1499",
        "lat": 48.11626025,
        "lon": -1.71595794,
        "name": "Colin",
        "code": 1499
      },
      "arrival": 48780,
      "departure": 48780
    },
    {
      "stop": {
        "id": "2_1421",
        "lat": 48.11464906,
        "lon": -1.71545777,
        "name": "Chambre Agriculture",
        "code": 1421
      },
      "arrival": 48840,
      "departure": 48840
    },
    {
      "stop": {
        "id": "2_1416",
        "lat": 48.11351144,
        "lon": -1.71436637,
        "name": "Atalante Champeaux",
        "code": 1416
      },
      "arrival": 48900,
      "departure": 48900
    },
    {
      "stop": {
        "id": "2_1419",
        "lat": 48.11116252,
        "lon": -1.71291833,
        "name": "Les Arts",
        "code": 1419
      },
      "arrival": 48960,
      "departure": 48960
    },
    {
      "stop": {
        "id": "2_1221",
        "lat": 48.10886589,
        "lon": -1.71061365,
        "name": "Géniaux",
        "code": 1221
      },
      "arrival": 49020,
      "departure": 49020
    },
    {
      "stop": {
        "id": "2_1222",
        "lat": 48.10807385,
        "lon": -1.71396182,
        "name": "Stade Rennais",
        "code": 1222
      },
      "arrival": 49080,
      "departure": 49080
    }
  ],
  "route": {
    "id": "2_0014",
    "textColor": "FFFFFF",
    "color": "805A26",
    "description": "Urbaine",
    "longName": "Stade Rennais \u003c\u003e Beaulieu Atalante",
    "shortName": "14",
    "type": 3,
    "agencyId": "2"
  }
}