{
  "headsign": "151 | Rennes Hoche",
  "stopTimes": [
    {
      "stop": {
        "id": "2_2401",
        "lat": 48.17703667,
        "lon": -1.65122928,
        "name": "Champ Devant",
        "code": 2401
      },
      "arrival": 25320,
      "departure": 25320
    },
    {
      "stop": {
        "id": "2_2402",
        "lat": 48.17926699,
        "lon": -1.65112944,
        "name": "Omblais",
        "code": 2402
      },
      "arrival": 25380,
      "departure": 25380
    },
    {
      "stop": {
        "id": "2_2403",
        "lat": 48.18066394,
        "lon": -1.65204781,
        "name": "Brocéliande",
        "code": 2403
      },
      "arrival": 25380,
      "departure": 25380
    },
    {
      "stop": {
        "id": "2_2404",
        "lat": 48.18305535,
        "lon": -1.64603174,
        "name": "Trégor",
        "code": 2404
      },
      "arrival": 25500,
      "departure": 25500
    },
    {
      "stop": {
        "id": "2_2405",
        "lat": 48.18191274,
        "lon": -1.64173916,
        "name": "Betton Mairie",
        "code": 2405
      },
      "arrival": 25560,
      "departure": 25560
    },
    {
      "stop": {
        "id": "2_2406",
        "lat": 48.18119826,
        "lon": -1.6380241,
        "name": "Betton Centre",
        "code": 2406
      },
      "arrival": 25620,
      "departure": 25620
    },
    {
      "stop": {
        "id": "2_1485",
        "lat": 48.13797172,
        "lon": -1.65873598,
        "name": "Saint-Laurent",
        "code": 1485
      },
      "arrival": 26580,
      "departure": 26580
    },
    {
      "stop": {
        "id": "2_1262",
        "lat": 48.12147137,
        "lon": -1.67091812,
        "name": "Jules Ferry",
        "code": 1262
      },
      "arrival": 26820,
      "departure": 26820
    },
    {
      "stop": {
        "id": "2_1606",
        "lat": 48.11563108,
        "lon": -1.67670645,
        "name": "Hoche",
        "code": 1606
      },
      "arrival": 27060,
      "departure": 27060
    }
  ],
  "route": {
    "id": "2_0151",
    "textColor": "93007C",
    "color": "FCE000",
    "description": "Express métropolitaine",
    "longName": "Rennes (Hoche) \u003c\u003e Betton (Champ Devant)",
    "shortName": "151",
    "type": 3,
    "agencyId": "2"
  }
}