{
  "headsign": "8 | Saint-Grégoire Uttenreuth",
  "stopTimes": [
    {
      "stop": {
        "id": "2_1343",
        "lat": 48.087643,
        "lon": -1.645966,
        "name": "La Poterie",
        "code": 1343
      },
      "arrival": 48420,
      "departure": 48420
    },
    {
      "stop": {
        "id": "2_1344",
        "lat": 48.0877,
        "lon": -1.650088,
        "name": "Galicie",
        "code": 1344
      },
      "arrival": 48480,
      "departure": 48480
    },
    {
      "stop": {
        "id": "2_1358",
        "lat": 48.091419,
        "lon": -1.651912,
        "name": "Pologne",
        "code": 1358
      },
      "arrival": 48600,
      "departure": 48600
    },
    {
      "stop": {
        "id": "2_1359",
        "lat": 48.091479,
        "lon": -1.655599,
        "name": "Landrel",
        "code": 1359
      },
      "arrival": 48600,
      "departure": 48600
    },
    {
      "stop": {
        "id": "2_1360",
        "lat": 48.092518,
        "lon": -1.658308,
        "name": "Gide",
        "code": 1360
      },
      "arrival": 48660,
      "departure": 48660
    },
    {
      "stop": {
        "id": "2_1361",
        "lat": 48.094222,
        "lon": -1.658163,
        "name": "Langevin",
        "code": 1361
      },
      "arrival": 48720,
      "departure": 48720
    },
    {
      "stop": {
        "id": "2_1362",
        "lat": 48.095014,
        "lon": -1.661464,
        "name": "Leray",
        "code": 1362
      },
      "arrival": 48780,
      "departure": 48780
    },
    {
      "stop": {
        "id": "2_1363",
        "lat": 48.097427,
        "lon": -1.662555,
        "name": "Sainte-Thérèse",
        "code": 1363
      },
      "arrival": 48840,
      "departure": 48840
    },
    {
      "stop": {
        "id": "2_1364",
        "lat": 48.098048,
        "lon": -1.667094,
        "name": "Bigot de Préameneu",
        "code": 1364
      },
      "arrival": 48960,
      "departure": 48960
    },
    {
      "stop": {
        "id": "2_1365",
        "lat": 48.097759,
        "lon": -1.669245,
        "name": "Ormeaux",
        "code": 1365
      },
      "arrival": 48960,
      "departure": 48960
    },
    {
      "stop": {
        "id": "2_1366",
        "lat": 48.097797,
        "lon": -1.67092,
        "name": "Châtillon",
        "code": 1366
      },
      "arrival": 49020,
      "departure": 49020
    },
    {
      "stop": {
        "id": "2_1333",
        "lat": 48.097824,
        "lon": -1.675165,
        "name": "Jacques Cartier",
        "code": 1333
      },
      "arrival": 49140,
      "departure": 49140
    },
    {
      "stop": {
        "id": "2_1141",
        "lat": 48.099331,
        "lon": -1.675564,
        "name": "Ginguené",
        "code": 1141
      },
      "arrival": 49140,
      "departure": 49140
    },
    {
      "stop": {
        "id": "2_1142",
        "lat": 48.102086,
        "lon": -1.673987,
        "name": "Gare Sud Féval",
        "code": 1142
      },
      "arrival": 49260,
      "departure": 49260
    },
    {
      "stop": {
        "id": "2_1143",
        "lat": 48.106081,
        "lon": -1.677558,
        "name": "Charles de Gaulle",
        "code": 1143
      },
      "arrival": 49380,
      "departure": 49380
    },
    {
      "stop": {
        "id": "2_1144",
        "lat": 48.110073,
        "lon": -1.677735,
        "name": "République Jaurès",
        "code": 1144
      },
      "arrival": 49560,
      "departure": 49560
    },
    {
      "stop": {
        "id": "2_1367",
        "lat": 48.111022,
        "lon": -1.679517,
        "name": "Rennes Mairie",
        "code": 1367
      },
      "arrival": 49620,
      "departure": 49620
    },
    {
      "stop": {
        "id": "2_1025",
        "lat": 48.112738,
        "lon": -1.680211,
        "name": "Champ Jacquet",
        "code": 1025
      },
      "arrival": 49740,
      "departure": 49740
    },
    {
      "stop": {
        "id": "2_1026",
        "lat": 48.11482,
        "lon": -1.679242,
        "name": "Sainte-Anne",
        "code": 1026
      },
      "arrival": 49860,
      "departure": 49860
    },
    {
      "stop": {
        "id": "2_1183",
        "lat": 48.117342,
        "lon": -1.678809,
        "name": "Hôtel Dieu",
        "code": 1183
      },
      "arrival": 49980,
      "departure": 49980
    },
    {
      "stop": {
        "id": "2_1368",
        "lat": 48.118322,
        "lon": -1.680513,
        "name": "Square de la Rance",
        "code": 1368
      },
      "arrival": 50040,
      "departure": 50040
    },
    {
      "stop": {
        "id": "2_1369",
        "lat": 48.120269,
        "lon": -1.68102,
        "name": "Auberge de Jeunesse",
        "code": 1369
      },
      "arrival": 50100,
      "departure": 50100
    },
    {
      "stop": {
        "id": "2_1370",
        "lat": 48.121947,
        "lon": -1.683469,
        "name": "Lenoir",
        "code": 1370
      },
      "arrival": 50160,
      "departure": 50160
    },
    {
      "stop": {
        "id": "2_1099",
        "lat": 48.123587,
        "lon": -1.683606,
        "name": "Saint-Martin",
        "code": 1099
      },
      "arrival": 50220,
      "departure": 50220
    },
    {
      "stop": {
        "id": "2_1100",
        "lat": 48.12503,
        "lon": -1.681973,
        "name": "Cimetière Nord",
        "code": 1100
      },
      "arrival": 50280,
      "departure": 50280
    },
    {
      "stop": {
        "id": "2_1041",
        "lat": 48.128749,
        "lon": -1.6836,
        "name": "Trois Croix",
        "code": 1041
      },
      "arrival": 50400,
      "departure": 50400
    },
    {
      "stop": {
        "id": "2_1102",
        "lat": 48.131357,
        "lon": -1.684599,
        "name": "Donelière",
        "code": 1102
      },
      "arrival": 50460,
      "departure": 50460
    },
    {
      "stop": {
        "id": "2_1371",
        "lat": 48.133171,
        "lon": -1.68511,
        "name": "Lycée Mendès France",
        "code": 1371
      },
      "arrival": 50460,
      "departure": 50460
    },
    {
      "stop": {
        "id": "2_2816",
        "lat": 48.138233,
        "lon": -1.686336,
        "name": "La Plesse",
        "code": 2816
      },
      "arrival": 50580,
      "departure": 50580
    },
    {
      "stop": {
        "id": "2_2814",
        "lat": 48.142967,
        "lon": -1.686622,
        "name": "CHP Saint-Grégoire",
        "code": 2814
      },
      "arrival": 50640,
      "departure": 50640
    },
    {
      "stop": {
        "id": "2_2818",
        "lat": 48.146946,
        "lon": -1.686104,
        "name": "Haut Trait",
        "code": 2818
      },
      "arrival": 50760,
      "departure": 50760
    },
    {
      "stop": {
        "id": "2_2819",
        "lat": 48.151493,
        "lon": -1.685839,
        "name": "Forge",
        "code": 2819
      },
      "arrival": 50820,
      "departure": 50820
    },
    {
      "stop": {
        "id": "2_9206",
        "lat": 48.155699,
        "lon": -1.671097,
        "name": "Champ Daguet",
        "code": 9206
      },
      "arrival": 51060,
      "departure": 51060
    },
    {
      "stop": {
        "id": "2_2842",
        "lat": 48.158103,
        "lon": -1.672049,
        "name": "Nobel",
        "code": 2842
      },
      "arrival": 51180,
      "departure": 51180
    },
    {
      "stop": {
        "id": "2_2804",
        "lat": 48.159112,
        "lon": -1.676618,
        "name": "Ricoquais",
        "code": 2804
      },
      "arrival": 51240,
      "departure": 51240
    },
    {
      "stop": {
        "id": "2_2805",
        "lat": 48.159128,
        "lon": -1.681343,
        "name": "Camus",
        "code": 2805
      },
      "arrival": 51300,
      "departure": 51300
    },
    {
      "stop": {
        "id": "2_2806",
        "lat": 48.159027,
        "lon": -1.685578,
        "name": "Vivier Louis",
        "code": 2806
      },
      "arrival": 51360,
      "departure": 51360
    },
    {
      "stop": {
        "id": "2_9205",
        "lat": 48.158008,
        "lon": -1.686607,
        "name": "Uttenreuth",
        "code": 9205
      },
      "arrival": 51420,
      "departure": 51420
    }
  ],
  "route": {
    "id": "2_0008",
    "textColor": "FFFFFF",
    "color": "B966A2",
    "description": "Majeure",
    "longName": "Saint-Grégoire \u003c\u003e Rennes (La Poterie)",
    "shortName": "8",
    "type": 3,
    "agencyId": "2"
  }
}