{
  "headsign": "1 | Cesson-Sévigné Champs Blancs",
  "stopTimes": [
    {
      "stop": {
        "id": "2_3028",
        "lat": 48.08547293,
        "lon": -1.60397916,
        "name": "Rosa Parks",
        "code": 3028
      },
      "arrival": 21420,
      "departure": 21420
    },
    {
      "stop": {
        "id": "2_3027",
        "lat": 48.08576141,
        "lon": -1.60813614,
        "name": "Touche Annette",
        "code": 3027
      },
      "arrival": 21480,
      "departure": 21480
    },
    {
      "stop": {
        "id": "2_3032",
        "lat": 48.08517236,
        "lon": -1.61074847,
        "name": "Gériatrie",
        "code": 3032
      },
      "arrival": 21540,
      "departure": 21540
    },
    {
      "stop": {
        "id": "2_3002",
        "lat": 48.08572691,
        "lon": -1.61407942,
        "name": "Deux Ruisseaux",
        "code": 3002
      },
      "arrival": 21600,
      "departure": 21600
    },
    {
      "stop": {
        "id": "2_3003",
        "lat": 48.08911849,
        "lon": -1.61263999,
        "name": "Bourgogne",
        "code": 3003
      },
      "arrival": 21660,
      "departure": 21660
    },
    {
      "stop": {
        "id": "2_3004",
        "lat": 48.09034405,
        "lon": -1.61586838,
        "name": "Hallouvry",
        "code": 3004
      },
      "arrival": 21720,
      "departure": 21720
    },
    {
      "stop": {
        "id": "2_3005",
        "lat": 48.08816241,
        "lon": -1.61696467,
        "name": "Chantepie Eglise",
        "code": 3005
      },
      "arrival": 21780,
      "departure": 21780
    },
    {
      "stop": {
        "id": "2_3006",
        "lat": 48.08845908,
        "lon": -1.61922326,
        "name": "Chantepie Mairie",
        "code": 3006
      },
      "arrival": 21840,
      "departure": 21840
    },
    {
      "stop": {
        "id": "2_3007",
        "lat": 48.09040826,
        "lon": -1.62387938,
        "name": "Loges",
        "code": 3007
      },
      "arrival": 21900,
      "departure": 21900
    },
    {
      "stop": {
        "id": "2_1322",
        "lat": 48.09430784,
        "lon": -1.63474285,
        "name": "Sauvaie",
        "code": 1322
      },
      "arrival": 22020,
      "departure": 22020
    },
    {
      "stop": {
        "id": "2_1323",
        "lat": 48.09543821,
        "lon": -1.63808487,
        "name": "CARSAT",
        "code": 1323
      },
      "arrival": 22080,
      "departure": 22080
    },
    {
      "stop": {
        "id": "2_1324",
        "lat": 48.09761101,
        "lon": -1.6424202,
        "name": "Domaine",
        "code": 1324
      },
      "arrival": 22140,
      "departure": 22140
    },
    {
      "stop": {
        "id": "2_1325",
        "lat": 48.09943332,
        "lon": -1.64672508,
        "name": "Landry",
        "code": 1325
      },
      "arrival": 22200,
      "departure": 22200
    },
    {
      "stop": {
        "id": "2_1470",
        "lat": 48.10058076,
        "lon": -1.65031144,
        "name": "Villebois-Mareuil",
        "code": 1470
      },
      "arrival": 22260,
      "departure": 22260
    },
    {
      "stop": {
        "id": "2_1327",
        "lat": 48.10137672,
        "lon": -1.65366515,
        "name": "Raison",
        "code": 1327
      },
      "arrival": 22260,
      "departure": 22260
    },
    {
      "stop": {
        "id": "2_1212",
        "lat": 48.10191268,
        "lon": -1.65652502,
        "name": "Mouézy",
        "code": 1212
      },
      "arrival": 22320,
      "departure": 22320
    },
    {
      "stop": {
        "id": "2_1213",
        "lat": 48.10287126,
        "lon": -1.66143906,
        "name": "Croix Saint-Hélier",
        "code": 1213
      },
      "arrival": 22380,
      "departure": 22380
    },
    {
      "stop": {
        "id": "2_1057",
        "lat": 48.10469525,
        "lon": -1.66716416,
        "name": "Laënnec",
        "code": 1057
      },
      "arrival": 22500,
      "departure": 22500
    },
    {
      "stop": {
        "id": "2_1056",
        "lat": 48.10391821,
        "lon": -1.67317044,
        "name": "Gares",
        "code": 1056
      },
      "arrival": 22620,
      "departure": 22620
    },
    {
      "stop": {
        "id": "2_1055",
        "lat": 48.1053351,
        "lon": -1.67389232,
        "name": "Champs Libres",
        "code": 1055
      },
      "arrival": 22680,
      "departure": 22680
    },
    {
      "stop": {
        "id": "2_1054",
        "lat": 48.10755037,
        "lon": -1.67508432,
        "name": "Liberté TNB",
        "code": 1054
      },
      "arrival": 22740,
      "departure": 22740
    },
    {
      "stop": {
        "id": "2_1023",
        "lat": 48.10798151,
        "lon": -1.68011595,
        "name": "Les Halles",
        "code": 1023
      },
      "arrival": 22860,
      "departure": 22860
    },
    {
      "stop": {
        "id": "2_1016",
        "lat": 48.11007256,
        "lon": -1.6801671,
        "name": "République Nemours",
        "code": 1016
      },
      "arrival": 22980,
      "departure": 23100
    },
    {
      "stop": {
        "id": "2_1025",
        "lat": 48.11273566,
        "lon": -1.68025817,
        "name": "Champ Jacquet",
        "code": 1025
      },
      "arrival": 23160,
      "departure": 23160
    },
    {
      "stop": {
        "id": "2_1026",
        "lat": 48.11478452,
        "lon": -1.67927843,
        "name": "Sainte-Anne",
        "code": 1026
      },
      "arrival": 23280,
      "departure": 23280
    },
    {
      "stop": {
        "id": "2_1027",
        "lat": 48.11723114,
        "lon": -1.67736823,
        "name": "Hôtel Dieu",
        "code": 1027
      },
      "arrival": 23340,
      "departure": 23340
    },
    {
      "stop": {
        "id": "2_1028",
        "lat": 48.11750653,
        "lon": -1.67360984,
        "name": "Sévigné",
        "code": 1028
      },
      "arrival": 23400,
      "departure": 23400
    },
    {
      "stop": {
        "id": "2_1029",
        "lat": 48.11831975,
        "lon": -1.66969704,
        "name": "Fac de Droit",
        "code": 1029
      },
      "arrival": 23460,
      "departure": 23460
    },
    {
      "stop": {
        "id": "2_1030",
        "lat": 48.11947818,
        "lon": -1.66685122,
        "name": "Guéhenno",
        "code": 1030
      },
      "arrival": 23520,
      "departure": 23520
    },
    {
      "stop": {
        "id": "2_1031",
        "lat": 48.12200441,
        "lon": -1.66224129,
        "name": "Metz Volney",
        "code": 1031
      },
      "arrival": 23580,
      "departure": 23580
    },
    {
      "stop": {
        "id": "2_1032",
        "lat": 48.12331854,
        "lon": -1.65932809,
        "name": "Painlevé",
        "code": 1032
      },
      "arrival": 23640,
      "departure": 23640
    },
    {
      "stop": {
        "id": "2_1033",
        "lat": 48.12132369,
        "lon": -1.65499372,
        "name": "Assomption",
        "code": 1033
      },
      "arrival": 23700,
      "departure": 23700
    },
    {
      "stop": {
        "id": "2_1034",
        "lat": 48.12221902,
        "lon": -1.65061867,
        "name": "Turmel",
        "code": 1034
      },
      "arrival": 23760,
      "departure": 23760
    },
    {
      "stop": {
        "id": "2_1035",
        "lat": 48.12370157,
        "lon": -1.64529281,
        "name": "Mirabeau",
        "code": 1035
      },
      "arrival": 23820,
      "departure": 23820
    },
    {
      "stop": {
        "id": "2_1036",
        "lat": 48.12553894,
        "lon": -1.64212893,
        "name": "Donzelot",
        "code": 1036
      },
      "arrival": 23880,
      "departure": 23880
    },
    {
      "stop": {
        "id": "2_1037",
        "lat": 48.1277403,
        "lon": -1.6400201,
        "name": "Gallets",
        "code": 1037
      },
      "arrival": 23880,
      "departure": 23880
    },
    {
      "stop": {
        "id": "2_1038",
        "lat": 48.12826339,
        "lon": -1.6372655,
        "name": "Bouzat",
        "code": 1038
      },
      "arrival": 23940,
      "departure": 23940
    },
    {
      "stop": {
        "id": "2_1039",
        "lat": 48.12901691,
        "lon": -1.63243041,
        "name": "Longs Champs",
        "code": 1039
      },
      "arrival": 24000,
      "departure": 24000
    },
    {
      "stop": {
        "id": "2_2003",
        "lat": 48.13011198,
        "lon": -1.62787161,
        "name": "Cesson Hôpital Privé",
        "code": 2003
      },
      "arrival": 24060,
      "departure": 24060
    },
    {
      "stop": {
        "id": "2_2125",
        "lat": 48.13189176,
        "lon": -1.62441699,
        "name": "Chêne Germain",
        "code": 2125
      },
      "arrival": 24120,
      "departure": 24120
    },
    {
      "stop": {
        "id": "2_2126",
        "lat": 48.13476313,
        "lon": -1.62183196,
        "name": "Champs Blancs",
        "code": 2126
      },
      "arrival": 24300,
      "departure": 24300
    }
  ],
  "route": {
    "id": "2_0001",
    "textColor": "1A171B",
    "color": "97BF0D",
    "description": "Majeure",
    "longName": "Cesson-Sévigné (Champs Blancs) \u003c\u003e Chantepie (Rosa Parks)",
    "shortName": "1",
    "type": 3,
    "agencyId": "2"
  }
}