{
  "headsign": "6 | Cesson-Sévigné Rigourdière",
  "stopTimes": [
    {
      "stop": {
        "id": "2_2201",
        "lat": 48.075489,
        "lon": -1.716264,
        "name": "Morinais",
        "code": 2201
      },
      "arrival": 76800,
      "departure": 76800
    },
    {
      "stop": {
        "id": "2_2202",
        "lat": 48.077395,
        "lon": -1.715725,
        "name": "Collège Jean Moulin",
        "code": 2202
      },
      "arrival": 76860,
      "departure": 76860
    },
    {
      "stop": {
        "id": "2_2214",
        "lat": 48.079869,
        "lon": -1.715526,
        "name": "Médiathèque",
        "code": 2214
      },
      "arrival": 76920,
      "departure": 76920
    },
    {
      "stop": {
        "id": "2_2204",
        "lat": 48.082557,
        "lon": -1.715255,
        "name": "Jean Marin",
        "code": 2204
      },
      "arrival": 76920,
      "departure": 76920
    },
    {
      "stop": {
        "id": "2_2263",
        "lat": 48.082518,
        "lon": -1.712313,
        "name": "Jean Jaurès",
        "code": 2263
      },
      "arrival": 76980,
      "departure": 76980
    },
    {
      "stop": {
        "id": "2_2205",
        "lat": 48.083243,
        "lon": -1.710049,
        "name": "Roger Dodin",
        "code": 2205
      },
      "arrival": 77040,
      "departure": 77040
    },
    {
      "stop": {
        "id": "2_2206",
        "lat": 48.087497,
        "lon": -1.706946,
        "name": "Gaité",
        "code": 2206
      },
      "arrival": 77100,
      "departure": 77100
    },
    {
      "stop": {
        "id": "2_2258",
        "lat": 48.093537,
        "lon": -1.704339,
        "name": "Dominos",
        "code": 2258
      },
      "arrival": 77220,
      "departure": 77220
    },
    {
      "stop": {
        "id": "2_1588",
        "lat": 48.098019,
        "lon": -1.703694,
        "name": "Jules Maniez",
        "code": 1588
      },
      "arrival": 77340,
      "departure": 77340
    },
    {
      "stop": {
        "id": "2_1570",
        "lat": 48.098471,
        "lon": -1.697531,
        "name": "Cœur de Courrouze",
        "code": 1570
      },
      "arrival": 77340,
      "departure": 77340
    },
    {
      "stop": {
        "id": "2_1590",
        "lat": 48.098899,
        "lon": -1.69354,
        "name": "Jules Verne",
        "code": 1590
      },
      "arrival": 77400,
      "departure": 77400
    },
    {
      "stop": {
        "id": "2_1612",
        "lat": 48.103539,
        "lon": -1.688429,
        "name": "Saint-Conwoïon",
        "code": 1612
      },
      "arrival": 77520,
      "departure": 77520
    },
    {
      "stop": {
        "id": "2_1401",
        "lat": 48.105574,
        "lon": -1.687728,
        "name": "Redon",
        "code": 1401
      },
      "arrival": 77580,
      "departure": 77580
    },
    {
      "stop": {
        "id": "2_1587",
        "lat": 48.105915,
        "lon": -1.684405,
        "name": "Cité Judiciaire",
        "code": 1587
      },
      "arrival": 77640,
      "departure": 77640
    },
    {
      "stop": {
        "id": "2_1091",
        "lat": 48.109734,
        "lon": -1.68385,
        "name": "Place de Bretagne",
        "code": 1091
      },
      "arrival": 77760,
      "departure": 77760
    },
    {
      "stop": {
        "id": "2_1168",
        "lat": 48.109761,
        "lon": -1.678807,
        "name": "République",
        "code": 1168
      },
      "arrival": 77940,
      "departure": 78300
    },
    {
      "stop": {
        "id": "2_1169",
        "lat": 48.109809,
        "lon": -1.674483,
        "name": "Musée Beaux Arts",
        "code": 1169
      },
      "arrival": 78360,
      "departure": 78360
    },
    {
      "stop": {
        "id": "2_1170",
        "lat": 48.109996,
        "lon": -1.669018,
        "name": "Paul Bert",
        "code": 1170
      },
      "arrival": 78480,
      "departure": 78480
    },
    {
      "stop": {
        "id": "2_1171",
        "lat": 48.110016,
        "lon": -1.663623,
        "name": "Pont de Châteaudun",
        "code": 1171
      },
      "arrival": 78540,
      "departure": 78540
    },
    {
      "stop": {
        "id": "2_1172",
        "lat": 48.11003,
        "lon": -1.659227,
        "name": "Robidou",
        "code": 1172
      },
      "arrival": 78600,
      "departure": 78600
    },
    {
      "stop": {
        "id": "2_1173",
        "lat": 48.110055,
        "lon": -1.656165,
        "name": "Pont de Strasbourg",
        "code": 1173
      },
      "arrival": 78600,
      "departure": 78600
    },
    {
      "stop": {
        "id": "2_1174",
        "lat": 48.112437,
        "lon": -1.64292,
        "name": "Plaine de Baud",
        "code": 1174
      },
      "arrival": 78720,
      "departure": 78720
    },
    {
      "stop": {
        "id": "2_1604",
        "lat": 48.113551,
        "lon": -1.640947,
        "name": "Les Préales",
        "code": 1604
      },
      "arrival": 78780,
      "departure": 78780
    },
    {
      "stop": {
        "id": "2_1610",
        "lat": 48.114025,
        "lon": -1.636082,
        "name": "Tournebride",
        "code": 1610
      },
      "arrival": 78840,
      "departure": 78840
    },
    {
      "stop": {
        "id": "2_2019",
        "lat": 48.114037,
        "lon": -1.628008,
        "name": "Champs Péans",
        "code": 2019
      },
      "arrival": 78900,
      "departure": 78900
    },
    {
      "stop": {
        "id": "2_2020",
        "lat": 48.114105,
        "lon": -1.621837,
        "name": "Taillis",
        "code": 2020
      },
      "arrival": 78960,
      "departure": 78960
    },
    {
      "stop": {
        "id": "2_2021",
        "lat": 48.114168,
        "lon": -1.613754,
        "name": "Hublais",
        "code": 2021
      },
      "arrival": 79020,
      "departure": 79020
    },
    {
      "stop": {
        "id": "2_2022",
        "lat": 48.114642,
        "lon": -1.609545,
        "name": "Place Sévigné",
        "code": 2022
      },
      "arrival": 79080,
      "departure": 79080
    },
    {
      "stop": {
        "id": "2_2023",
        "lat": 48.115593,
        "lon": -1.606961,
        "name": "Vilaine",
        "code": 2023
      },
      "arrival": 79140,
      "departure": 79140
    },
    {
      "stop": {
        "id": "2_2024",
        "lat": 48.118449,
        "lon": -1.608322,
        "name": "Muguet",
        "code": 2024
      },
      "arrival": 79140,
      "departure": 79140
    },
    {
      "stop": {
        "id": "2_2025",
        "lat": 48.121255,
        "lon": -1.609884,
        "name": "Maison d\u0027Accueil",
        "code": 2025
      },
      "arrival": 79200,
      "departure": 79200
    },
    {
      "stop": {
        "id": "2_2026",
        "lat": 48.122782,
        "lon": -1.61077,
        "name": "Mare Pavée",
        "code": 2026
      },
      "arrival": 79260,
      "departure": 79260
    },
    {
      "stop": {
        "id": "2_2027",
        "lat": 48.123456,
        "lon": -1.608183,
        "name": "Fontenelle",
        "code": 2027
      },
      "arrival": 79260,
      "departure": 79260
    },
    {
      "stop": {
        "id": "2_2028",
        "lat": 48.123463,
        "lon": -1.604091,
        "name": "La Coulée",
        "code": 2028
      },
      "arrival": 79320,
      "departure": 79320
    },
    {
      "stop": {
        "id": "2_2029",
        "lat": 48.123131,
        "lon": -1.600719,
        "name": "Bourgchevreuil",
        "code": 2029
      },
      "arrival": 79380,
      "departure": 79380
    },
    {
      "stop": {
        "id": "2_2041",
        "lat": 48.120514,
        "lon": -1.599543,
        "name": "Cesson Collège",
        "code": 2041
      },
      "arrival": 79440,
      "departure": 79440
    },
    {
      "stop": {
        "id": "2_2051",
        "lat": 48.115847,
        "lon": -1.600734,
        "name": "Chalotais",
        "code": 2051
      },
      "arrival": 79500,
      "departure": 79500
    },
    {
      "stop": {
        "id": "2_2086",
        "lat": 48.114279,
        "lon": -1.600415,
        "name": "Bordage",
        "code": 2086
      },
      "arrival": 79500,
      "departure": 79500
    },
    {
      "stop": {
        "id": "2_2089",
        "lat": 48.113572,
        "lon": -1.59052,
        "name": "Rigourdière",
        "code": 2089
      },
      "arrival": 79620,
      "departure": 79620
    }
  ],
  "route": {
    "id": "2_0006",
    "textColor": "1A171B",
    "color": "62C3D5",
    "description": "Majeure",
    "longName": "Cesson-Sévigné (Rigourdière) \u003c\u003e Saint-Jacques-de-la-Lande (Morinais)",
    "shortName": "6",
    "type": 3,
    "agencyId": "2"
  }
}