{
  "headsign": "94 | Chevaigné Saint-Sulpice-la-F.",
  "stopTimes": [
    {
      "stop": {
        "id": "2_2417",
        "lat": 48.18170386,
        "lon": -1.63855109,
        "name": "Betton Centre",
        "code": 2417
      },
      "arrival": 33120,
      "departure": 33120
    },
    {
      "stop": {
        "id": "2_2435",
        "lat": 48.18305974,
        "lon": -1.63721735,
        "name": "Mozart",
        "code": 2435
      },
      "arrival": 33120,
      "departure": 33120
    },
    {
      "stop": {
        "id": "2_2434",
        "lat": 48.18635458,
        "lon": -1.63319375,
        "name": "J. Sébastien Bach",
        "code": 2434
      },
      "arrival": 33240,
      "departure": 33240
    },
    {
      "stop": {
        "id": "2_2458",
        "lat": 48.19099575,
        "lon": -1.6289883,
        "name": "Gentilhommière",
        "code": 2458
      },
      "arrival": 33300,
      "departure": 33300
    },
    {
      "stop": {
        "id": "2_4610",
        "lat": 48.19918213,
        "lon": -1.62764716,
        "name": "Chopinais",
        "code": 4610
      },
      "arrival": 33420,
      "departure": 33420
    },
    {
      "stop": {
        "id": "2_4608",
        "lat": 48.20787045,
        "lon": -1.63064822,
        "name": "Chevaigné Gare",
        "code": 4608
      },
      "arrival": 33540,
      "departure": 33540
    },
    {
      "stop": {
        "id": "2_4601",
        "lat": 48.21171751,
        "lon": -1.63046022,
        "name": "Chevaigné Mairie",
        "code": 4601
      },
      "arrival": 33600,
      "departure": 33600
    },
    {
      "stop": {
        "id": "2_4602",
        "lat": 48.21431434,
        "lon": -1.62905651,
        "name": "Fonderies",
        "code": 4602
      },
      "arrival": 33660,
      "departure": 33660
    },
    {
      "stop": {
        "id": "2_4603",
        "lat": 48.21095412,
        "lon": -1.62602395,
        "name": "Pommiers",
        "code": 4603
      },
      "arrival": 33720,
      "departure": 33720
    },
    {
      "stop": {
        "id": "2_3959",
        "lat": 48.21179703,
        "lon": -1.59059123,
        "name": "Tronchay",
        "code": 3959
      },
      "arrival": 34020,
      "departure": 34020
    },
    {
      "stop": {
        "id": "2_3954",
        "lat": 48.21479222,
        "lon": -1.58657706,
        "name": "Terrain des Sports",
        "code": 3954
      },
      "arrival": 34080,
      "departure": 34080
    },
    {
      "stop": {
        "id": "2_3961",
        "lat": 48.2177321,
        "lon": -1.58139746,
        "name": "Bourg",
        "code": 3961
      },
      "arrival": 34140,
      "departure": 34140
    },
    {
      "stop": {
        "id": "2_3962",
        "lat": 48.22315212,
        "lon": -1.57693236,
        "name": "Chesnais",
        "code": 3962
      },
      "arrival": 34200,
      "departure": 34200
    },
    {
      "stop": {
        "id": "2_3951",
        "lat": 48.22528095,
        "lon": -1.57037306,
        "name": "Cropy",
        "code": 3951
      },
      "arrival": 34260,
      "departure": 34260
    }
  ],
  "route": {
    "id": "2_0094",
    "textColor": "1A171B",
    "color": "AECC52",
    "description": "Intercommunale",
    "longName": "Saint-Sulpice-la-Forêt / Chevaigné \u003c\u003e Betton (Centre)",
    "shortName": "94",
    "type": 3,
    "agencyId": "2"
  }
}