{
  "headsign": "34 | ZA Saint-Sulpice",
  "stopTimes": [
    {
      "stop": {
        "id": "2_3028",
        "lat": 48.085464,
        "lon": -1.604031,
        "name": "Rosa Parks",
        "code": 3028
      },
      "arrival": 63300,
      "departure": 63300
    },
    {
      "stop": {
        "id": "2_3027",
        "lat": 48.085803,
        "lon": -1.608136,
        "name": "Touche Annette",
        "code": 3027
      },
      "arrival": 63360,
      "departure": 63360
    },
    {
      "stop": {
        "id": "2_3032",
        "lat": 48.085229,
        "lon": -1.610747,
        "name": "Gériatrie",
        "code": 3032
      },
      "arrival": 63420,
      "departure": 63420
    },
    {
      "stop": {
        "id": "2_3002",
        "lat": 48.085765,
        "lon": -1.614047,
        "name": "Deux Ruisseaux",
        "code": 3002
      },
      "arrival": 63480,
      "departure": 63480
    },
    {
      "stop": {
        "id": "2_3037",
        "lat": 48.087586,
        "lon": -1.616704,
        "name": "Chantepie Eglise",
        "code": 3037
      },
      "arrival": 63540,
      "departure": 63540
    },
    {
      "stop": {
        "id": "2_3006",
        "lat": 48.08848,
        "lon": -1.6192,
        "name": "Chantepie Mairie",
        "code": 3006
      },
      "arrival": 63600,
      "departure": 63600
    },
    {
      "stop": {
        "id": "2_3036",
        "lat": 48.090683,
        "lon": -1.618807,
        "name": "Landes",
        "code": 3036
      },
      "arrival": 63660,
      "departure": 63660
    },
    {
      "stop": {
        "id": "2_3034",
        "lat": 48.098553,
        "lon": -1.621354,
        "name": "Breillou",
        "code": 3034
      },
      "arrival": 63780,
      "departure": 63780
    },
    {
      "stop": {
        "id": "2_2035",
        "lat": 48.09967,
        "lon": -1.620857,
        "name": "Forum",
        "code": 2035
      },
      "arrival": 63780,
      "departure": 63780
    },
    {
      "stop": {
        "id": "2_2033",
        "lat": 48.10133,
        "lon": -1.623467,
        "name": "Bas Village",
        "code": 2033
      },
      "arrival": 63840,
      "departure": 63840
    },
    {
      "stop": {
        "id": "2_2061",
        "lat": 48.106515,
        "lon": -1.621243,
        "name": "Charmilles",
        "code": 2061
      },
      "arrival": 63900,
      "departure": 63900
    },
    {
      "stop": {
        "id": "2_2062",
        "lat": 48.107771,
        "lon": -1.614065,
        "name": "Rond Point de Bray",
        "code": 2062
      },
      "arrival": 64020,
      "departure": 64020
    },
    {
      "stop": {
        "id": "2_2063",
        "lat": 48.108743,
        "lon": -1.60963,
        "name": "Monniais",
        "code": 2063
      },
      "arrival": 64140,
      "departure": 64140
    },
    {
      "stop": {
        "id": "2_2064",
        "lat": 48.112543,
        "lon": -1.607297,
        "name": "Peupliers",
        "code": 2064
      },
      "arrival": 64260,
      "departure": 64260
    },
    {
      "stop": {
        "id": "2_2065",
        "lat": 48.113984,
        "lon": -1.603204,
        "name": "Cesson Gare",
        "code": 2065
      },
      "arrival": 64320,
      "departure": 64320
    },
    {
      "stop": {
        "id": "2_2022",
        "lat": 48.114642,
        "lon": -1.609545,
        "name": "Place Sévigné",
        "code": 2022
      },
      "arrival": 64380,
      "departure": 64380
    },
    {
      "stop": {
        "id": "2_2023",
        "lat": 48.115593,
        "lon": -1.606961,
        "name": "Vilaine",
        "code": 2023
      },
      "arrival": 64440,
      "departure": 64440
    },
    {
      "stop": {
        "id": "2_2066",
        "lat": 48.118312,
        "lon": -1.604191,
        "name": "Cesson Mairie",
        "code": 2066
      },
      "arrival": 64560,
      "departure": 64560
    },
    {
      "stop": {
        "id": "2_2067",
        "lat": 48.120381,
        "lon": -1.602371,
        "name": "Cesson Piscine",
        "code": 2067
      },
      "arrival": 64620,
      "departure": 64620
    },
    {
      "stop": {
        "id": "2_2068",
        "lat": 48.123149,
        "lon": -1.60173,
        "name": "Métairies Chalotais",
        "code": 2068
      },
      "arrival": 64680,
      "departure": 64680
    },
    {
      "stop": {
        "id": "2_2008",
        "lat": 48.123628,
        "lon": -1.604384,
        "name": "La Coulée",
        "code": 2008
      },
      "arrival": 64740,
      "departure": 64740
    },
    {
      "stop": {
        "id": "2_2009",
        "lat": 48.123585,
        "lon": -1.608134,
        "name": "Fontenelle",
        "code": 2009
      },
      "arrival": 64740,
      "departure": 64740
    },
    {
      "stop": {
        "id": "2_2074",
        "lat": 48.123547,
        "lon": -1.611239,
        "name": "Mare Pavée",
        "code": 2074
      },
      "arrival": 64800,
      "departure": 64800
    },
    {
      "stop": {
        "id": "2_2049",
        "lat": 48.124436,
        "lon": -1.614097,
        "name": "Les Lacs",
        "code": 2049
      },
      "arrival": 64860,
      "departure": 64860
    },
    {
      "stop": {
        "id": "2_2043",
        "lat": 48.124354,
        "lon": -1.618478,
        "name": "Cormier",
        "code": 2043
      },
      "arrival": 64920,
      "departure": 64920
    },
    {
      "stop": {
        "id": "2_2044",
        "lat": 48.127362,
        "lon": -1.62431,
        "name": "Belle Fontaine",
        "code": 2044
      },
      "arrival": 65040,
      "departure": 65040
    },
    {
      "stop": {
        "id": "2_2045",
        "lat": 48.127387,
        "lon": -1.628256,
        "name": "Clos Courtel",
        "code": 2045
      },
      "arrival": 65100,
      "departure": 65100
    },
    {
      "stop": {
        "id": "2_2121",
        "lat": 48.130368,
        "lon": -1.631314,
        "name": "Longs Champs Est",
        "code": 2121
      },
      "arrival": 65280,
      "departure": 65280
    },
    {
      "stop": {
        "id": "2_1631",
        "lat": 48.132353,
        "lon": -1.636152,
        "name": "ZA Saint-Sulpice",
        "code": 1631
      },
      "arrival": 65520,
      "departure": 65520
    }
  ],
  "route": {
    "id": "2_0034",
    "textColor": "E2001A",
    "color": "FFF164",
    "description": "Inter-quartiers",
    "longName": "Chantepie (Rosa Parks) \u003c\u003e ZAC Saint-Sulpice",
    "shortName": "34",
    "type": 3,
    "agencyId": "2"
  }
}