{
  "headsign": "78 | Saint-Grégoire Betton Centre",
  "stopTimes": [
    {
      "stop": {
        "id": "2_1497",
        "lat": 48.120973,
        "lon": -1.70298,
        "name": "Villejean-Université",
        "code": 1497
      },
      "arrival": 63600,
      "departure": 63600
    },
    {
      "stop": {
        "id": "2_1495",
        "lat": 48.126607,
        "lon": -1.693012,
        "name": "Lycée Basch",
        "code": 1495
      },
      "arrival": 63900,
      "departure": 63900
    },
    {
      "stop": {
        "id": "2_1537",
        "lat": 48.131596,
        "lon": -1.69166,
        "name": "Léonard",
        "code": 1537
      },
      "arrival": 64080,
      "departure": 64080
    },
    {
      "stop": {
        "id": "2_2826",
        "lat": 48.135601,
        "lon": -1.692926,
        "name": "Grand Quartier",
        "code": 2826
      },
      "arrival": 64200,
      "departure": 64200
    },
    {
      "stop": {
        "id": "2_2816",
        "lat": 48.138233,
        "lon": -1.686336,
        "name": "La Plesse",
        "code": 2816
      },
      "arrival": 64320,
      "departure": 64320
    },
    {
      "stop": {
        "id": "2_2814",
        "lat": 48.142967,
        "lon": -1.686622,
        "name": "CHP Saint-Grégoire",
        "code": 2814
      },
      "arrival": 64380,
      "departure": 64380
    },
    {
      "stop": {
        "id": "2_2851",
        "lat": 48.148089,
        "lon": -1.696862,
        "name": "Edonia",
        "code": 2851
      },
      "arrival": 64500,
      "departure": 64500
    },
    {
      "stop": {
        "id": "2_2839",
        "lat": 48.154392,
        "lon": -1.69664,
        "name": "Alphasis",
        "code": 2839
      },
      "arrival": 64620,
      "departure": 64620
    },
    {
      "stop": {
        "id": "2_2821",
        "lat": 48.153808,
        "lon": -1.691979,
        "name": "Paul-Emile Victor",
        "code": 2821
      },
      "arrival": 64680,
      "departure": 64680
    },
    {
      "stop": {
        "id": "2_2811",
        "lat": 48.151378,
        "lon": -1.691295,
        "name": "Cité des Jardins",
        "code": 2811
      },
      "arrival": 64740,
      "departure": 64740
    },
    {
      "stop": {
        "id": "2_2847",
        "lat": 48.151815,
        "lon": -1.684518,
        "name": "Forge",
        "code": 2847
      },
      "arrival": 64860,
      "departure": 64860
    },
    {
      "stop": {
        "id": "2_2832",
        "lat": 48.154635,
        "lon": -1.678763,
        "name": "Holywell",
        "code": 2832
      },
      "arrival": 64980,
      "departure": 64980
    },
    {
      "stop": {
        "id": "2_2834",
        "lat": 48.159961,
        "lon": -1.677102,
        "name": "Jean-Paul II",
        "code": 2834
      },
      "arrival": 65100,
      "departure": 65100
    },
    {
      "stop": {
        "id": "2_2453",
        "lat": 48.175463,
        "lon": -1.662268,
        "name": "Chaperonnais",
        "code": 2453
      },
      "arrival": 65280,
      "departure": 65280
    },
    {
      "stop": {
        "id": "2_2457",
        "lat": 48.17899,
        "lon": -1.660557,
        "name": "Pont Brand",
        "code": 2457
      },
      "arrival": 65340,
      "departure": 65340
    },
    {
      "stop": {
        "id": "2_2455",
        "lat": 48.183285,
        "lon": -1.65463,
        "name": "Renaudais",
        "code": 2455
      },
      "arrival": 65460,
      "departure": 65460
    },
    {
      "stop": {
        "id": "2_2441",
        "lat": 48.184947,
        "lon": -1.649817,
        "name": "Mézières",
        "code": 2441
      },
      "arrival": 65520,
      "departure": 65520
    },
    {
      "stop": {
        "id": "2_2449",
        "lat": 48.183594,
        "lon": -1.646306,
        "name": "Trégor",
        "code": 2449
      },
      "arrival": 65640,
      "departure": 65640
    },
    {
      "stop": {
        "id": "2_2405",
        "lat": 48.181894,
        "lon": -1.641783,
        "name": "Betton Mairie",
        "code": 2405
      },
      "arrival": 65700,
      "departure": 65700
    },
    {
      "stop": {
        "id": "2_2437",
        "lat": 48.181703,
        "lon": -1.639251,
        "name": "Betton Centre",
        "code": 2437
      },
      "arrival": 65760,
      "departure": 65760
    }
  ],
  "route": {
    "id": "2_0078",
    "textColor": "FFFFFF",
    "color": "E3006A",
    "description": "Métropolitaine",
    "longName": "Rennes (Villejean-Université) \u003c\u003e Saint-Grégoire / Betton (Centre)",
    "shortName": "78",
    "type": 3,
    "agencyId": "2"
  }
}