{
  "headsign": "8 | La Poterie",
  "stopTimes": [
    {
      "stop": {
        "id": "2_9205",
        "lat": 48.158008,
        "lon": -1.686607,
        "name": "Uttenreuth",
        "code": 9205
      },
      "arrival": 45240,
      "departure": 45240
    },
    {
      "stop": {
        "id": "2_2824",
        "lat": 48.158874,
        "lon": -1.685178,
        "name": "Vivier Louis",
        "code": 2824
      },
      "arrival": 45300,
      "departure": 45300
    },
    {
      "stop": {
        "id": "2_2825",
        "lat": 48.159086,
        "lon": -1.680796,
        "name": "Camus",
        "code": 2825
      },
      "arrival": 45300,
      "departure": 45300
    },
    {
      "stop": {
        "id": "2_2846",
        "lat": 48.158993,
        "lon": -1.676337,
        "name": "Ricoquais",
        "code": 2846
      },
      "arrival": 45360,
      "departure": 45360
    },
    {
      "stop": {
        "id": "2_2843",
        "lat": 48.15835,
        "lon": -1.67217,
        "name": "Nobel",
        "code": 2843
      },
      "arrival": 45420,
      "departure": 45420
    },
    {
      "stop": {
        "id": "2_9207",
        "lat": 48.158008,
        "lon": -1.686607,
        "name": "Champ Daguet",
        "code": 9207
      },
      "arrival": 45540,
      "departure": 45540
    },
    {
      "stop": {
        "id": "2_2812",
        "lat": 48.150852,
        "lon": -1.685834,
        "name": "Forge",
        "code": 2812
      },
      "arrival": 45780,
      "departure": 45780
    },
    {
      "stop": {
        "id": "2_2813",
        "lat": 48.147437,
        "lon": -1.686162,
        "name": "Haut Trait",
        "code": 2813
      },
      "arrival": 45840,
      "departure": 45840
    },
    {
      "stop": {
        "id": "2_2817",
        "lat": 48.143099,
        "lon": -1.686451,
        "name": "CHP Saint-Grégoire",
        "code": 2817
      },
      "arrival": 45900,
      "departure": 45900
    },
    {
      "stop": {
        "id": "2_2815",
        "lat": 48.13715,
        "lon": -1.686401,
        "name": "La Plesse",
        "code": 2815
      },
      "arrival": 45960,
      "departure": 45960
    },
    {
      "stop": {
        "id": "2_1328",
        "lat": 48.133338,
        "lon": -1.685372,
        "name": "Lycée Mendès France",
        "code": 1328
      },
      "arrival": 46020,
      "departure": 46020
    },
    {
      "stop": {
        "id": "2_1040",
        "lat": 48.130069,
        "lon": -1.684377,
        "name": "Donelière",
        "code": 1040
      },
      "arrival": 46080,
      "departure": 46080
    },
    {
      "stop": {
        "id": "2_1101",
        "lat": 48.127266,
        "lon": -1.68326,
        "name": "Trois Croix",
        "code": 1101
      },
      "arrival": 46140,
      "departure": 46140
    },
    {
      "stop": {
        "id": "2_1042",
        "lat": 48.124255,
        "lon": -1.681766,
        "name": "Cimetière Nord",
        "code": 1042
      },
      "arrival": 46200,
      "departure": 46200
    },
    {
      "stop": {
        "id": "2_1043",
        "lat": 48.123614,
        "lon": -1.684238,
        "name": "Saint-Martin",
        "code": 1043
      },
      "arrival": 46260,
      "departure": 46260
    },
    {
      "stop": {
        "id": "2_1329",
        "lat": 48.12158,
        "lon": -1.683279,
        "name": "Lenoir",
        "code": 1329
      },
      "arrival": 46320,
      "departure": 46320
    },
    {
      "stop": {
        "id": "2_1330",
        "lat": 48.120357,
        "lon": -1.681603,
        "name": "Auberge de Jeunesse",
        "code": 1330
      },
      "arrival": 46380,
      "departure": 46380
    },
    {
      "stop": {
        "id": "2_1331",
        "lat": 48.118043,
        "lon": -1.680797,
        "name": "Square de la Rance",
        "code": 1331
      },
      "arrival": 46440,
      "departure": 46440
    },
    {
      "stop": {
        "id": "2_1027",
        "lat": 48.117163,
        "lon": -1.677351,
        "name": "Hôtel Dieu",
        "code": 1027
      },
      "arrival": 46500,
      "departure": 46500
    },
    {
      "stop": {
        "id": "2_1555",
        "lat": 48.113304,
        "lon": -1.675306,
        "name": "Fossés",
        "code": 1555
      },
      "arrival": 46620,
      "departure": 46620
    },
    {
      "stop": {
        "id": "2_1507",
        "lat": 48.109339,
        "lon": -1.675124,
        "name": "Lycée Zola",
        "code": 1507
      },
      "arrival": 46740,
      "departure": 46740
    },
    {
      "stop": {
        "id": "2_1556",
        "lat": 48.1094,
        "lon": -1.677626,
        "name": "République",
        "code": 1556
      },
      "arrival": 46800,
      "departure": 46800
    },
    {
      "stop": {
        "id": "2_1121",
        "lat": 48.106067,
        "lon": -1.677817,
        "name": "Charles de Gaulle",
        "code": 1121
      },
      "arrival": 46920,
      "departure": 46920
    },
    {
      "stop": {
        "id": "2_1122",
        "lat": 48.103006,
        "lon": -1.676882,
        "name": "Gare Sud Féval",
        "code": 1122
      },
      "arrival": 46980,
      "departure": 46980
    },
    {
      "stop": {
        "id": "2_1123",
        "lat": 48.099181,
        "lon": -1.675756,
        "name": "Ginguené",
        "code": 1123
      },
      "arrival": 47040,
      "departure": 47040
    },
    {
      "stop": {
        "id": "2_1140",
        "lat": 48.097367,
        "lon": -1.674854,
        "name": "Jacques Cartier",
        "code": 1140
      },
      "arrival": 47100,
      "departure": 47100
    },
    {
      "stop": {
        "id": "2_1334",
        "lat": 48.097716,
        "lon": -1.6713,
        "name": "Châtillon",
        "code": 1334
      },
      "arrival": 47160,
      "departure": 47160
    },
    {
      "stop": {
        "id": "2_1335",
        "lat": 48.097705,
        "lon": -1.6684,
        "name": "Ormeaux",
        "code": 1335
      },
      "arrival": 47220,
      "departure": 47220
    },
    {
      "stop": {
        "id": "2_1336",
        "lat": 48.097982,
        "lon": -1.666405,
        "name": "Bigot de Préameneu",
        "code": 1336
      },
      "arrival": 47220,
      "departure": 47220
    },
    {
      "stop": {
        "id": "2_1337",
        "lat": 48.097532,
        "lon": -1.66289,
        "name": "Sainte-Thérèse",
        "code": 1337
      },
      "arrival": 47280,
      "departure": 47280
    },
    {
      "stop": {
        "id": "2_1338",
        "lat": 48.09502,
        "lon": -1.661622,
        "name": "Leray",
        "code": 1338
      },
      "arrival": 47340,
      "departure": 47340
    },
    {
      "stop": {
        "id": "2_1339",
        "lat": 48.094676,
        "lon": -1.658629,
        "name": "Langevin",
        "code": 1339
      },
      "arrival": 47400,
      "departure": 47400
    },
    {
      "stop": {
        "id": "2_1340",
        "lat": 48.091996,
        "lon": -1.658498,
        "name": "Gide",
        "code": 1340
      },
      "arrival": 47460,
      "departure": 47460
    },
    {
      "stop": {
        "id": "2_1341",
        "lat": 48.091222,
        "lon": -1.654578,
        "name": "Landrel",
        "code": 1341
      },
      "arrival": 47520,
      "departure": 47520
    },
    {
      "stop": {
        "id": "2_1342",
        "lat": 48.091175,
        "lon": -1.651756,
        "name": "Pologne",
        "code": 1342
      },
      "arrival": 47520,
      "departure": 47520
    },
    {
      "stop": {
        "id": "2_1356",
        "lat": 48.087458,
        "lon": -1.649853,
        "name": "Galicie",
        "code": 1356
      },
      "arrival": 47580,
      "departure": 47580
    },
    {
      "stop": {
        "id": "2_1343",
        "lat": 48.087643,
        "lon": -1.645966,
        "name": "La Poterie",
        "code": 1343
      },
      "arrival": 47700,
      "departure": 47700
    }
  ],
  "route": {
    "id": "2_0008",
    "textColor": "FFFFFF",
    "color": "B966A2",
    "description": "Majeure",
    "longName": "Saint-Grégoire \u003c\u003e Rennes (La Poterie)",
    "shortName": "8",
    "type": 3,
    "agencyId": "2"
  }
}