{
  "headsign": "9 | Saint-Laurent",
  "stopTimes": [
    {
      "stop": {
        "id": "2_1390",
        "lat": 48.104175,
        "lon": -1.713394,
        "name": "Cleunay",
        "code": 1390
      },
      "arrival": 79620,
      "departure": 79620
    },
    {
      "stop": {
        "id": "2_1391",
        "lat": 48.101056,
        "lon": -1.711799,
        "name": "Clinique La Sagesse",
        "code": 1391
      },
      "arrival": 79740,
      "departure": 79740
    },
    {
      "stop": {
        "id": "2_1388",
        "lat": 48.099353,
        "lon": -1.711217,
        "name": "Montand",
        "code": 1388
      },
      "arrival": 79740,
      "departure": 79740
    },
    {
      "stop": {
        "id": "2_1393",
        "lat": 48.097814,
        "lon": -1.707641,
        "name": "Récipon",
        "code": 1393
      },
      "arrival": 79800,
      "departure": 79800
    },
    {
      "stop": {
        "id": "2_1394",
        "lat": 48.099043,
        "lon": -1.705513,
        "name": "Guérinais",
        "code": 1394
      },
      "arrival": 79860,
      "departure": 79860
    },
    {
      "stop": {
        "id": "2_1395",
        "lat": 48.101013,
        "lon": -1.706956,
        "name": "De Lesseps",
        "code": 1395
      },
      "arrival": 79920,
      "departure": 79920
    },
    {
      "stop": {
        "id": "2_1396",
        "lat": 48.102182,
        "lon": -1.705063,
        "name": "Champion de Cicé",
        "code": 1396
      },
      "arrival": 79980,
      "departure": 79980
    },
    {
      "stop": {
        "id": "2_1383",
        "lat": 48.103589,
        "lon": -1.700048,
        "name": "Dargent",
        "code": 1383
      },
      "arrival": 80040,
      "departure": 80040
    },
    {
      "stop": {
        "id": "2_1382",
        "lat": 48.105074,
        "lon": -1.698818,
        "name": "Voltaire",
        "code": 1382
      },
      "arrival": 80100,
      "departure": 80100
    },
    {
      "stop": {
        "id": "2_1399",
        "lat": 48.105015,
        "lon": -1.69546,
        "name": "Malakoff",
        "code": 1399
      },
      "arrival": 80160,
      "departure": 80160
    },
    {
      "stop": {
        "id": "2_1612",
        "lat": 48.103539,
        "lon": -1.688429,
        "name": "Saint-Conwoïon",
        "code": 1612
      },
      "arrival": 80280,
      "departure": 80280
    },
    {
      "stop": {
        "id": "2_1401",
        "lat": 48.105574,
        "lon": -1.687728,
        "name": "Redon",
        "code": 1401
      },
      "arrival": 80340,
      "departure": 80340
    },
    {
      "stop": {
        "id": "2_1021",
        "lat": 48.105444,
        "lon": -1.684005,
        "name": "Cité Judiciaire",
        "code": 1021
      },
      "arrival": 80400,
      "departure": 80400
    },
    {
      "stop": {
        "id": "2_1022",
        "lat": 48.106222,
        "lon": -1.680736,
        "name": "Plélo Colombier",
        "code": 1022
      },
      "arrival": 80520,
      "departure": 80520
    },
    {
      "stop": {
        "id": "2_1023",
        "lat": 48.108066,
        "lon": -1.680048,
        "name": "Les Halles",
        "code": 1023
      },
      "arrival": 80580,
      "departure": 80580
    },
    {
      "stop": {
        "id": "2_1016",
        "lat": 48.110073,
        "lon": -1.680101,
        "name": "République Nemours",
        "code": 1016
      },
      "arrival": 80700,
      "departure": 81000
    },
    {
      "stop": {
        "id": "2_1025",
        "lat": 48.112738,
        "lon": -1.680211,
        "name": "Champ Jacquet",
        "code": 1025
      },
      "arrival": 81120,
      "departure": 81120
    },
    {
      "stop": {
        "id": "2_1026",
        "lat": 48.11482,
        "lon": -1.679242,
        "name": "Sainte-Anne",
        "code": 1026
      },
      "arrival": 81180,
      "departure": 81180
    },
    {
      "stop": {
        "id": "2_1027",
        "lat": 48.117163,
        "lon": -1.677351,
        "name": "Hôtel Dieu",
        "code": 1027
      },
      "arrival": 81300,
      "departure": 81300
    },
    {
      "stop": {
        "id": "2_1028",
        "lat": 48.117513,
        "lon": -1.673538,
        "name": "Sévigné",
        "code": 1028
      },
      "arrival": 81360,
      "departure": 81360
    },
    {
      "stop": {
        "id": "2_1029",
        "lat": 48.118281,
        "lon": -1.669591,
        "name": "Fac de Droit",
        "code": 1029
      },
      "arrival": 81420,
      "departure": 81420
    },
    {
      "stop": {
        "id": "2_1030",
        "lat": 48.119572,
        "lon": -1.666629,
        "name": "Guéhenno",
        "code": 1030
      },
      "arrival": 81480,
      "departure": 81480
    },
    {
      "stop": {
        "id": "2_1031",
        "lat": 48.121987,
        "lon": -1.662185,
        "name": "Metz Volney",
        "code": 1031
      },
      "arrival": 81540,
      "departure": 81540
    },
    {
      "stop": {
        "id": "2_1403",
        "lat": 48.125211,
        "lon": -1.66096,
        "name": "Saint-Exupéry",
        "code": 1403
      },
      "arrival": 81600,
      "departure": 81600
    },
    {
      "stop": {
        "id": "2_1404",
        "lat": 48.126712,
        "lon": -1.658487,
        "name": "Trégain",
        "code": 1404
      },
      "arrival": 81660,
      "departure": 81660
    },
    {
      "stop": {
        "id": "2_1405",
        "lat": 48.128416,
        "lon": -1.657061,
        "name": "Europe",
        "code": 1405
      },
      "arrival": 81720,
      "departure": 81720
    },
    {
      "stop": {
        "id": "2_1406",
        "lat": 48.130876,
        "lon": -1.656445,
        "name": "Gast",
        "code": 1406
      },
      "arrival": 81780,
      "departure": 81780
    },
    {
      "stop": {
        "id": "2_1407",
        "lat": 48.133129,
        "lon": -1.656626,
        "name": "Longs Prés",
        "code": 1407
      },
      "arrival": 81780,
      "departure": 81780
    },
    {
      "stop": {
        "id": "2_1373",
        "lat": 48.135248,
        "lon": -1.65936,
        "name": "Hôtel de Région",
        "code": 1373
      },
      "arrival": 81840,
      "departure": 81840
    },
    {
      "stop": {
        "id": "2_1372",
        "lat": 48.138364,
        "lon": -1.659181,
        "name": "Saint-Laurent",
        "code": 1372
      },
      "arrival": 81960,
      "departure": 81960
    }
  ],
  "route": {
    "id": "2_0009",
    "textColor": "FFFFFF",
    "color": "00519E",
    "description": "Majeure",
    "longName": "Saint-Laurent \u003c\u003e Cleunay",
    "shortName": "9",
    "type": 3,
    "agencyId": "2"
  }
}