{
  "headsign": "90 | Saint-Jacques Morinais",
  "stopTimes": [
    {
      "stop": {
        "id": "2_1447",
        "lat": 48.08731589,
        "lon": -1.6750163,
        "name": "Henri Fréville",
        "code": 1447
      },
      "arrival": 25500,
      "departure": 25500
    },
    {
      "stop": {
        "id": "2_2217",
        "lat": 48.09062505,
        "lon": -1.69500771,
        "name": "25 Fusillés",
        "code": 2217
      },
      "arrival": 25740,
      "departure": 25740
    },
    {
      "stop": {
        "id": "2_2231",
        "lat": 48.08691375,
        "lon": -1.70659822,
        "name": "Gaité",
        "code": 2231
      },
      "arrival": 25920,
      "departure": 25920
    },
    {
      "stop": {
        "id": "2_2251",
        "lat": 48.08662772,
        "lon": -1.7130712,
        "name": "Maffeys",
        "code": 2251
      },
      "arrival": 25980,
      "departure": 25980
    },
    {
      "stop": {
        "id": "2_2250",
        "lat": 48.08669367,
        "lon": -1.7219974,
        "name": "Reuzerais",
        "code": 2250
      },
      "arrival": 26040,
      "departure": 26040
    },
    {
      "stop": {
        "id": "2_2254",
        "lat": 48.08380838,
        "lon": -1.73009441,
        "name": "Le Pâtis",
        "code": 2254
      },
      "arrival": 26160,
      "departure": 26160
    },
    {
      "stop": {
        "id": "2_2255",
        "lat": 48.07927938,
        "lon": -1.73326336,
        "name": "Bellevue",
        "code": 2255
      },
      "arrival": 26220,
      "departure": 26220
    },
    {
      "stop": {
        "id": "2_2268",
        "lat": 48.07507222,
        "lon": -1.72879481,
        "name": "Auriol",
        "code": 2268
      },
      "arrival": 26340,
      "departure": 26340
    },
    {
      "stop": {
        "id": "2_2201",
        "lat": 48.07546225,
        "lon": -1.71635318,
        "name": "Morinais",
        "code": 2201
      },
      "arrival": 26460,
      "departure": 26460
    }
  ],
  "route": {
    "id": "2_0090",
    "textColor": "df171c",
    "color": "8fc255",
    "description": "Intercommunale",
    "longName": "Rennes (Henri Fréville) \u003c\u003e Saint-Jacques-de-la-Lande",
    "shortName": "90",
    "type": 3,
    "agencyId": "2"
  }
}