{
  "headsign": "32 | Triangle",
  "stopTimes": [
    {
      "stop": {
        "id": "2_1290",
        "lat": 48.12688601,
        "lon": -1.62954442,
        "name": "Clos Courtel",
        "code": 1290
      },
      "arrival": 56400,
      "departure": 56400
    },
    {
      "stop": {
        "id": "2_1291",
        "lat": 48.12475494,
        "lon": -1.63388412,
        "name": "IUT",
        "code": 1291
      },
      "arrival": 56460,
      "departure": 56460
    },
    {
      "stop": {
        "id": "2_1292",
        "lat": 48.12145018,
        "lon": -1.63814809,
        "name": "Beaulieu Restau. U.",
        "code": 1292
      },
      "arrival": 56580,
      "departure": 56580
    },
    {
      "stop": {
        "id": "2_1176",
        "lat": 48.11901733,
        "lon": -1.63514782,
        "name": "Beaulieu INSA",
        "code": 1176
      },
      "arrival": 56640,
      "departure": 56640
    },
    {
      "stop": {
        "id": "2_1312",
        "lat": 48.1166495,
        "lon": -1.63393042,
        "name": "Beaulieu Chimie",
        "code": 1312
      },
      "arrival": 56700,
      "departure": 56700
    },
    {
      "stop": {
        "id": "2_1160",
        "lat": 48.11406412,
        "lon": -1.63761839,
        "name": "Tournebride",
        "code": 1160
      },
      "arrival": 56760,
      "departure": 56760
    },
    {
      "stop": {
        "id": "2_1528",
        "lat": 48.11399429,
        "lon": -1.64435828,
        "name": "Piletière",
        "code": 1528
      },
      "arrival": 56880,
      "departure": 56880
    },
    {
      "stop": {
        "id": "2_1527",
        "lat": 48.11433481,
        "lon": -1.64920718,
        "name": "Moulin de Joué",
        "code": 1527
      },
      "arrival": 56940,
      "departure": 56940
    },
    {
      "stop": {
        "id": "2_1526",
        "lat": 48.11479096,
        "lon": -1.65317793,
        "name": "Hôpital Régnier",
        "code": 1526
      },
      "arrival": 56940,
      "departure": 56940
    },
    {
      "stop": {
        "id": "2_1474",
        "lat": 48.11351559,
        "lon": -1.65671606,
        "name": "Durafour Strasbourg",
        "code": 1474
      },
      "arrival": 57000,
      "departure": 57000
    },
    {
      "stop": {
        "id": "2_1434",
        "lat": 48.10936608,
        "lon": -1.65519006,
        "name": "Pont de Strasbourg",
        "code": 1434
      },
      "arrival": 57120,
      "departure": 57120
    },
    {
      "stop": {
        "id": "2_1435",
        "lat": 48.10569627,
        "lon": -1.6506541,
        "name": "Chardonnet",
        "code": 1435
      },
      "arrival": 57180,
      "departure": 57180
    },
    {
      "stop": {
        "id": "2_1436",
        "lat": 48.10363132,
        "lon": -1.64975904,
        "name": "Cimetière de l\u0027Est",
        "code": 1436
      },
      "arrival": 57240,
      "departure": 57240
    },
    {
      "stop": {
        "id": "2_1437",
        "lat": 48.10076528,
        "lon": -1.64980227,
        "name": "Villebois-Mareuil",
        "code": 1437
      },
      "arrival": 57300,
      "departure": 57300
    },
    {
      "stop": {
        "id": "2_1438",
        "lat": 48.09922271,
        "lon": -1.65285037,
        "name": "Le Dantec",
        "code": 1438
      },
      "arrival": 57360,
      "departure": 57360
    },
    {
      "stop": {
        "id": "2_1560",
        "lat": 48.0977884,
        "lon": -1.65664596,
        "name": "Bourgeois",
        "code": 1560
      },
      "arrival": 57420,
      "departure": 57420
    },
    {
      "stop": {
        "id": "2_1561",
        "lat": 48.09601273,
        "lon": -1.65801002,
        "name": "Langevin",
        "code": 1561
      },
      "arrival": 57480,
      "departure": 57480
    },
    {
      "stop": {
        "id": "2_1340",
        "lat": 48.09203054,
        "lon": -1.65841246,
        "name": "Gide",
        "code": 1340
      },
      "arrival": 57540,
      "departure": 57540
    },
    {
      "stop": {
        "id": "2_1554",
        "lat": 48.09073426,
        "lon": -1.66120535,
        "name": "Binquenais Le Moine",
        "code": 1554
      },
      "arrival": 57600,
      "departure": 57600
    },
    {
      "stop": {
        "id": "2_1465",
        "lat": 48.08611757,
        "lon": -1.66106774,
        "name": "Triangle",
        "code": 1465
      },
      "arrival": 57720,
      "departure": 57720
    }
  ],
  "route": {
    "id": "2_0032",
    "textColor": "df171c",
    "color": "fef466",
    "description": "Inter-quartiers",
    "longName": "Triangle \u003c\u003e Beaulieu Atalante",
    "shortName": "32",
    "type": 3,
    "agencyId": "2"
  }
}