{
  "headsign": "94 | Betton Centre",
  "stopTimes": [
    {
      "stop": {
        "id": "2_3951",
        "lat": 48.22528095,
        "lon": -1.57037306,
        "name": "Cropy",
        "code": 3951
      },
      "arrival": 34260,
      "departure": 34260
    },
    {
      "stop": {
        "id": "2_3952",
        "lat": 48.223221,
        "lon": -1.5763179,
        "name": "Chesnais",
        "code": 3952
      },
      "arrival": 34320,
      "departure": 34320
    },
    {
      "stop": {
        "id": "2_3953",
        "lat": 48.21792113,
        "lon": -1.58142255,
        "name": "Bourg",
        "code": 3953
      },
      "arrival": 34380,
      "departure": 34380
    },
    {
      "stop": {
        "id": "2_3960",
        "lat": 48.2146956,
        "lon": -1.58674396,
        "name": "Terrain des Sports",
        "code": 3960
      },
      "arrival": 34440,
      "departure": 34440
    },
    {
      "stop": {
        "id": "2_3955",
        "lat": 48.21169143,
        "lon": -1.59075734,
        "name": "Tronchay",
        "code": 3955
      },
      "arrival": 34500,
      "departure": 34500
    },
    {
      "stop": {
        "id": "2_4604",
        "lat": 48.21008789,
        "lon": -1.62587418,
        "name": "Pommiers",
        "code": 4604
      },
      "arrival": 34800,
      "departure": 34800
    },
    {
      "stop": {
        "id": "2_4605",
        "lat": 48.21442422,
        "lon": -1.62878295,
        "name": "Fonderies",
        "code": 4605
      },
      "arrival": 34920,
      "departure": 34920
    },
    {
      "stop": {
        "id": "2_4606",
        "lat": 48.21193255,
        "lon": -1.63026334,
        "name": "Chevaigné Mairie",
        "code": 4606
      },
      "arrival": 34980,
      "departure": 34980
    },
    {
      "stop": {
        "id": "2_4607",
        "lat": 48.20764802,
        "lon": -1.63080398,
        "name": "Chevaigné Gare",
        "code": 4607
      },
      "arrival": 35040,
      "departure": 35040
    },
    {
      "stop": {
        "id": "2_4609",
        "lat": 48.19917578,
        "lon": -1.62757919,
        "name": "Chopinais",
        "code": 4609
      },
      "arrival": 35160,
      "departure": 35160
    },
    {
      "stop": {
        "id": "2_2451",
        "lat": 48.19085557,
        "lon": -1.62920813,
        "name": "Gentilhommière",
        "code": 2451
      },
      "arrival": 35280,
      "departure": 35280
    },
    {
      "stop": {
        "id": "2_2432",
        "lat": 48.18633047,
        "lon": -1.63325395,
        "name": "J. Sébastien Bach",
        "code": 2432
      },
      "arrival": 35400,
      "departure": 35400
    },
    {
      "stop": {
        "id": "2_2431",
        "lat": 48.18305974,
        "lon": -1.63721735,
        "name": "Mozart",
        "code": 2431
      },
      "arrival": 35460,
      "departure": 35460
    },
    {
      "stop": {
        "id": "2_2406",
        "lat": 48.18119826,
        "lon": -1.6380241,
        "name": "Betton Centre",
        "code": 2406
      },
      "arrival": 35520,
      "departure": 35520
    }
  ],
  "route": {
    "id": "2_0094",
    "textColor": "1A171B",
    "color": "AECC52",
    "description": "Intercommunale",
    "longName": "Saint-Sulpice-la-Forêt / Chevaigné \u003c\u003e Betton (Centre)",
    "shortName": "94",
    "type": 3,
    "agencyId": "2"
  }
}