{
  "headsign": "6 | Cesson-Sévigné Rigourdière",
  "stopTimes": [
    {
      "stop": {
        "id": "2_2201",
        "lat": 48.07546226,
        "lon": -1.71635318,
        "name": "Morinais",
        "code": 2201
      },
      "arrival": 47700,
      "departure": 47700
    },
    {
      "stop": {
        "id": "2_2202",
        "lat": 48.07734959,
        "lon": -1.71582209,
        "name": "Collège Jean Moulin",
        "code": 2202
      },
      "arrival": 47760,
      "departure": 47760
    },
    {
      "stop": {
        "id": "2_2214",
        "lat": 48.07988244,
        "lon": -1.71560415,
        "name": "Médiathèque",
        "code": 2214
      },
      "arrival": 47820,
      "departure": 47820
    },
    {
      "stop": {
        "id": "2_2204",
        "lat": 48.08256009,
        "lon": -1.71537221,
        "name": "Jean Marin",
        "code": 2204
      },
      "arrival": 47880,
      "departure": 47880
    },
    {
      "stop": {
        "id": "2_2263",
        "lat": 48.08257363,
        "lon": -1.71233295,
        "name": "Jean Jaurès",
        "code": 2263
      },
      "arrival": 47940,
      "departure": 47940
    },
    {
      "stop": {
        "id": "2_2205",
        "lat": 48.08320903,
        "lon": -1.71019669,
        "name": "Blosne",
        "code": 2205
      },
      "arrival": 47940,
      "departure": 47940
    },
    {
      "stop": {
        "id": "2_2206",
        "lat": 48.08751801,
        "lon": -1.70704222,
        "name": "Gaité",
        "code": 2206
      },
      "arrival": 48060,
      "departure": 48060
    },
    {
      "stop": {
        "id": "2_2258",
        "lat": 48.09350731,
        "lon": -1.70438279,
        "name": "Dominos",
        "code": 2258
      },
      "arrival": 48180,
      "departure": 48180
    },
    {
      "stop": {
        "id": "2_1588",
        "lat": 48.0980357,
        "lon": -1.70376856,
        "name": "Jules Maniez",
        "code": 1588
      },
      "arrival": 48360,
      "departure": 48360
    },
    {
      "stop": {
        "id": "2_1570",
        "lat": 48.098484,
        "lon": -1.69753316,
        "name": "Cœur de Courrouze",
        "code": 1570
      },
      "arrival": 48420,
      "departure": 48420
    },
    {
      "stop": {
        "id": "2_1590",
        "lat": 48.09891225,
        "lon": -1.69355023,
        "name": "Jules Verne",
        "code": 1590
      },
      "arrival": 48480,
      "departure": 48480
    },
    {
      "stop": {
        "id": "2_1612",
        "lat": 48.10354601,
        "lon": -1.6884609,
        "name": "Saint-Conwoïon",
        "code": 1612
      },
      "arrival": 48660,
      "departure": 48660
    },
    {
      "stop": {
        "id": "2_1401",
        "lat": 48.10562192,
        "lon": -1.68776692,
        "name": "Redon (ex Inkermann)",
        "code": 1401
      },
      "arrival": 48720,
      "departure": 48720
    },
    {
      "stop": {
        "id": "2_1587",
        "lat": 48.10591411,
        "lon": -1.68447094,
        "name": "Cité Judiciaire",
        "code": 1587
      },
      "arrival": 48780,
      "departure": 48780
    },
    {
      "stop": {
        "id": "2_1091",
        "lat": 48.10977886,
        "lon": -1.68388248,
        "name": "Place de Bretagne",
        "code": 1091
      },
      "arrival": 48900,
      "departure": 48900
    },
    {
      "stop": {
        "id": "2_1168",
        "lat": 48.10980866,
        "lon": -1.67882417,
        "name": "République",
        "code": 1168
      },
      "arrival": 49080,
      "departure": 49080
    },
    {
      "stop": {
        "id": "2_1169",
        "lat": 48.10985334,
        "lon": -1.67452094,
        "name": "Musée Beaux Arts",
        "code": 1169
      },
      "arrival": 49140,
      "departure": 49140
    },
    {
      "stop": {
        "id": "2_1170",
        "lat": 48.11003344,
        "lon": -1.66907214,
        "name": "Paul Bert",
        "code": 1170
      },
      "arrival": 49260,
      "departure": 49260
    },
    {
      "stop": {
        "id": "2_1171",
        "lat": 48.11006771,
        "lon": -1.66358483,
        "name": "Pont de Châteaudun",
        "code": 1171
      },
      "arrival": 49320,
      "departure": 49320
    },
    {
      "stop": {
        "id": "2_1172",
        "lat": 48.11007924,
        "lon": -1.65919453,
        "name": "Robidou",
        "code": 1172
      },
      "arrival": 49380,
      "departure": 49380
    },
    {
      "stop": {
        "id": "2_1173",
        "lat": 48.11008942,
        "lon": -1.65614253,
        "name": "Pont de Strasbourg",
        "code": 1173
      },
      "arrival": 49440,
      "departure": 49440
    },
    {
      "stop": {
        "id": "2_1174",
        "lat": 48.11246663,
        "lon": -1.64290057,
        "name": "Plaine de Baud",
        "code": 1174
      },
      "arrival": 49560,
      "departure": 49560
    },
    {
      "stop": {
        "id": "2_1604",
        "lat": 48.11354849,
        "lon": -1.64100035,
        "name": "Les Préales",
        "code": 1604
      },
      "arrival": 49620,
      "departure": 49620
    },
    {
      "stop": {
        "id": "2_1610",
        "lat": 48.11406057,
        "lon": -1.63602668,
        "name": "Tournebride",
        "code": 1610
      },
      "arrival": 49740,
      "departure": 49740
    },
    {
      "stop": {
        "id": "2_2019",
        "lat": 48.1140789,
        "lon": -1.62801107,
        "name": "Champs Péans",
        "code": 2019
      },
      "arrival": 49860,
      "departure": 49860
    },
    {
      "stop": {
        "id": "2_2020",
        "lat": 48.11415,
        "lon": -1.62183892,
        "name": "Taillis",
        "code": 2020
      },
      "arrival": 49920,
      "departure": 49920
    },
    {
      "stop": {
        "id": "2_2021",
        "lat": 48.11421456,
        "lon": -1.61375483,
        "name": "Hublais",
        "code": 2021
      },
      "arrival": 50040,
      "departure": 50040
    },
    {
      "stop": {
        "id": "2_2022",
        "lat": 48.11467541,
        "lon": -1.60958194,
        "name": "Place Sévigné",
        "code": 2022
      },
      "arrival": 50100,
      "departure": 50100
    },
    {
      "stop": {
        "id": "2_2023",
        "lat": 48.11604857,
        "lon": -1.60696924,
        "name": "Vilaine",
        "code": 2023
      },
      "arrival": 50160,
      "departure": 50160
    },
    {
      "stop": {
        "id": "2_2024",
        "lat": 48.11832639,
        "lon": -1.60841984,
        "name": "Muguet",
        "code": 2024
      },
      "arrival": 50220,
      "departure": 50220
    },
    {
      "stop": {
        "id": "2_2025",
        "lat": 48.12123195,
        "lon": -1.6099523,
        "name": "Maison d\u0027Accueil",
        "code": 2025
      },
      "arrival": 50280,
      "departure": 50280
    },
    {
      "stop": {
        "id": "2_2026",
        "lat": 48.1227656,
        "lon": -1.61084009,
        "name": "Mare Pavée",
        "code": 2026
      },
      "arrival": 50280,
      "departure": 50280
    },
    {
      "stop": {
        "id": "2_2027",
        "lat": 48.12349148,
        "lon": -1.60818399,
        "name": "Fontenelle",
        "code": 2027
      },
      "arrival": 50340,
      "departure": 50340
    },
    {
      "stop": {
        "id": "2_2028",
        "lat": 48.12353418,
        "lon": -1.60409505,
        "name": "La Coulée",
        "code": 2028
      },
      "arrival": 50400,
      "departure": 50400
    },
    {
      "stop": {
        "id": "2_2029",
        "lat": 48.12314683,
        "lon": -1.60062832,
        "name": "Bourgchevreuil",
        "code": 2029
      },
      "arrival": 50460,
      "departure": 50460
    },
    {
      "stop": {
        "id": "2_2041",
        "lat": 48.12057734,
        "lon": -1.59948907,
        "name": "Cesson Collège",
        "code": 2041
      },
      "arrival": 50520,
      "departure": 50520
    },
    {
      "stop": {
        "id": "2_2051",
        "lat": 48.11583582,
        "lon": -1.60065105,
        "name": "Chalotais",
        "code": 2051
      },
      "arrival": 50580,
      "departure": 50580
    },
    {
      "stop": {
        "id": "2_2086",
        "lat": 48.11430452,
        "lon": -1.60048414,
        "name": "Bordage",
        "code": 2086
      },
      "arrival": 50640,
      "departure": 50640
    },
    {
      "stop": {
        "id": "2_2089",
        "lat": 48.11358949,
        "lon": -1.59050027,
        "name": "Rigourdière",
        "code": 2089
      },
      "arrival": 50760,
      "departure": 50760
    }
  ],
  "route": {
    "id": "2_0006",
    "textColor": "1A171B",
    "color": "62C3D5",
    "description": "Majeure",
    "longName": "Cesson-Sévigné (Rigourdière) \u003c\u003e Saint-Jacques-de-la-Lande (Morinais)",
    "shortName": "6",
    "type": 3,
    "agencyId": "2"
  }
}