{
  "headsign": "1 | Cesson-Sévigné Champs Blancs",
  "stopTimes": [
    {
      "stop": {
        "id": "2_3028",
        "lat": 48.085464,
        "lon": -1.604031,
        "name": "Rosa Parks",
        "code": 3028
      },
      "arrival": 61920,
      "departure": 61920
    },
    {
      "stop": {
        "id": "2_3027",
        "lat": 48.085803,
        "lon": -1.608136,
        "name": "Touche Annette",
        "code": 3027
      },
      "arrival": 61980,
      "departure": 61980
    },
    {
      "stop": {
        "id": "2_3032",
        "lat": 48.085229,
        "lon": -1.610747,
        "name": "Gériatrie",
        "code": 3032
      },
      "arrival": 62040,
      "departure": 62040
    },
    {
      "stop": {
        "id": "2_3002",
        "lat": 48.085765,
        "lon": -1.614047,
        "name": "Deux Ruisseaux",
        "code": 3002
      },
      "arrival": 62100,
      "departure": 62100
    },
    {
      "stop": {
        "id": "2_3003",
        "lat": 48.089145,
        "lon": -1.612576,
        "name": "Bourgogne",
        "code": 3003
      },
      "arrival": 62160,
      "departure": 62160
    },
    {
      "stop": {
        "id": "2_3004",
        "lat": 48.090327,
        "lon": -1.615976,
        "name": "Hallouvry",
        "code": 3004
      },
      "arrival": 62220,
      "departure": 62220
    },
    {
      "stop": {
        "id": "2_3005",
        "lat": 48.088293,
        "lon": -1.61698,
        "name": "Chantepie Eglise",
        "code": 3005
      },
      "arrival": 62280,
      "departure": 62280
    },
    {
      "stop": {
        "id": "2_3006",
        "lat": 48.08848,
        "lon": -1.6192,
        "name": "Chantepie Mairie",
        "code": 3006
      },
      "arrival": 62340,
      "departure": 62340
    },
    {
      "stop": {
        "id": "2_3007",
        "lat": 48.090504,
        "lon": -1.623943,
        "name": "Loges",
        "code": 3007
      },
      "arrival": 62400,
      "departure": 62400
    },
    {
      "stop": {
        "id": "2_1322",
        "lat": 48.094297,
        "lon": -1.634589,
        "name": "Sauvaie",
        "code": 1322
      },
      "arrival": 62580,
      "departure": 62580
    },
    {
      "stop": {
        "id": "2_1323",
        "lat": 48.095474,
        "lon": -1.638069,
        "name": "CARSAT",
        "code": 1323
      },
      "arrival": 62640,
      "departure": 62640
    },
    {
      "stop": {
        "id": "2_1324",
        "lat": 48.09768,
        "lon": -1.642447,
        "name": "Domaine",
        "code": 1324
      },
      "arrival": 62700,
      "departure": 62700
    },
    {
      "stop": {
        "id": "2_1325",
        "lat": 48.099472,
        "lon": -1.646682,
        "name": "Landry",
        "code": 1325
      },
      "arrival": 62760,
      "departure": 62760
    },
    {
      "stop": {
        "id": "2_1470",
        "lat": 48.100631,
        "lon": -1.650392,
        "name": "Villebois-Mareuil",
        "code": 1470
      },
      "arrival": 62820,
      "departure": 62820
    },
    {
      "stop": {
        "id": "2_1327",
        "lat": 48.101402,
        "lon": -1.65357,
        "name": "Raison",
        "code": 1327
      },
      "arrival": 62880,
      "departure": 62880
    },
    {
      "stop": {
        "id": "2_1212",
        "lat": 48.101949,
        "lon": -1.656538,
        "name": "Mouézy",
        "code": 1212
      },
      "arrival": 62940,
      "departure": 62940
    },
    {
      "stop": {
        "id": "2_1213",
        "lat": 48.102902,
        "lon": -1.661403,
        "name": "Croix Saint-Hélier",
        "code": 1213
      },
      "arrival": 63000,
      "departure": 63000
    },
    {
      "stop": {
        "id": "2_1057",
        "lat": 48.104747,
        "lon": -1.667176,
        "name": "Laënnec",
        "code": 1057
      },
      "arrival": 63120,
      "departure": 63120
    },
    {
      "stop": {
        "id": "2_1056",
        "lat": 48.103956,
        "lon": -1.673185,
        "name": "Gares",
        "code": 1056
      },
      "arrival": 63300,
      "departure": 63300
    },
    {
      "stop": {
        "id": "2_1055",
        "lat": 48.106057,
        "lon": -1.67401,
        "name": "Champs Libres",
        "code": 1055
      },
      "arrival": 63420,
      "departure": 63420
    },
    {
      "stop": {
        "id": "2_1054",
        "lat": 48.107564,
        "lon": -1.675176,
        "name": "Liberté TNB",
        "code": 1054
      },
      "arrival": 63480,
      "departure": 63480
    },
    {
      "stop": {
        "id": "2_1023",
        "lat": 48.108066,
        "lon": -1.680048,
        "name": "Les Halles",
        "code": 1023
      },
      "arrival": 63600,
      "departure": 63600
    },
    {
      "stop": {
        "id": "2_1016",
        "lat": 48.110073,
        "lon": -1.680101,
        "name": "République Nemours",
        "code": 1016
      },
      "arrival": 63780,
      "departure": 63780
    },
    {
      "stop": {
        "id": "2_1025",
        "lat": 48.112738,
        "lon": -1.680211,
        "name": "Champ Jacquet",
        "code": 1025
      },
      "arrival": 63900,
      "departure": 63900
    },
    {
      "stop": {
        "id": "2_1026",
        "lat": 48.11482,
        "lon": -1.679242,
        "name": "Sainte-Anne",
        "code": 1026
      },
      "arrival": 64020,
      "departure": 64020
    },
    {
      "stop": {
        "id": "2_1027",
        "lat": 48.117163,
        "lon": -1.677351,
        "name": "Hôtel Dieu",
        "code": 1027
      },
      "arrival": 64140,
      "departure": 64140
    },
    {
      "stop": {
        "id": "2_1028",
        "lat": 48.117513,
        "lon": -1.673538,
        "name": "Sévigné",
        "code": 1028
      },
      "arrival": 64200,
      "departure": 64200
    },
    {
      "stop": {
        "id": "2_1029",
        "lat": 48.118281,
        "lon": -1.669591,
        "name": "Fac de Droit",
        "code": 1029
      },
      "arrival": 64260,
      "departure": 64260
    },
    {
      "stop": {
        "id": "2_1030",
        "lat": 48.119572,
        "lon": -1.666629,
        "name": "Guéhenno",
        "code": 1030
      },
      "arrival": 64320,
      "departure": 64320
    },
    {
      "stop": {
        "id": "2_1031",
        "lat": 48.121987,
        "lon": -1.662185,
        "name": "Metz Volney",
        "code": 1031
      },
      "arrival": 64440,
      "departure": 64440
    },
    {
      "stop": {
        "id": "2_1032",
        "lat": 48.123242,
        "lon": -1.659266,
        "name": "Painlevé",
        "code": 1032
      },
      "arrival": 64500,
      "departure": 64500
    },
    {
      "stop": {
        "id": "2_1033",
        "lat": 48.12128,
        "lon": -1.655029,
        "name": "Assomption",
        "code": 1033
      },
      "arrival": 64620,
      "departure": 64620
    },
    {
      "stop": {
        "id": "2_1034",
        "lat": 48.122185,
        "lon": -1.650619,
        "name": "Turmel",
        "code": 1034
      },
      "arrival": 64680,
      "departure": 64680
    },
    {
      "stop": {
        "id": "2_1035",
        "lat": 48.123677,
        "lon": -1.645158,
        "name": "Mirabeau",
        "code": 1035
      },
      "arrival": 64800,
      "departure": 64800
    },
    {
      "stop": {
        "id": "2_1036",
        "lat": 48.125556,
        "lon": -1.64198,
        "name": "Donzelot",
        "code": 1036
      },
      "arrival": 64860,
      "departure": 64860
    },
    {
      "stop": {
        "id": "2_1037",
        "lat": 48.127801,
        "lon": -1.639871,
        "name": "Gallets",
        "code": 1037
      },
      "arrival": 64920,
      "departure": 64920
    },
    {
      "stop": {
        "id": "2_1038",
        "lat": 48.128209,
        "lon": -1.637118,
        "name": "Bouzat",
        "code": 1038
      },
      "arrival": 64980,
      "departure": 64980
    },
    {
      "stop": {
        "id": "2_1039",
        "lat": 48.128998,
        "lon": -1.63238,
        "name": "Longs Champs",
        "code": 1039
      },
      "arrival": 65040,
      "departure": 65040
    },
    {
      "stop": {
        "id": "2_2003",
        "lat": 48.130071,
        "lon": -1.628026,
        "name": "Cesson Hôpital Privé",
        "code": 2003
      },
      "arrival": 65100,
      "departure": 65100
    },
    {
      "stop": {
        "id": "2_2125",
        "lat": 48.131892,
        "lon": -1.624417,
        "name": "Chêne Germain",
        "code": 2125
      },
      "arrival": 65160,
      "departure": 65160
    },
    {
      "stop": {
        "id": "2_2126",
        "lat": 48.134763,
        "lon": -1.621832,
        "name": "Champs Blancs",
        "code": 2126
      },
      "arrival": 65280,
      "departure": 65280
    }
  ],
  "route": {
    "id": "2_0001",
    "textColor": "1A171B",
    "color": "97BF0D",
    "description": "Majeure",
    "longName": "Cesson-Sévigné (Champs Blancs) \u003c\u003e Chantepie (Rosa Parks)",
    "shortName": "1",
    "type": 3,
    "agencyId": "2"
  }
}