{
  "headsign": "8 | Saint-Grégoire Champ Daguet",
  "stopTimes": [
    {
      "stop": {
        "id": "2_1343",
        "lat": 48.08761374,
        "lon": -1.64610727,
        "name": "La Poterie",
        "code": 1343
      },
      "arrival": 34020,
      "departure": 34020
    },
    {
      "stop": {
        "id": "2_1344",
        "lat": 48.0876653,
        "lon": -1.65003592,
        "name": "Galicie",
        "code": 1344
      },
      "arrival": 34080,
      "departure": 34080
    },
    {
      "stop": {
        "id": "2_1358",
        "lat": 48.09136825,
        "lon": -1.65190911,
        "name": "Pologne",
        "code": 1358
      },
      "arrival": 34200,
      "departure": 34200
    },
    {
      "stop": {
        "id": "2_1359",
        "lat": 48.09143755,
        "lon": -1.6556288,
        "name": "Landrel",
        "code": 1359
      },
      "arrival": 34200,
      "departure": 34200
    },
    {
      "stop": {
        "id": "2_1360",
        "lat": 48.09241999,
        "lon": -1.65836606,
        "name": "Gide",
        "code": 1360
      },
      "arrival": 34260,
      "departure": 34260
    },
    {
      "stop": {
        "id": "2_1361",
        "lat": 48.09421028,
        "lon": -1.65822788,
        "name": "Langevin",
        "code": 1361
      },
      "arrival": 34320,
      "departure": 34320
    },
    {
      "stop": {
        "id": "2_1362",
        "lat": 48.09508001,
        "lon": -1.661534,
        "name": "Leray",
        "code": 1362
      },
      "arrival": 34380,
      "departure": 34380
    },
    {
      "stop": {
        "id": "2_1363",
        "lat": 48.09744233,
        "lon": -1.66265748,
        "name": "Sainte-Thérèse",
        "code": 1363
      },
      "arrival": 34440,
      "departure": 34440
    },
    {
      "stop": {
        "id": "2_1364",
        "lat": 48.09802421,
        "lon": -1.6670823,
        "name": "Bigot de Préameneu",
        "code": 1364
      },
      "arrival": 34560,
      "departure": 34560
    },
    {
      "stop": {
        "id": "2_1365",
        "lat": 48.09771617,
        "lon": -1.6691678,
        "name": "Ormeaux",
        "code": 1365
      },
      "arrival": 34560,
      "departure": 34560
    },
    {
      "stop": {
        "id": "2_1366",
        "lat": 48.09775635,
        "lon": -1.67110913,
        "name": "Châtillon",
        "code": 1366
      },
      "arrival": 34620,
      "departure": 34620
    },
    {
      "stop": {
        "id": "2_1333",
        "lat": 48.09774726,
        "lon": -1.67519921,
        "name": "Jacques Cartier",
        "code": 1333
      },
      "arrival": 34740,
      "departure": 34740
    },
    {
      "stop": {
        "id": "2_1141",
        "lat": 48.09927815,
        "lon": -1.67561799,
        "name": "Ginguené",
        "code": 1141
      },
      "arrival": 34740,
      "departure": 34740
    },
    {
      "stop": {
        "id": "2_1142",
        "lat": 48.10204067,
        "lon": -1.67395497,
        "name": "Gare Sud Féval",
        "code": 1142
      },
      "arrival": 34860,
      "departure": 34860
    },
    {
      "stop": {
        "id": "2_1143",
        "lat": 48.10608092,
        "lon": -1.67760115,
        "name": "Charles de Gaulle",
        "code": 1143
      },
      "arrival": 34980,
      "departure": 34980
    },
    {
      "stop": {
        "id": "2_1144",
        "lat": 48.11006929,
        "lon": -1.67780478,
        "name": "République Jaurès",
        "code": 1144
      },
      "arrival": 35160,
      "departure": 35160
    },
    {
      "stop": {
        "id": "2_1367",
        "lat": 48.11097991,
        "lon": -1.67952017,
        "name": "Rennes Mairie",
        "code": 1367
      },
      "arrival": 35220,
      "departure": 35220
    },
    {
      "stop": {
        "id": "2_1025",
        "lat": 48.11273566,
        "lon": -1.68025817,
        "name": "Champ Jacquet",
        "code": 1025
      },
      "arrival": 35340,
      "departure": 35340
    },
    {
      "stop": {
        "id": "2_1026",
        "lat": 48.11478452,
        "lon": -1.67927843,
        "name": "Sainte-Anne",
        "code": 1026
      },
      "arrival": 35460,
      "departure": 35460
    },
    {
      "stop": {
        "id": "2_1183",
        "lat": 48.11732292,
        "lon": -1.67882557,
        "name": "Hôtel Dieu",
        "code": 1183
      },
      "arrival": 35580,
      "departure": 35580
    },
    {
      "stop": {
        "id": "2_1368",
        "lat": 48.11837352,
        "lon": -1.68060609,
        "name": "Square de la Rance",
        "code": 1368
      },
      "arrival": 35640,
      "departure": 35640
    },
    {
      "stop": {
        "id": "2_1369",
        "lat": 48.12026611,
        "lon": -1.68107001,
        "name": "Auberge de Jeunesse",
        "code": 1369
      },
      "arrival": 35700,
      "departure": 35700
    },
    {
      "stop": {
        "id": "2_1370",
        "lat": 48.1220216,
        "lon": -1.68362206,
        "name": "Lenoir",
        "code": 1370
      },
      "arrival": 35760,
      "departure": 35760
    },
    {
      "stop": {
        "id": "2_1099",
        "lat": 48.12361631,
        "lon": -1.68364233,
        "name": "Saint-Martin",
        "code": 1099
      },
      "arrival": 35820,
      "departure": 35820
    },
    {
      "stop": {
        "id": "2_1100",
        "lat": 48.12493529,
        "lon": -1.68198209,
        "name": "Cimetière Nord",
        "code": 1100
      },
      "arrival": 35880,
      "departure": 35880
    },
    {
      "stop": {
        "id": "2_1041",
        "lat": 48.12884166,
        "lon": -1.68371536,
        "name": "Trois Croix",
        "code": 1041
      },
      "arrival": 35940,
      "departure": 35940
    },
    {
      "stop": {
        "id": "2_1102",
        "lat": 48.13115995,
        "lon": -1.68458083,
        "name": "Donelière",
        "code": 1102
      },
      "arrival": 36000,
      "departure": 36000
    },
    {
      "stop": {
        "id": "2_1371",
        "lat": 48.13300291,
        "lon": -1.68506819,
        "name": "Lycée Mendès France",
        "code": 1371
      },
      "arrival": 36000,
      "departure": 36000
    },
    {
      "stop": {
        "id": "2_2816",
        "lat": 48.13819857,
        "lon": -1.68643094,
        "name": "La Plesse",
        "code": 2816
      },
      "arrival": 36120,
      "departure": 36120
    },
    {
      "stop": {
        "id": "2_2814",
        "lat": 48.14290311,
        "lon": -1.68658457,
        "name": "CHP Saint-Grégoire",
        "code": 2814
      },
      "arrival": 36180,
      "departure": 36180
    },
    {
      "stop": {
        "id": "2_2818",
        "lat": 48.14687018,
        "lon": -1.68620414,
        "name": "Haut Trait",
        "code": 2818
      },
      "arrival": 36300,
      "departure": 36300
    },
    {
      "stop": {
        "id": "2_2819",
        "lat": 48.15139757,
        "lon": -1.68591914,
        "name": "Forge",
        "code": 2819
      },
      "arrival": 36360,
      "departure": 36360
    },
    {
      "stop": {
        "id": "2_2820",
        "lat": 48.15144554,
        "lon": -1.69128473,
        "name": "Cité des Jardins",
        "code": 2820
      },
      "arrival": 36420,
      "departure": 36420
    },
    {
      "stop": {
        "id": "2_2810",
        "lat": 48.15366868,
        "lon": -1.69204814,
        "name": "Paul-Emile Victor",
        "code": 2810
      },
      "arrival": 36480,
      "departure": 36480
    },
    {
      "stop": {
        "id": "2_2822",
        "lat": 48.15471175,
        "lon": -1.68670333,
        "name": "Discalceat",
        "code": 2822
      },
      "arrival": 36600,
      "departure": 36600
    },
    {
      "stop": {
        "id": "2_2836",
        "lat": 48.15696733,
        "lon": -1.68730287,
        "name": "Uttenreuth",
        "code": 2836
      },
      "arrival": 36660,
      "departure": 36660
    },
    {
      "stop": {
        "id": "2_2824",
        "lat": 48.15890154,
        "lon": -1.68514162,
        "name": "Vivier Louis",
        "code": 2824
      },
      "arrival": 36720,
      "departure": 36720
    },
    {
      "stop": {
        "id": "2_2825",
        "lat": 48.15914517,
        "lon": -1.68081392,
        "name": "Camus",
        "code": 2825
      },
      "arrival": 36720,
      "departure": 36720
    },
    {
      "stop": {
        "id": "2_2846",
        "lat": 48.15901805,
        "lon": -1.6763334,
        "name": "Ricoquais",
        "code": 2846
      },
      "arrival": 36780,
      "departure": 36780
    },
    {
      "stop": {
        "id": "2_2843",
        "lat": 48.15834695,
        "lon": -1.67212808,
        "name": "Nobel",
        "code": 2843
      },
      "arrival": 36840,
      "departure": 36840
    },
    {
      "stop": {
        "id": "2_2844",
        "lat": 48.1552843,
        "lon": -1.67145004,
        "name": "Champ Daguet",
        "code": 2844
      },
      "arrival": 36900,
      "departure": 36900
    }
  ],
  "route": {
    "id": "2_0008",
    "textColor": "FFFFFF",
    "color": "B966A2",
    "description": "Majeure",
    "longName": "Saint-Grégoire \u003c\u003e Rennes (La Poterie)",
    "shortName": "8",
    "type": 3,
    "agencyId": "2"
  }
}