{
  "headsign": "3 | Henri Fréville",
  "stopTimes": [
    {
      "stop": {
        "id": "2_1103",
        "lat": 48.138802,
        "lon": -1.659072,
        "name": "Saint-Laurent",
        "code": 1103
      },
      "arrival": 25320,
      "departure": 25320
    },
    {
      "stop": {
        "id": "2_1104",
        "lat": 48.134745,
        "lon": -1.658572,
        "name": "Hôtel de Région",
        "code": 1104
      },
      "arrival": 25440,
      "departure": 25440
    },
    {
      "stop": {
        "id": "2_1105",
        "lat": 48.1355,
        "lon": -1.655711,
        "name": "Héronière",
        "code": 1105
      },
      "arrival": 25500,
      "departure": 25500
    },
    {
      "stop": {
        "id": "2_1106",
        "lat": 48.134264,
        "lon": -1.652215,
        "name": "Gayeulles Piscine",
        "code": 1106
      },
      "arrival": 25560,
      "departure": 25560
    },
    {
      "stop": {
        "id": "2_1107",
        "lat": 48.13087,
        "lon": -1.652121,
        "name": "Le Blizz",
        "code": 1107
      },
      "arrival": 25620,
      "departure": 25620
    },
    {
      "stop": {
        "id": "2_1108",
        "lat": 48.128344,
        "lon": -1.652232,
        "name": "Gayeulles",
        "code": 1108
      },
      "arrival": 25680,
      "departure": 25680
    },
    {
      "stop": {
        "id": "2_1618",
        "lat": 48.125139,
        "lon": -1.65309,
        "name": "Joliot-Curie",
        "code": 1618
      },
      "arrival": 25740,
      "departure": 25740
    },
    {
      "stop": {
        "id": "2_1637",
        "lat": 48.123062,
        "lon": -1.651491,
        "name": "Lycée Chateaubriand",
        "code": 1637
      },
      "arrival": 25800,
      "departure": 25800
    },
    {
      "stop": {
        "id": "2_1111",
        "lat": 48.120189,
        "lon": -1.65077,
        "name": "Docteur Quentin",
        "code": 1111
      },
      "arrival": 25920,
      "departure": 25920
    },
    {
      "stop": {
        "id": "2_1112",
        "lat": 48.11893,
        "lon": -1.651063,
        "name": "Vitré Danton",
        "code": 1112
      },
      "arrival": 25980,
      "departure": 25980
    },
    {
      "stop": {
        "id": "2_1113",
        "lat": 48.116369,
        "lon": -1.655681,
        "name": "Jeanne d\u0027Arc",
        "code": 1113
      },
      "arrival": 26100,
      "departure": 26100
    },
    {
      "stop": {
        "id": "2_1114",
        "lat": 48.114521,
        "lon": -1.658017,
        "name": "Durafour",
        "code": 1114
      },
      "arrival": 26160,
      "departure": 26160
    },
    {
      "stop": {
        "id": "2_1115",
        "lat": 48.113459,
        "lon": -1.661409,
        "name": "Oberthur",
        "code": 1115
      },
      "arrival": 26220,
      "departure": 26220
    },
    {
      "stop": {
        "id": "2_1116",
        "lat": 48.112746,
        "lon": -1.664452,
        "name": "Saint-Vincent",
        "code": 1116
      },
      "arrival": 26280,
      "departure": 26280
    },
    {
      "stop": {
        "id": "2_1117",
        "lat": 48.112528,
        "lon": -1.666797,
        "name": "Châteaudun",
        "code": 1117
      },
      "arrival": 26340,
      "departure": 26340
    },
    {
      "stop": {
        "id": "2_1118",
        "lat": 48.111816,
        "lon": -1.671244,
        "name": "Thabor",
        "code": 1118
      },
      "arrival": 26400,
      "departure": 26400
    },
    {
      "stop": {
        "id": "2_1644",
        "lat": 48.110714,
        "lon": -1.673658,
        "name": "Place Pasteur",
        "code": 1644
      },
      "arrival": 26460,
      "departure": 26460
    },
    {
      "stop": {
        "id": "2_1120",
        "lat": 48.10997,
        "lon": -1.67795,
        "name": "République Jaurès",
        "code": 1120
      },
      "arrival": 26640,
      "departure": 26640
    },
    {
      "stop": {
        "id": "2_1121",
        "lat": 48.106067,
        "lon": -1.677817,
        "name": "Charles de Gaulle",
        "code": 1121
      },
      "arrival": 26760,
      "departure": 26760
    },
    {
      "stop": {
        "id": "2_1122",
        "lat": 48.103006,
        "lon": -1.676882,
        "name": "Gare Sud Féval",
        "code": 1122
      },
      "arrival": 26820,
      "departure": 26820
    },
    {
      "stop": {
        "id": "2_1123",
        "lat": 48.099181,
        "lon": -1.675756,
        "name": "Ginguené",
        "code": 1123
      },
      "arrival": 26940,
      "departure": 26940
    },
    {
      "stop": {
        "id": "2_1124",
        "lat": 48.097396,
        "lon": -1.675489,
        "name": "Jacques Cartier",
        "code": 1124
      },
      "arrival": 27000,
      "departure": 27000
    },
    {
      "stop": {
        "id": "2_1125",
        "lat": 48.096926,
        "lon": -1.679166,
        "name": "Sacrés Coeurs",
        "code": 1125
      },
      "arrival": 27060,
      "departure": 27060
    },
    {
      "stop": {
        "id": "2_1126",
        "lat": 48.096023,
        "lon": -1.681712,
        "name": "Garigliano",
        "code": 1126
      },
      "arrival": 27120,
      "departure": 27120
    },
    {
      "stop": {
        "id": "2_1127",
        "lat": 48.093042,
        "lon": -1.681932,
        "name": "Frères Moine",
        "code": 1127
      },
      "arrival": 27180,
      "departure": 27180
    },
    {
      "stop": {
        "id": "2_1128",
        "lat": 48.09107,
        "lon": -1.682187,
        "name": "Champs Manceaux",
        "code": 1128
      },
      "arrival": 27240,
      "departure": 27240
    },
    {
      "stop": {
        "id": "2_1129",
        "lat": 48.087271,
        "lon": -1.682479,
        "name": "Suède",
        "code": 1129
      },
      "arrival": 27300,
      "departure": 27300
    },
    {
      "stop": {
        "id": "2_1130",
        "lat": 48.085168,
        "lon": -1.682537,
        "name": "Canada",
        "code": 1130
      },
      "arrival": 27360,
      "departure": 27360
    },
    {
      "stop": {
        "id": "2_1623",
        "lat": 48.083961,
        "lon": -1.678307,
        "name": "Alma",
        "code": 1623
      },
      "arrival": 27420,
      "departure": 27420
    },
    {
      "stop": {
        "id": "2_1509",
        "lat": 48.087822,
        "lon": -1.674555,
        "name": "Henri Fréville",
        "code": 1509
      },
      "arrival": 27600,
      "departure": 27600
    }
  ],
  "route": {
    "id": "2_0003",
    "textColor": "FFFFFF",
    "color": "008436",
    "description": "Majeure",
    "longName": "Saint-Laurent \u003c\u003e Henri Fréville",
    "shortName": "3",
    "type": 3,
    "agencyId": "2"
  }
}