{
  "headsign": "3 | Saint-Laurent",
  "stopTimes": [
    {
      "stop": {
        "id": "2_1509",
        "lat": 48.087822,
        "lon": -1.674555,
        "name": "Henri Fréville",
        "code": 1509
      },
      "arrival": 19500,
      "departure": 19500
    },
    {
      "stop": {
        "id": "2_1622",
        "lat": 48.084157,
        "lon": -1.679166,
        "name": "Alma",
        "code": 1622
      },
      "arrival": 19680,
      "departure": 19680
    },
    {
      "stop": {
        "id": "2_1134",
        "lat": 48.085207,
        "lon": -1.682259,
        "name": "Canada",
        "code": 1134
      },
      "arrival": 19740,
      "departure": 19740
    },
    {
      "stop": {
        "id": "2_1135",
        "lat": 48.088085,
        "lon": -1.68215,
        "name": "Suède",
        "code": 1135
      },
      "arrival": 19800,
      "departure": 19800
    },
    {
      "stop": {
        "id": "2_1136",
        "lat": 48.091086,
        "lon": -1.682019,
        "name": "Champs Manceaux",
        "code": 1136
      },
      "arrival": 19860,
      "departure": 19860
    },
    {
      "stop": {
        "id": "2_1137",
        "lat": 48.093597,
        "lon": -1.681809,
        "name": "Frères Moine",
        "code": 1137
      },
      "arrival": 19920,
      "departure": 19920
    },
    {
      "stop": {
        "id": "2_1138",
        "lat": 48.096363,
        "lon": -1.681543,
        "name": "Garigliano",
        "code": 1138
      },
      "arrival": 19980,
      "departure": 19980
    },
    {
      "stop": {
        "id": "2_1139",
        "lat": 48.096914,
        "lon": -1.678484,
        "name": "Sacrés Coeurs",
        "code": 1139
      },
      "arrival": 20040,
      "departure": 20040
    },
    {
      "stop": {
        "id": "2_1333",
        "lat": 48.097824,
        "lon": -1.675165,
        "name": "Jacques Cartier",
        "code": 1333
      },
      "arrival": 20100,
      "departure": 20100
    },
    {
      "stop": {
        "id": "2_1141",
        "lat": 48.099331,
        "lon": -1.675564,
        "name": "Ginguené",
        "code": 1141
      },
      "arrival": 20160,
      "departure": 20160
    },
    {
      "stop": {
        "id": "2_1142",
        "lat": 48.102086,
        "lon": -1.673987,
        "name": "Gare Sud Féval",
        "code": 1142
      },
      "arrival": 20220,
      "departure": 20220
    },
    {
      "stop": {
        "id": "2_1143",
        "lat": 48.106081,
        "lon": -1.677558,
        "name": "Charles de Gaulle",
        "code": 1143
      },
      "arrival": 20340,
      "departure": 20340
    },
    {
      "stop": {
        "id": "2_1550",
        "lat": 48.109699,
        "lon": -1.677942,
        "name": "République",
        "code": 1550
      },
      "arrival": 20580,
      "departure": 20700
    },
    {
      "stop": {
        "id": "2_1552",
        "lat": 48.110624,
        "lon": -1.673506,
        "name": "Place Pasteur",
        "code": 1552
      },
      "arrival": 20820,
      "departure": 20820
    },
    {
      "stop": {
        "id": "2_1146",
        "lat": 48.111897,
        "lon": -1.671083,
        "name": "Thabor",
        "code": 1146
      },
      "arrival": 20880,
      "departure": 20880
    },
    {
      "stop": {
        "id": "2_1147",
        "lat": 48.112666,
        "lon": -1.664346,
        "name": "Saint-Vincent",
        "code": 1147
      },
      "arrival": 21000,
      "departure": 21000
    },
    {
      "stop": {
        "id": "2_1148",
        "lat": 48.113405,
        "lon": -1.661265,
        "name": "Oberthur",
        "code": 1148
      },
      "arrival": 21060,
      "departure": 21060
    },
    {
      "stop": {
        "id": "2_1149",
        "lat": 48.114248,
        "lon": -1.658666,
        "name": "Durafour",
        "code": 1149
      },
      "arrival": 21060,
      "departure": 21060
    },
    {
      "stop": {
        "id": "2_1150",
        "lat": 48.116588,
        "lon": -1.65539,
        "name": "Jeanne d\u0027Arc",
        "code": 1150
      },
      "arrival": 21180,
      "departure": 21180
    },
    {
      "stop": {
        "id": "2_1151",
        "lat": 48.118733,
        "lon": -1.651589,
        "name": "Vitré Danton",
        "code": 1151
      },
      "arrival": 21240,
      "departure": 21240
    },
    {
      "stop": {
        "id": "2_1152",
        "lat": 48.120615,
        "lon": -1.650675,
        "name": "Docteur Quentin",
        "code": 1152
      },
      "arrival": 21300,
      "departure": 21300
    },
    {
      "stop": {
        "id": "2_1638",
        "lat": 48.122545,
        "lon": -1.651088,
        "name": "Lycée Chateaubriand",
        "code": 1638
      },
      "arrival": 21360,
      "departure": 21360
    },
    {
      "stop": {
        "id": "2_1619",
        "lat": 48.125198,
        "lon": -1.652864,
        "name": "Joliot-Curie",
        "code": 1619
      },
      "arrival": 21420,
      "departure": 21420
    },
    {
      "stop": {
        "id": "2_1155",
        "lat": 48.129145,
        "lon": -1.652001,
        "name": "Gayeulles",
        "code": 1155
      },
      "arrival": 21480,
      "departure": 21480
    },
    {
      "stop": {
        "id": "2_1156",
        "lat": 48.131782,
        "lon": -1.651905,
        "name": "Le Blizz",
        "code": 1156
      },
      "arrival": 21540,
      "departure": 21540
    },
    {
      "stop": {
        "id": "2_1157",
        "lat": 48.134935,
        "lon": -1.651955,
        "name": "Gayeulles Piscine",
        "code": 1157
      },
      "arrival": 21540,
      "departure": 21540
    },
    {
      "stop": {
        "id": "2_1158",
        "lat": 48.135605,
        "lon": -1.656126,
        "name": "Héronière",
        "code": 1158
      },
      "arrival": 21600,
      "departure": 21600
    },
    {
      "stop": {
        "id": "2_1373",
        "lat": 48.135248,
        "lon": -1.65936,
        "name": "Hôtel de Région",
        "code": 1373
      },
      "arrival": 21660,
      "departure": 21660
    },
    {
      "stop": {
        "id": "2_1103",
        "lat": 48.138802,
        "lon": -1.659072,
        "name": "Saint-Laurent",
        "code": 1103
      },
      "arrival": 21720,
      "departure": 21720
    }
  ],
  "route": {
    "id": "2_0003",
    "textColor": "FFFFFF",
    "color": "008436",
    "description": "Majeure",
    "longName": "Saint-Laurent \u003c\u003e Henri Fréville",
    "shortName": "3",
    "type": 3,
    "agencyId": "2"
  }
}