{
  "headsign": "214 | Rennes La Poterie",
  "stopTimes": [
    {
      "stop": {
        "id": "2_2052",
        "lat": 48.13114134,
        "lon": -1.59694891,
        "name": "Saint-Etienne",
        "code": 2052
      },
      "arrival": 63600,
      "departure": 63600
    },
    {
      "stop": {
        "id": "2_2053",
        "lat": 48.12633089,
        "lon": -1.59914542,
        "name": "Cesson Cimetière",
        "code": 2053
      },
      "arrival": 63660,
      "departure": 63660
    },
    {
      "stop": {
        "id": "2_2054",
        "lat": 48.1231055,
        "lon": -1.60191712,
        "name": "Métairies Chalotais",
        "code": 2054
      },
      "arrival": 63720,
      "departure": 63720
    },
    {
      "stop": {
        "id": "2_2055",
        "lat": 48.11998872,
        "lon": -1.60211334,
        "name": "Cesson Piscine",
        "code": 2055
      },
      "arrival": 63780,
      "departure": 63780
    },
    {
      "stop": {
        "id": "2_2051",
        "lat": 48.11583582,
        "lon": -1.60065105,
        "name": "Chalotais",
        "code": 2051
      },
      "arrival": 63840,
      "departure": 63840
    },
    {
      "stop": {
        "id": "2_2057",
        "lat": 48.11388631,
        "lon": -1.60325405,
        "name": "Cesson Gare",
        "code": 2057
      },
      "arrival": 63960,
      "departure": 63960
    },
    {
      "stop": {
        "id": "2_2058",
        "lat": 48.11260658,
        "lon": -1.60716704,
        "name": "Peupliers",
        "code": 2058
      },
      "arrival": 64020,
      "departure": 64020
    },
    {
      "stop": {
        "id": "2_2059",
        "lat": 48.10930792,
        "lon": -1.60901705,
        "name": "Monniais",
        "code": 2059
      },
      "arrival": 64140,
      "departure": 64140
    },
    {
      "stop": {
        "id": "2_2060",
        "lat": 48.10779161,
        "lon": -1.61466557,
        "name": "Rond Point de Bray",
        "code": 2060
      },
      "arrival": 64200,
      "departure": 64200
    },
    {
      "stop": {
        "id": "2_2032",
        "lat": 48.10622656,
        "lon": -1.6212918,
        "name": "Charmilles (ex ZI Sud Est)",
        "code": 2032
      },
      "arrival": 64320,
      "departure": 64320
    },
    {
      "stop": {
        "id": "2_2036",
        "lat": 48.10118579,
        "lon": -1.62396139,
        "name": "Bas Village",
        "code": 2036
      },
      "arrival": 64380,
      "departure": 64380
    },
    {
      "stop": {
        "id": "2_2034",
        "lat": 48.0996197,
        "lon": -1.62114642,
        "name": "Forum",
        "code": 2034
      },
      "arrival": 64440,
      "departure": 64440
    },
    {
      "stop": {
        "id": "2_3015",
        "lat": 48.09813047,
        "lon": -1.62296013,
        "name": "Breillou",
        "code": 3015
      },
      "arrival": 64500,
      "departure": 64500
    },
    {
      "stop": {
        "id": "2_1205",
        "lat": 48.09712076,
        "lon": -1.62923032,
        "name": "Veyettes",
        "code": 1205
      },
      "arrival": 64560,
      "departure": 64560
    },
    {
      "stop": {
        "id": "2_1072",
        "lat": 48.09499328,
        "lon": -1.63793817,
        "name": "CARSAT",
        "code": 1072
      },
      "arrival": 64740,
      "departure": 64740
    },
    {
      "stop": {
        "id": "2_1073",
        "lat": 48.09257263,
        "lon": -1.63966324,
        "name": "Ronceray",
        "code": 1073
      },
      "arrival": 64800,
      "departure": 64800
    },
    {
      "stop": {
        "id": "2_1074",
        "lat": 48.09187613,
        "lon": -1.63629215,
        "name": "Gohier",
        "code": 1074
      },
      "arrival": 64860,
      "departure": 64860
    },
    {
      "stop": {
        "id": "2_1075",
        "lat": 48.08949401,
        "lon": -1.63543734,
        "name": "Bourgueil",
        "code": 1075
      },
      "arrival": 64920,
      "departure": 64920
    },
    {
      "stop": {
        "id": "2_1076",
        "lat": 48.08799285,
        "lon": -1.6383059,
        "name": "Monnet",
        "code": 1076
      },
      "arrival": 64980,
      "departure": 64980
    },
    {
      "stop": {
        "id": "2_1065",
        "lat": 48.08758724,
        "lon": -1.64393705,
        "name": "La Poterie",
        "code": 1065
      },
      "arrival": 65040,
      "departure": 65040
    }
  ],
  "route": {
    "id": "2_0214",
    "textColor": "FFFFFF",
    "color": "94C11F",
    "description": "Complémentaire",
    "longName": "Rennes (La Poterie) \u003c\u003e Cesson-Sévigné (Lycée Saint-Etienne)",
    "shortName": "214",
    "type": 3,
    "agencyId": "2"
  }
}