{
  "headsign": "3 | Henri Fréville",
  "stopTimes": [
    {
      "stop": {
        "id": "2_1103",
        "lat": 48.138802,
        "lon": -1.659072,
        "name": "Saint-Laurent",
        "code": 1103
      },
      "arrival": 60900,
      "departure": 60900
    },
    {
      "stop": {
        "id": "2_1104",
        "lat": 48.134745,
        "lon": -1.658572,
        "name": "Hôtel de Région",
        "code": 1104
      },
      "arrival": 61020,
      "departure": 61020
    },
    {
      "stop": {
        "id": "2_1105",
        "lat": 48.1355,
        "lon": -1.655711,
        "name": "Héronière",
        "code": 1105
      },
      "arrival": 61080,
      "departure": 61080
    },
    {
      "stop": {
        "id": "2_1106",
        "lat": 48.134264,
        "lon": -1.652215,
        "name": "Gayeulles Piscine",
        "code": 1106
      },
      "arrival": 61140,
      "departure": 61140
    },
    {
      "stop": {
        "id": "2_1107",
        "lat": 48.13087,
        "lon": -1.652121,
        "name": "Le Blizz",
        "code": 1107
      },
      "arrival": 61200,
      "departure": 61200
    },
    {
      "stop": {
        "id": "2_1108",
        "lat": 48.128344,
        "lon": -1.652232,
        "name": "Gayeulles",
        "code": 1108
      },
      "arrival": 61260,
      "departure": 61260
    },
    {
      "stop": {
        "id": "2_1618",
        "lat": 48.125139,
        "lon": -1.65309,
        "name": "Joliot-Curie",
        "code": 1618
      },
      "arrival": 61320,
      "departure": 61320
    },
    {
      "stop": {
        "id": "2_1637",
        "lat": 48.123062,
        "lon": -1.651491,
        "name": "Lycée Chateaubriand",
        "code": 1637
      },
      "arrival": 61380,
      "departure": 61380
    },
    {
      "stop": {
        "id": "2_1111",
        "lat": 48.120189,
        "lon": -1.65077,
        "name": "Docteur Quentin",
        "code": 1111
      },
      "arrival": 61500,
      "departure": 61500
    },
    {
      "stop": {
        "id": "2_1112",
        "lat": 48.11893,
        "lon": -1.651063,
        "name": "Vitré Danton",
        "code": 1112
      },
      "arrival": 61560,
      "departure": 61560
    },
    {
      "stop": {
        "id": "2_1113",
        "lat": 48.116369,
        "lon": -1.655681,
        "name": "Jeanne d\u0027Arc",
        "code": 1113
      },
      "arrival": 61680,
      "departure": 61680
    },
    {
      "stop": {
        "id": "2_1114",
        "lat": 48.114521,
        "lon": -1.658017,
        "name": "Durafour",
        "code": 1114
      },
      "arrival": 61740,
      "departure": 61740
    },
    {
      "stop": {
        "id": "2_1115",
        "lat": 48.113459,
        "lon": -1.661409,
        "name": "Oberthur",
        "code": 1115
      },
      "arrival": 61800,
      "departure": 61800
    },
    {
      "stop": {
        "id": "2_1116",
        "lat": 48.112746,
        "lon": -1.664452,
        "name": "Saint-Vincent",
        "code": 1116
      },
      "arrival": 61860,
      "departure": 61860
    },
    {
      "stop": {
        "id": "2_1117",
        "lat": 48.112528,
        "lon": -1.666797,
        "name": "Châteaudun",
        "code": 1117
      },
      "arrival": 61920,
      "departure": 61920
    },
    {
      "stop": {
        "id": "2_1118",
        "lat": 48.111816,
        "lon": -1.671244,
        "name": "Thabor",
        "code": 1118
      },
      "arrival": 62040,
      "departure": 62040
    },
    {
      "stop": {
        "id": "2_1644",
        "lat": 48.110714,
        "lon": -1.673658,
        "name": "Place Pasteur",
        "code": 1644
      },
      "arrival": 62100,
      "departure": 62100
    },
    {
      "stop": {
        "id": "2_1120",
        "lat": 48.10997,
        "lon": -1.67795,
        "name": "République Jaurès",
        "code": 1120
      },
      "arrival": 62400,
      "departure": 62400
    },
    {
      "stop": {
        "id": "2_1121",
        "lat": 48.106067,
        "lon": -1.677817,
        "name": "Charles de Gaulle",
        "code": 1121
      },
      "arrival": 62580,
      "departure": 62580
    },
    {
      "stop": {
        "id": "2_1122",
        "lat": 48.103006,
        "lon": -1.676882,
        "name": "Gare Sud Féval",
        "code": 1122
      },
      "arrival": 62640,
      "departure": 62640
    },
    {
      "stop": {
        "id": "2_1123",
        "lat": 48.099181,
        "lon": -1.675756,
        "name": "Ginguené",
        "code": 1123
      },
      "arrival": 62760,
      "departure": 62760
    },
    {
      "stop": {
        "id": "2_1124",
        "lat": 48.097396,
        "lon": -1.675489,
        "name": "Jacques Cartier",
        "code": 1124
      },
      "arrival": 62820,
      "departure": 62820
    },
    {
      "stop": {
        "id": "2_1125",
        "lat": 48.096926,
        "lon": -1.679166,
        "name": "Sacrés Coeurs",
        "code": 1125
      },
      "arrival": 62880,
      "departure": 62880
    },
    {
      "stop": {
        "id": "2_1126",
        "lat": 48.096023,
        "lon": -1.681712,
        "name": "Garigliano",
        "code": 1126
      },
      "arrival": 62940,
      "departure": 62940
    },
    {
      "stop": {
        "id": "2_1127",
        "lat": 48.093042,
        "lon": -1.681932,
        "name": "Frères Moine",
        "code": 1127
      },
      "arrival": 63000,
      "departure": 63000
    },
    {
      "stop": {
        "id": "2_1128",
        "lat": 48.09107,
        "lon": -1.682187,
        "name": "Champs Manceaux",
        "code": 1128
      },
      "arrival": 63060,
      "departure": 63060
    },
    {
      "stop": {
        "id": "2_1129",
        "lat": 48.087271,
        "lon": -1.682479,
        "name": "Suède",
        "code": 1129
      },
      "arrival": 63180,
      "departure": 63180
    },
    {
      "stop": {
        "id": "2_1130",
        "lat": 48.085168,
        "lon": -1.682537,
        "name": "Canada",
        "code": 1130
      },
      "arrival": 63240,
      "departure": 63240
    },
    {
      "stop": {
        "id": "2_1623",
        "lat": 48.083961,
        "lon": -1.678307,
        "name": "Alma",
        "code": 1623
      },
      "arrival": 63300,
      "departure": 63300
    },
    {
      "stop": {
        "id": "2_1509",
        "lat": 48.087822,
        "lon": -1.674555,
        "name": "Henri Fréville",
        "code": 1509
      },
      "arrival": 63480,
      "departure": 63480
    }
  ],
  "route": {
    "id": "2_0003",
    "textColor": "FFFFFF",
    "color": "008436",
    "description": "Majeure",
    "longName": "Saint-Laurent \u003c\u003e Henri Fréville",
    "shortName": "3",
    "type": 3,
    "agencyId": "2"
  }
}