{
  "headsign": "40 | Beaulieu Atalante",
  "stopTimes": [
    {
      "stop": {
        "id": "2_1168",
        "lat": 48.109761,
        "lon": -1.678807,
        "name": "République",
        "code": 1168
      },
      "arrival": 49080,
      "departure": 49080
    },
    {
      "stop": {
        "id": "2_1169",
        "lat": 48.109809,
        "lon": -1.674483,
        "name": "Musée Beaux Arts",
        "code": 1169
      },
      "arrival": 49200,
      "departure": 49200
    },
    {
      "stop": {
        "id": "2_1174",
        "lat": 48.112437,
        "lon": -1.64292,
        "name": "Plaine de Baud",
        "code": 1174
      },
      "arrival": 49500,
      "departure": 49500
    },
    {
      "stop": {
        "id": "2_1604",
        "lat": 48.113551,
        "lon": -1.640947,
        "name": "Les Préales",
        "code": 1604
      },
      "arrival": 49560,
      "departure": 49560
    },
    {
      "stop": {
        "id": "2_1610",
        "lat": 48.114025,
        "lon": -1.636082,
        "name": "Tournebride",
        "code": 1610
      },
      "arrival": 49680,
      "departure": 49680
    },
    {
      "stop": {
        "id": "2_1175",
        "lat": 48.117101,
        "lon": -1.633896,
        "name": "Beaulieu Chimie",
        "code": 1175
      },
      "arrival": 49800,
      "departure": 49800
    },
    {
      "stop": {
        "id": "2_1204",
        "lat": 48.119511,
        "lon": -1.635317,
        "name": "Beaulieu INSA",
        "code": 1204
      },
      "arrival": 49860,
      "departure": 49860
    },
    {
      "stop": {
        "id": "2_1313",
        "lat": 48.121929,
        "lon": -1.638311,
        "name": "Beaulieu Restau U",
        "code": 1313
      },
      "arrival": 49920,
      "departure": 49920
    },
    {
      "stop": {
        "id": "2_1314",
        "lat": 48.125106,
        "lon": -1.632973,
        "name": "IUT",
        "code": 1314
      },
      "arrival": 50040,
      "departure": 50040
    },
    {
      "stop": {
        "id": "2_1290",
        "lat": 48.126929,
        "lon": -1.629221,
        "name": "Clos Courtel",
        "code": 1290
      },
      "arrival": 50100,
      "departure": 50100
    }
  ],
  "route": {
    "id": "2_0040",
    "textColor": "3D3C3F",
    "color": "FFDD00",
    "description": "Express urbaine",
    "longName": "République \u003c\u003e Beaulieu Atalante",
    "shortName": "40",
    "type": 3,
    "agencyId": "2"
  }
}