{
  "headsign": "32 | Triangle",
  "stopTimes": [
    {
      "stop": {
        "id": "2_1290",
        "lat": 48.12688601,
        "lon": -1.62954442,
        "name": "Clos Courtel",
        "code": 1290
      },
      "arrival": 67500,
      "departure": 67500
    },
    {
      "stop": {
        "id": "2_1291",
        "lat": 48.12475494,
        "lon": -1.63388412,
        "name": "IUT",
        "code": 1291
      },
      "arrival": 67560,
      "departure": 67560
    },
    {
      "stop": {
        "id": "2_1292",
        "lat": 48.12145018,
        "lon": -1.63814809,
        "name": "Beaulieu Restau. U.",
        "code": 1292
      },
      "arrival": 67680,
      "departure": 67680
    },
    {
      "stop": {
        "id": "2_1176",
        "lat": 48.11901733,
        "lon": -1.63514782,
        "name": "Beaulieu INSA",
        "code": 1176
      },
      "arrival": 67740,
      "departure": 67740
    },
    {
      "stop": {
        "id": "2_1312",
        "lat": 48.1166495,
        "lon": -1.63393042,
        "name": "Beaulieu Chimie",
        "code": 1312
      },
      "arrival": 67800,
      "departure": 67800
    },
    {
      "stop": {
        "id": "2_1609",
        "lat": 48.11419402,
        "lon": -1.63648162,
        "name": "Tournebride",
        "code": 1609
      },
      "arrival": 67920,
      "departure": 67920
    },
    {
      "stop": {
        "id": "2_1528",
        "lat": 48.11399429,
        "lon": -1.64435828,
        "name": "Piletière",
        "code": 1528
      },
      "arrival": 68040,
      "departure": 68040
    },
    {
      "stop": {
        "id": "2_1527",
        "lat": 48.11433481,
        "lon": -1.64920718,
        "name": "Moulin de Joué",
        "code": 1527
      },
      "arrival": 68100,
      "departure": 68100
    },
    {
      "stop": {
        "id": "2_1526",
        "lat": 48.11479096,
        "lon": -1.65317793,
        "name": "Hôpital Régnier",
        "code": 1526
      },
      "arrival": 68100,
      "departure": 68100
    },
    {
      "stop": {
        "id": "2_1474",
        "lat": 48.11351559,
        "lon": -1.65671606,
        "name": "Durafour Strasbourg",
        "code": 1474
      },
      "arrival": 68160,
      "departure": 68160
    },
    {
      "stop": {
        "id": "2_1434",
        "lat": 48.10936608,
        "lon": -1.65519006,
        "name": "Pont de Strasbourg",
        "code": 1434
      },
      "arrival": 68280,
      "departure": 68280
    },
    {
      "stop": {
        "id": "2_1435",
        "lat": 48.10569627,
        "lon": -1.6506541,
        "name": "Chardonnet",
        "code": 1435
      },
      "arrival": 68340,
      "departure": 68340
    },
    {
      "stop": {
        "id": "2_1436",
        "lat": 48.10363132,
        "lon": -1.64975904,
        "name": "Cimetière de l\u0027Est",
        "code": 1436
      },
      "arrival": 68400,
      "departure": 68400
    },
    {
      "stop": {
        "id": "2_1437",
        "lat": 48.10076528,
        "lon": -1.64980227,
        "name": "Villebois-Mareuil",
        "code": 1437
      },
      "arrival": 68460,
      "departure": 68460
    },
    {
      "stop": {
        "id": "2_1438",
        "lat": 48.09922271,
        "lon": -1.65285037,
        "name": "Le Dantec",
        "code": 1438
      },
      "arrival": 68520,
      "departure": 68520
    },
    {
      "stop": {
        "id": "2_1560",
        "lat": 48.0977884,
        "lon": -1.65664596,
        "name": "Bourgeois",
        "code": 1560
      },
      "arrival": 68580,
      "departure": 68580
    },
    {
      "stop": {
        "id": "2_1561",
        "lat": 48.09601273,
        "lon": -1.65801002,
        "name": "Langevin",
        "code": 1561
      },
      "arrival": 68640,
      "departure": 68640
    },
    {
      "stop": {
        "id": "2_1340",
        "lat": 48.09203054,
        "lon": -1.65841246,
        "name": "Gide",
        "code": 1340
      },
      "arrival": 68700,
      "departure": 68700
    },
    {
      "stop": {
        "id": "2_1554",
        "lat": 48.09073426,
        "lon": -1.66120535,
        "name": "Binquenais Le Moine",
        "code": 1554
      },
      "arrival": 68760,
      "departure": 68760
    },
    {
      "stop": {
        "id": "2_1465",
        "lat": 48.08611757,
        "lon": -1.66106774,
        "name": "Triangle",
        "code": 1465
      },
      "arrival": 68820,
      "departure": 68820
    }
  ],
  "route": {
    "id": "2_0032",
    "textColor": "df171c",
    "color": "fef466",
    "description": "Inter-quartiers",
    "longName": "Triangle \u003c\u003e Beaulieu Atalante",
    "shortName": "32",
    "type": 3,
    "agencyId": "2"
  }
}