{
  "headsign": "81 | Rennes Villejean-Université",
  "stopTimes": [
    {
      "stop": {
        "id": "2_6000",
        "lat": 48.218908,
        "lon": -1.893833,
        "name": "Romillé Collège",
        "code": 6000
      },
      "arrival": 24000,
      "departure": 24000
    },
    {
      "stop": {
        "id": "2_6002",
        "lat": 48.215591,
        "lon": -1.891703,
        "name": "Frères Aubert",
        "code": 6002
      },
      "arrival": 24060,
      "departure": 24060
    },
    {
      "stop": {
        "id": "2_6004",
        "lat": 48.214147,
        "lon": -1.892143,
        "name": "Romillé Mairie",
        "code": 6004
      },
      "arrival": 24180,
      "departure": 24180
    },
    {
      "stop": {
        "id": "2_6006",
        "lat": 48.212913,
        "lon": -1.891338,
        "name": "Mettrie Templiers",
        "code": 6006
      },
      "arrival": 24240,
      "departure": 24240
    },
    {
      "stop": {
        "id": "2_4452",
        "lat": 48.18138007,
        "lon": -1.85347313,
        "name": "Croix Simon",
        "code": 4452
      },
      "arrival": 24540,
      "departure": 24540
    },
    {
      "stop": {
        "id": "2_4460",
        "lat": 48.178213,
        "lon": -1.853036,
        "name": "La Cour aux Pages",
        "code": 4460
      },
      "arrival": 24600,
      "departure": 24600
    },
    {
      "stop": {
        "id": "2_4453",
        "lat": 48.1760181,
        "lon": -1.85254844,
        "name": "Clayes Centre",
        "code": 4453
      },
      "arrival": 24660,
      "departure": 24660
    },
    {
      "stop": {
        "id": "2_1517",
        "lat": 48.11854026,
        "lon": -1.71363649,
        "name": "Berry",
        "code": 1517
      },
      "arrival": 25500,
      "departure": 25500
    },
    {
      "stop": {
        "id": "2_1520",
        "lat": 48.12050245,
        "lon": -1.70973991,
        "name": "Bourbonnais",
        "code": 1520
      },
      "arrival": 25620,
      "departure": 25620
    },
    {
      "stop": {
        "id": "2_1497",
        "lat": 48.12102411,
        "lon": -1.70300103,
        "name": "Villejean-Université",
        "code": 1497
      },
      "arrival": 25740,
      "departure": 25740
    }
  ],
  "route": {
    "id": "2_0081",
    "textColor": "FFFFFF",
    "color": "0083CD",
    "description": "Métropolitaine",
    "longName": "Rennes (Villejean-Université) \u003c\u003e Clayes / Romillé",
    "shortName": "81",
    "type": 3,
    "agencyId": "2"
  }
}