{
  "headsign": "3 | Henri Fréville",
  "stopTimes": [
    {
      "stop": {
        "id": "2_1103",
        "lat": 48.138802,
        "lon": -1.659072,
        "name": "Saint-Laurent",
        "code": 1103
      },
      "arrival": 39720,
      "departure": 39720
    },
    {
      "stop": {
        "id": "2_1104",
        "lat": 48.134745,
        "lon": -1.658572,
        "name": "Hôtel de Région",
        "code": 1104
      },
      "arrival": 39840,
      "departure": 39840
    },
    {
      "stop": {
        "id": "2_1105",
        "lat": 48.1355,
        "lon": -1.655711,
        "name": "Héronière",
        "code": 1105
      },
      "arrival": 39900,
      "departure": 39900
    },
    {
      "stop": {
        "id": "2_1106",
        "lat": 48.134264,
        "lon": -1.652215,
        "name": "Gayeulles Piscine",
        "code": 1106
      },
      "arrival": 39960,
      "departure": 39960
    },
    {
      "stop": {
        "id": "2_1107",
        "lat": 48.13087,
        "lon": -1.652121,
        "name": "Le Blizz",
        "code": 1107
      },
      "arrival": 40020,
      "departure": 40020
    },
    {
      "stop": {
        "id": "2_1108",
        "lat": 48.128344,
        "lon": -1.652232,
        "name": "Gayeulles",
        "code": 1108
      },
      "arrival": 40080,
      "departure": 40080
    },
    {
      "stop": {
        "id": "2_1618",
        "lat": 48.125139,
        "lon": -1.65309,
        "name": "Joliot-Curie",
        "code": 1618
      },
      "arrival": 40140,
      "departure": 40140
    },
    {
      "stop": {
        "id": "2_1637",
        "lat": 48.123062,
        "lon": -1.651491,
        "name": "Lycée Chateaubriand",
        "code": 1637
      },
      "arrival": 40200,
      "departure": 40200
    },
    {
      "stop": {
        "id": "2_1111",
        "lat": 48.120189,
        "lon": -1.65077,
        "name": "Docteur Quentin",
        "code": 1111
      },
      "arrival": 40320,
      "departure": 40320
    },
    {
      "stop": {
        "id": "2_1112",
        "lat": 48.11893,
        "lon": -1.651063,
        "name": "Vitré Danton",
        "code": 1112
      },
      "arrival": 40380,
      "departure": 40380
    },
    {
      "stop": {
        "id": "2_1113",
        "lat": 48.116369,
        "lon": -1.655681,
        "name": "Jeanne d\u0027Arc",
        "code": 1113
      },
      "arrival": 40500,
      "departure": 40500
    },
    {
      "stop": {
        "id": "2_1114",
        "lat": 48.114521,
        "lon": -1.658017,
        "name": "Durafour",
        "code": 1114
      },
      "arrival": 40560,
      "departure": 40560
    },
    {
      "stop": {
        "id": "2_1115",
        "lat": 48.113459,
        "lon": -1.661409,
        "name": "Oberthur",
        "code": 1115
      },
      "arrival": 40620,
      "departure": 40620
    },
    {
      "stop": {
        "id": "2_1116",
        "lat": 48.112746,
        "lon": -1.664452,
        "name": "Saint-Vincent",
        "code": 1116
      },
      "arrival": 40680,
      "departure": 40680
    },
    {
      "stop": {
        "id": "2_1117",
        "lat": 48.112528,
        "lon": -1.666797,
        "name": "Châteaudun",
        "code": 1117
      },
      "arrival": 40740,
      "departure": 40740
    },
    {
      "stop": {
        "id": "2_1118",
        "lat": 48.111816,
        "lon": -1.671244,
        "name": "Thabor",
        "code": 1118
      },
      "arrival": 40860,
      "departure": 40860
    },
    {
      "stop": {
        "id": "2_1644",
        "lat": 48.110714,
        "lon": -1.673658,
        "name": "Place Pasteur",
        "code": 1644
      },
      "arrival": 40920,
      "departure": 40920
    },
    {
      "stop": {
        "id": "2_1120",
        "lat": 48.10997,
        "lon": -1.67795,
        "name": "République Jaurès",
        "code": 1120
      },
      "arrival": 41160,
      "departure": 41160
    },
    {
      "stop": {
        "id": "2_1121",
        "lat": 48.106067,
        "lon": -1.677817,
        "name": "Charles de Gaulle",
        "code": 1121
      },
      "arrival": 41280,
      "departure": 41280
    },
    {
      "stop": {
        "id": "2_1122",
        "lat": 48.103006,
        "lon": -1.676882,
        "name": "Gare Sud Féval",
        "code": 1122
      },
      "arrival": 41340,
      "departure": 41340
    },
    {
      "stop": {
        "id": "2_1123",
        "lat": 48.099181,
        "lon": -1.675756,
        "name": "Ginguené",
        "code": 1123
      },
      "arrival": 41460,
      "departure": 41460
    },
    {
      "stop": {
        "id": "2_1124",
        "lat": 48.097396,
        "lon": -1.675489,
        "name": "Jacques Cartier",
        "code": 1124
      },
      "arrival": 41520,
      "departure": 41520
    },
    {
      "stop": {
        "id": "2_1125",
        "lat": 48.096926,
        "lon": -1.679166,
        "name": "Sacrés Coeurs",
        "code": 1125
      },
      "arrival": 41580,
      "departure": 41580
    },
    {
      "stop": {
        "id": "2_1126",
        "lat": 48.096023,
        "lon": -1.681712,
        "name": "Garigliano",
        "code": 1126
      },
      "arrival": 41640,
      "departure": 41640
    },
    {
      "stop": {
        "id": "2_1127",
        "lat": 48.093042,
        "lon": -1.681932,
        "name": "Frères Moine",
        "code": 1127
      },
      "arrival": 41700,
      "departure": 41700
    },
    {
      "stop": {
        "id": "2_1128",
        "lat": 48.09107,
        "lon": -1.682187,
        "name": "Champs Manceaux",
        "code": 1128
      },
      "arrival": 41760,
      "departure": 41760
    },
    {
      "stop": {
        "id": "2_1129",
        "lat": 48.087271,
        "lon": -1.682479,
        "name": "Suède",
        "code": 1129
      },
      "arrival": 41880,
      "departure": 41880
    },
    {
      "stop": {
        "id": "2_1130",
        "lat": 48.085168,
        "lon": -1.682537,
        "name": "Canada",
        "code": 1130
      },
      "arrival": 41940,
      "departure": 41940
    },
    {
      "stop": {
        "id": "2_1623",
        "lat": 48.083961,
        "lon": -1.678307,
        "name": "Alma",
        "code": 1623
      },
      "arrival": 42000,
      "departure": 42000
    },
    {
      "stop": {
        "id": "2_1509",
        "lat": 48.087822,
        "lon": -1.674555,
        "name": "Henri Fréville",
        "code": 1509
      },
      "arrival": 42180,
      "departure": 42180
    }
  ],
  "route": {
    "id": "2_0003",
    "textColor": "FFFFFF",
    "color": "008436",
    "description": "Majeure",
    "longName": "Saint-Laurent \u003c\u003e Henri Fréville",
    "shortName": "3",
    "type": 3,
    "agencyId": "2"
  }
}