{
  "headsign": "11 | La Poterie via ZI Sud-Est",
  "stopTimes": [
    {
      "stop": {
        "id": "2_3751",
        "lat": 48.10740153,
        "lon": -1.73924668,
        "name": "ZI Ouest",
        "code": 3751
      },
      "arrival": 41700,
      "departure": 41700
    },
    {
      "stop": {
        "id": "2_3752",
        "lat": 48.10474061,
        "lon": -1.73906178,
        "name": "Trois Marches",
        "code": 3752
      },
      "arrival": 41760,
      "departure": 41760
    },
    {
      "stop": {
        "id": "2_3769",
        "lat": 48.10421313,
        "lon": -1.73603999,
        "name": "Marais",
        "code": 3769
      },
      "arrival": 41760,
      "departure": 41760
    },
    {
      "stop": {
        "id": "2_1229",
        "lat": 48.10118185,
        "lon": -1.73162775,
        "name": "Servigné",
        "code": 1229
      },
      "arrival": 41880,
      "departure": 41880
    },
    {
      "stop": {
        "id": "2_1230",
        "lat": 48.10210977,
        "lon": -1.72691496,
        "name": "Jardin Moderne",
        "code": 1230
      },
      "arrival": 41940,
      "departure": 41940
    },
    {
      "stop": {
        "id": "2_1231",
        "lat": 48.10328122,
        "lon": -1.72333208,
        "name": "Robinot de St-Cyr",
        "code": 1231
      },
      "arrival": 41940,
      "departure": 41940
    },
    {
      "stop": {
        "id": "2_1232",
        "lat": 48.10625606,
        "lon": -1.72374575,
        "name": "Le Hô",
        "code": 1232
      },
      "arrival": 42000,
      "departure": 42000
    },
    {
      "stop": {
        "id": "2_1233",
        "lat": 48.10704453,
        "lon": -1.72187845,
        "name": "Lemaistre",
        "code": 1233
      },
      "arrival": 42060,
      "departure": 42060
    },
    {
      "stop": {
        "id": "2_1234",
        "lat": 48.10775888,
        "lon": -1.71484897,
        "name": "Stade Rennais",
        "code": 1234
      },
      "arrival": 42180,
      "departure": 42180
    },
    {
      "stop": {
        "id": "2_1235",
        "lat": 48.10892663,
        "lon": -1.70977108,
        "name": "Géniaux",
        "code": 1235
      },
      "arrival": 42300,
      "departure": 42300
    },
    {
      "stop": {
        "id": "2_1236",
        "lat": 48.10881331,
        "lon": -1.7056153,
        "name": "Kerviler",
        "code": 1236
      },
      "arrival": 42360,
      "departure": 42360
    },
    {
      "stop": {
        "id": "2_1237",
        "lat": 48.10773621,
        "lon": -1.70211405,
        "name": "Papeteries",
        "code": 1237
      },
      "arrival": 42420,
      "departure": 42420
    },
    {
      "stop": {
        "id": "2_1238",
        "lat": 48.10869591,
        "lon": -1.69884796,
        "name": "Guilloux Lorient",
        "code": 1238
      },
      "arrival": 42480,
      "departure": 42480
    },
    {
      "stop": {
        "id": "2_1239",
        "lat": 48.10827073,
        "lon": -1.6941653,
        "name": "Chèques Postaux",
        "code": 1239
      },
      "arrival": 42540,
      "departure": 42540
    },
    {
      "stop": {
        "id": "2_1240",
        "lat": 48.10927186,
        "lon": -1.68970708,
        "name": "Le Mail",
        "code": 1240
      },
      "arrival": 42660,
      "departure": 42660
    },
    {
      "stop": {
        "id": "2_1091",
        "lat": 48.10977886,
        "lon": -1.68388248,
        "name": "Place de Bretagne",
        "code": 1091
      },
      "arrival": 42780,
      "departure": 42780
    },
    {
      "stop": {
        "id": "2_1242",
        "lat": 48.10980333,
        "lon": -1.6795219,
        "name": "République",
        "code": 1242
      },
      "arrival": 42900,
      "departure": 42900
    },
    {
      "stop": {
        "id": "2_1088",
        "lat": 48.10744897,
        "lon": -1.67491383,
        "name": "Liberté TNB",
        "code": 1088
      },
      "arrival": 43080,
      "departure": 43080
    },
    {
      "stop": {
        "id": "2_1087",
        "lat": 48.1060299,
        "lon": -1.67410184,
        "name": "Champs Libres",
        "code": 1087
      },
      "arrival": 43140,
      "departure": 43140
    },
    {
      "stop": {
        "id": "2_1477",
        "lat": 48.10388016,
        "lon": -1.67284842,
        "name": "Gares",
        "code": 1477
      },
      "arrival": 43200,
      "departure": 43200
    },
    {
      "stop": {
        "id": "2_1085",
        "lat": 48.10476768,
        "lon": -1.66658594,
        "name": "Laënnec",
        "code": 1085
      },
      "arrival": 43320,
      "departure": 43320
    },
    {
      "stop": {
        "id": "2_1243",
        "lat": 48.10254897,
        "lon": -1.66111869,
        "name": "Croix Saint-Hélier",
        "code": 1243
      },
      "arrival": 43380,
      "departure": 43380
    },
    {
      "stop": {
        "id": "2_1244",
        "lat": 48.10229227,
        "lon": -1.65513195,
        "name": "Mouézy",
        "code": 1244
      },
      "arrival": 43500,
      "departure": 43500
    },
    {
      "stop": {
        "id": "2_1211",
        "lat": 48.10317679,
        "lon": -1.65251241,
        "name": "Serpette",
        "code": 1211
      },
      "arrival": 43560,
      "departure": 43560
    },
    {
      "stop": {
        "id": "2_1246",
        "lat": 48.10439597,
        "lon": -1.64934184,
        "name": "Cimetière de l\u0027Est",
        "code": 1246
      },
      "arrival": 43620,
      "departure": 43620
    },
    {
      "stop": {
        "id": "2_1247",
        "lat": 48.10491097,
        "lon": -1.64382886,
        "name": "Pavie",
        "code": 1247
      },
      "arrival": 43680,
      "departure": 43680
    },
    {
      "stop": {
        "id": "2_1248",
        "lat": 48.10393193,
        "lon": -1.63578425,
        "name": "Pré Garel",
        "code": 1248
      },
      "arrival": 43740,
      "departure": 43740
    },
    {
      "stop": {
        "id": "2_2123",
        "lat": 48.10460642,
        "lon": -1.63076044,
        "name": "Buisson",
        "code": 2123
      },
      "arrival": 43800,
      "departure": 43800
    },
    {
      "stop": {
        "id": "2_2037",
        "lat": 48.10607373,
        "lon": -1.62563212,
        "name": "Erbonière",
        "code": 2037
      },
      "arrival": 43860,
      "departure": 43860
    },
    {
      "stop": {
        "id": "2_2032",
        "lat": 48.10622656,
        "lon": -1.6212918,
        "name": "Charmilles",
        "code": 2032
      },
      "arrival": 43920,
      "departure": 43920
    },
    {
      "stop": {
        "id": "2_2036",
        "lat": 48.10118579,
        "lon": -1.62396139,
        "name": "Bas Village",
        "code": 2036
      },
      "arrival": 43980,
      "departure": 43980
    },
    {
      "stop": {
        "id": "2_2034",
        "lat": 48.0996197,
        "lon": -1.62114642,
        "name": "Forum",
        "code": 2034
      },
      "arrival": 44040,
      "departure": 44040
    },
    {
      "stop": {
        "id": "2_3015",
        "lat": 48.09813047,
        "lon": -1.62296013,
        "name": "Breillou",
        "code": 3015
      },
      "arrival": 44100,
      "departure": 44100
    },
    {
      "stop": {
        "id": "2_1205",
        "lat": 48.09712076,
        "lon": -1.62923032,
        "name": "Veyettes",
        "code": 1205
      },
      "arrival": 44160,
      "departure": 44160
    },
    {
      "stop": {
        "id": "2_1633",
        "lat": 48.09663714,
        "lon": -1.63652489,
        "name": "Haut Sancé",
        "code": 1633
      },
      "arrival": 44220,
      "departure": 44220
    },
    {
      "stop": {
        "id": "2_1072",
        "lat": 48.09499328,
        "lon": -1.63793817,
        "name": "CARSAT",
        "code": 1072
      },
      "arrival": 44280,
      "departure": 44280
    },
    {
      "stop": {
        "id": "2_1073",
        "lat": 48.09257263,
        "lon": -1.63966324,
        "name": "Ronceray",
        "code": 1073
      },
      "arrival": 44340,
      "departure": 44340
    },
    {
      "stop": {
        "id": "2_1074",
        "lat": 48.09187614,
        "lon": -1.63629215,
        "name": "Gohier",
        "code": 1074
      },
      "arrival": 44340,
      "departure": 44340
    },
    {
      "stop": {
        "id": "2_1075",
        "lat": 48.08949402,
        "lon": -1.63543734,
        "name": "Bourgueil",
        "code": 1075
      },
      "arrival": 44400,
      "departure": 44400
    },
    {
      "stop": {
        "id": "2_1076",
        "lat": 48.08799285,
        "lon": -1.6383059,
        "name": "Monnet",
        "code": 1076
      },
      "arrival": 44460,
      "departure": 44460
    },
    {
      "stop": {
        "id": "2_1065",
        "lat": 48.08758724,
        "lon": -1.64393705,
        "name": "La Poterie",
        "code": 1065
      },
      "arrival": 44520,
      "departure": 44520
    }
  ],
  "route": {
    "id": "2_0011",
    "textColor": "FFFFFF",
    "color": "DD84B1",
    "description": "Urbaine",
    "longName": "ZI Ouest / Stade Rennais \u003c\u003e Saint-Saëns / La Poterie",
    "shortName": "11",
    "type": 3,
    "agencyId": "2"
  }
}