{
  "headsign": "72 | Chartres Pont-Péan Laillé",
  "stopTimes": [
    {
      "stop": {
        "id": "2_1567",
        "lat": 48.1062288,
        "lon": -1.67750174,
        "name": "Charles de Gaulle",
        "code": 1567
      },
      "arrival": 92400,
      "departure": 92400
    },
    {
      "stop": {
        "id": "2_1510",
        "lat": 48.08777947,
        "lon": -1.67446532,
        "name": "Henri Fréville",
        "code": 1510
      },
      "arrival": 92820,
      "departure": 92820
    },
    {
      "stop": {
        "id": "2_1449",
        "lat": 48.08682379,
        "lon": -1.6830757,
        "name": "Norvège",
        "code": 1449
      },
      "arrival": 92940,
      "departure": 92940
    },
    {
      "stop": {
        "id": "2_1450",
        "lat": 48.08665851,
        "lon": -1.68837187,
        "name": "Coubertin",
        "code": 1450
      },
      "arrival": 93060,
      "departure": 93060
    },
    {
      "stop": {
        "id": "2_1267",
        "lat": 48.0857359,
        "lon": -1.69390359,
        "name": "Félix Eboué",
        "code": 1267
      },
      "arrival": 93120,
      "departure": 93120
    },
    {
      "stop": {
        "id": "2_2262",
        "lat": 48.06879203,
        "lon": -1.69785635,
        "name": "Vallon",
        "code": 2262
      },
      "arrival": 93300,
      "departure": 93300
    },
    {
      "stop": {
        "id": "2_2704",
        "lat": 48.0593778,
        "lon": -1.70119071,
        "name": "Janais",
        "code": 2704
      },
      "arrival": 93360,
      "departure": 93360
    },
    {
      "stop": {
        "id": "2_2907",
        "lat": 48.04566035,
        "lon": -1.71043502,
        "name": "Croix aux Potiers",
        "code": 2907
      },
      "arrival": 93540,
      "departure": 93540
    },
    {
      "stop": {
        "id": "2_2918",
        "lat": 48.04201304,
        "lon": -1.71105813,
        "name": "Callouët",
        "code": 2918
      },
      "arrival": 93600,
      "departure": 93600
    },
    {
      "stop": {
        "id": "2_2919",
        "lat": 48.04229207,
        "lon": -1.70746679,
        "name": "Chartres Centre",
        "code": 2919
      },
      "arrival": 93660,
      "departure": 93660
    },
    {
      "stop": {
        "id": "2_2920",
        "lat": 48.04158293,
        "lon": -1.70288204,
        "name": "Auditoire",
        "code": 2920
      },
      "arrival": 93720,
      "departure": 93720
    },
    {
      "stop": {
        "id": "2_2921",
        "lat": 48.04125573,
        "lon": -1.69776297,
        "name": "Collège Pôle Sud",
        "code": 2921
      },
      "arrival": 93780,
      "departure": 93780
    },
    {
      "stop": {
        "id": "2_2922",
        "lat": 48.03705289,
        "lon": -1.69713431,
        "name": "Vieux Bourg",
        "code": 2922
      },
      "arrival": 93900,
      "departure": 93900
    },
    {
      "stop": {
        "id": "2_2923",
        "lat": 48.03470268,
        "lon": -1.69977512,
        "name": "Cornouaille",
        "code": 2923
      },
      "arrival": 93960,
      "departure": 93960
    },
    {
      "stop": {
        "id": "2_2924",
        "lat": 48.03549509,
        "lon": -1.70610918,
        "name": "Argoat",
        "code": 2924
      },
      "arrival": 94020,
      "departure": 94020
    },
    {
      "stop": {
        "id": "2_2927",
        "lat": 48.03317188,
        "lon": -1.70739442,
        "name": "Parc de Loisirs",
        "code": 2927
      },
      "arrival": 94080,
      "departure": 94080
    },
    {
      "stop": {
        "id": "2_2930",
        "lat": 48.03121562,
        "lon": -1.70919607,
        "name": "Constant Mérel",
        "code": 2930
      },
      "arrival": 94140,
      "departure": 94140
    },
    {
      "stop": {
        "id": "2_3909",
        "lat": 48.01988822,
        "lon": -1.70705918,
        "name": "Renaissance",
        "code": 3909
      },
      "arrival": 94320,
      "departure": 94320
    },
    {
      "stop": {
        "id": "2_3910",
        "lat": 48.0169427,
        "lon": -1.7051982,
        "name": "Fontaine Blanche",
        "code": 3910
      },
      "arrival": 94380,
      "departure": 94380
    },
    {
      "stop": {
        "id": "2_3911",
        "lat": 48.01367131,
        "lon": -1.70764824,
        "name": "Rivaudière",
        "code": 3911
      },
      "arrival": 94380,
      "departure": 94380
    },
    {
      "stop": {
        "id": "2_3912",
        "lat": 48.01082475,
        "lon": -1.706468,
        "name": "Pont Péan Mairie",
        "code": 3912
      },
      "arrival": 94500,
      "departure": 94500
    },
    {
      "stop": {
        "id": "2_3904",
        "lat": 48.01295576,
        "lon": -1.70300304,
        "name": "Chemin Vert",
        "code": 3904
      },
      "arrival": 94500,
      "departure": 94500
    },
    {
      "stop": {
        "id": "2_3914",
        "lat": 48.01038435,
        "lon": -1.70102798,
        "name": "Mouton Blanc",
        "code": 3914
      },
      "arrival": 94560,
      "departure": 94560
    },
    {
      "stop": {
        "id": "2_3915",
        "lat": 48.00553207,
        "lon": -1.69815207,
        "name": "Caliorne",
        "code": 3915
      },
      "arrival": 94620,
      "departure": 94620
    },
    {
      "stop": {
        "id": "2_3901",
        "lat": 47.99990894,
        "lon": -1.69696794,
        "name": "Bois Esnault",
        "code": 3901
      },
      "arrival": 94680,
      "departure": 94680
    },
    {
      "stop": {
        "id": "2_4701",
        "lat": 47.97860622,
        "lon": -1.71298793,
        "name": "Point du Jour",
        "code": 4701
      },
      "arrival": 95040,
      "departure": 95040
    },
    {
      "stop": {
        "id": "2_4703",
        "lat": 47.97550719,
        "lon": -1.71717487,
        "name": "Orée du Bois",
        "code": 4703
      },
      "arrival": 95100,
      "departure": 95100
    },
    {
      "stop": {
        "id": "2_4705",
        "lat": 47.97798342,
        "lon": -1.71968327,
        "name": "Laillé Eglise",
        "code": 4705
      },
      "arrival": 95160,
      "departure": 95160
    },
    {
      "stop": {
        "id": "2_4707",
        "lat": 47.97928745,
        "lon": -1.72433103,
        "name": "Châtaigneraie",
        "code": 4707
      },
      "arrival": 95220,
      "departure": 95220
    },
    {
      "stop": {
        "id": "2_4708",
        "lat": 47.98009235,
        "lon": -1.7309092,
        "name": "Gingouillère",
        "code": 4708
      },
      "arrival": 95280,
      "departure": 95280
    }
  ],
  "route": {
    "id": "2_0072",
    "textColor": "FFFFFF",
    "color": "0C3C91",
    "description": "Métropolitaine",
    "longName": "Rennes (Henri Fréville) \u003c\u003e Chartres-de-Bretagne / Pont-Péan / Laillé",
    "shortName": "72",
    "type": 3,
    "agencyId": "2"
  }
}