{
  "headsign": "40 | République",
  "stopTimes": [
    {
      "stop": {
        "id": "2_1290",
        "lat": 48.12688601,
        "lon": -1.62954442,
        "name": "Clos Courtel",
        "code": 1290
      },
      "arrival": 57840,
      "departure": 57840
    },
    {
      "stop": {
        "id": "2_1291",
        "lat": 48.12475494,
        "lon": -1.63388412,
        "name": "IUT",
        "code": 1291
      },
      "arrival": 57900,
      "departure": 57900
    },
    {
      "stop": {
        "id": "2_1292",
        "lat": 48.12145018,
        "lon": -1.63814809,
        "name": "Beaulieu Restau. U.",
        "code": 1292
      },
      "arrival": 58020,
      "departure": 58020
    },
    {
      "stop": {
        "id": "2_1176",
        "lat": 48.11901733,
        "lon": -1.63514782,
        "name": "Beaulieu INSA",
        "code": 1176
      },
      "arrival": 58080,
      "departure": 58080
    },
    {
      "stop": {
        "id": "2_1312",
        "lat": 48.1166495,
        "lon": -1.63393042,
        "name": "Beaulieu Chimie",
        "code": 1312
      },
      "arrival": 58140,
      "departure": 58140
    },
    {
      "stop": {
        "id": "2_1160",
        "lat": 48.11406412,
        "lon": -1.63761839,
        "name": "Tournebride",
        "code": 1160
      },
      "arrival": 58200,
      "departure": 58200
    },
    {
      "stop": {
        "id": "2_1603",
        "lat": 48.11319466,
        "lon": -1.64121462,
        "name": "Préales",
        "code": 1603
      },
      "arrival": 58320,
      "departure": 58320
    },
    {
      "stop": {
        "id": "2_1161",
        "lat": 48.11219183,
        "lon": -1.64423633,
        "name": "Plaine de Baud",
        "code": 1161
      },
      "arrival": 58380,
      "departure": 58380
    },
    {
      "stop": {
        "id": "2_1166",
        "lat": 48.10988328,
        "lon": -1.67512929,
        "name": "Musée Beaux Arts",
        "code": 1166
      },
      "arrival": 58680,
      "departure": 58680
    },
    {
      "stop": {
        "id": "2_1090",
        "lat": 48.10952605,
        "lon": -1.6779074,
        "name": "République",
        "code": 1090
      },
      "arrival": 58740,
      "departure": 58740
    }
  ],
  "route": {
    "id": "2_0040",
    "textColor": "DF171C",
    "color": "FCE000",
    "description": "Express urbaine",
    "longName": "République \u003c\u003e Beaulieu Atalante",
    "shortName": "40",
    "type": 3,
    "agencyId": "2"
  }
}