{
  "headsign": "210 | L\u0027Hermitage Mordelles",
  "stopTimes": [
    {
      "stop": {
        "id": "2_1566",
        "lat": 48.12537009,
        "lon": -1.69257643,
        "name": "Lycée Basch",
        "code": 1566
      },
      "arrival": 44100,
      "departure": 44100
    },
    {
      "stop": {
        "id": "2_1307",
        "lat": 48.12192614,
        "lon": -1.70388916,
        "name": "Villejean-Université",
        "code": 1307
      },
      "arrival": 44400,
      "departure": 44400
    },
    {
      "stop": {
        "id": "2_1499",
        "lat": 48.11626024,
        "lon": -1.71595794,
        "name": "Colin",
        "code": 1499
      },
      "arrival": 44760,
      "departure": 44760
    },
    {
      "stop": {
        "id": "2_1498",
        "lat": 48.11658191,
        "lon": -1.72390238,
        "name": "Petit Champeaux",
        "code": 1498
      },
      "arrival": 44820,
      "departure": 44820
    },
    {
      "stop": {
        "id": "2_3760",
        "lat": 48.11770317,
        "lon": -1.73100316,
        "name": "Champ Noël",
        "code": 3760
      },
      "arrival": 44880,
      "departure": 44880
    },
    {
      "stop": {
        "id": "2_3761",
        "lat": 48.11835117,
        "lon": -1.74111786,
        "name": "Tertre",
        "code": 3761
      },
      "arrival": 44940,
      "departure": 44940
    },
    {
      "stop": {
        "id": "2_3764",
        "lat": 48.12036615,
        "lon": -1.76557329,
        "name": "Vallée",
        "code": 3764
      },
      "arrival": 45120,
      "departure": 45120
    },
    {
      "stop": {
        "id": "2_3765",
        "lat": 48.12097559,
        "lon": -1.7716735,
        "name": "Haie de Terre",
        "code": 3765
      },
      "arrival": 45180,
      "departure": 45180
    },
    {
      "stop": {
        "id": "2_4315",
        "lat": 48.12294892,
        "lon": -1.80230832,
        "name": "Noë Biche",
        "code": 4315
      },
      "arrival": 45360,
      "departure": 45360
    },
    {
      "stop": {
        "id": "2_4307",
        "lat": 48.12346101,
        "lon": -1.80743913,
        "name": "Clairefontaine",
        "code": 4307
      },
      "arrival": 45420,
      "departure": 45420
    },
    {
      "stop": {
        "id": "2_4308",
        "lat": 48.12499565,
        "lon": -1.81290303,
        "name": "Village",
        "code": 4308
      },
      "arrival": 45480,
      "departure": 45480
    },
    {
      "stop": {
        "id": "2_4304",
        "lat": 48.12551567,
        "lon": -1.81606092,
        "name": "L\u0027Hermitage Centre",
        "code": 4304
      },
      "arrival": 45540,
      "departure": 45540
    },
    {
      "stop": {
        "id": "2_3862",
        "lat": 48.07780007,
        "lon": -1.83732775,
        "name": "Gretay",
        "code": 3862
      },
      "arrival": 46080,
      "departure": 46080
    },
    {
      "stop": {
        "id": "2_3863",
        "lat": 48.0755735,
        "lon": -1.84280109,
        "name": "Mordelles Lilas",
        "code": 3863
      },
      "arrival": 46140,
      "departure": 46140
    },
    {
      "stop": {
        "id": "2_3864",
        "lat": 48.07357073,
        "lon": -1.84677438,
        "name": "Mordelles Mairie",
        "code": 3864
      },
      "arrival": 46200,
      "departure": 46200
    },
    {
      "stop": {
        "id": "2_3865",
        "lat": 48.07185149,
        "lon": -1.85020843,
        "name": "Mordelles Eglise",
        "code": 3865
      },
      "arrival": 46260,
      "departure": 46260
    },
    {
      "stop": {
        "id": "2_3851",
        "lat": 48.07460255,
        "lon": -1.85367611,
        "name": "Mordelles Pâtis",
        "code": 3851
      },
      "arrival": 46380,
      "departure": 46380
    }
  ],
  "route": {
    "id": "2_0210",
    "textColor": "FFFFFF",
    "color": "E30613",
    "description": "Complémentaire",
    "longName": "Mordelles (Pâtis) \u003c\u003e Rennes (Lycée V.H. Basch)",
    "shortName": "210",
    "type": 3,
    "agencyId": "2"
  }
}