{
  "headsign": "72 | Chartres Pont-Péan",
  "stopTimes": [
    {
      "stop": {
        "id": "2_1510",
        "lat": 48.08777947,
        "lon": -1.67446532,
        "name": "Henri Fréville",
        "code": 1510
      },
      "arrival": 63600,
      "departure": 63600
    },
    {
      "stop": {
        "id": "2_1449",
        "lat": 48.08682379,
        "lon": -1.6830757,
        "name": "Norvège",
        "code": 1449
      },
      "arrival": 63780,
      "departure": 63780
    },
    {
      "stop": {
        "id": "2_1450",
        "lat": 48.08665851,
        "lon": -1.68837187,
        "name": "Coubertin",
        "code": 1450
      },
      "arrival": 63900,
      "departure": 63900
    },
    {
      "stop": {
        "id": "2_1267",
        "lat": 48.0857359,
        "lon": -1.69390359,
        "name": "Félix Eboué",
        "code": 1267
      },
      "arrival": 64020,
      "departure": 64020
    },
    {
      "stop": {
        "id": "2_2262",
        "lat": 48.06879203,
        "lon": -1.69785635,
        "name": "Vallon",
        "code": 2262
      },
      "arrival": 64260,
      "departure": 64260
    },
    {
      "stop": {
        "id": "2_2704",
        "lat": 48.0593778,
        "lon": -1.70119071,
        "name": "Janais",
        "code": 2704
      },
      "arrival": 64380,
      "departure": 64380
    },
    {
      "stop": {
        "id": "2_2907",
        "lat": 48.04566035,
        "lon": -1.71043502,
        "name": "Croix aux Potiers",
        "code": 2907
      },
      "arrival": 64620,
      "departure": 64620
    },
    {
      "stop": {
        "id": "2_2918",
        "lat": 48.04201304,
        "lon": -1.71105813,
        "name": "Callouët",
        "code": 2918
      },
      "arrival": 64680,
      "departure": 64680
    },
    {
      "stop": {
        "id": "2_2919",
        "lat": 48.04229207,
        "lon": -1.70746679,
        "name": "Chartres Centre",
        "code": 2919
      },
      "arrival": 64740,
      "departure": 64740
    },
    {
      "stop": {
        "id": "2_2920",
        "lat": 48.04158293,
        "lon": -1.70288204,
        "name": "Auditoire",
        "code": 2920
      },
      "arrival": 64800,
      "departure": 64800
    },
    {
      "stop": {
        "id": "2_2921",
        "lat": 48.04125573,
        "lon": -1.69776297,
        "name": "Collège Pôle Sud",
        "code": 2921
      },
      "arrival": 64860,
      "departure": 64860
    },
    {
      "stop": {
        "id": "2_2922",
        "lat": 48.03705289,
        "lon": -1.69713431,
        "name": "Vieux Bourg",
        "code": 2922
      },
      "arrival": 64980,
      "departure": 64980
    },
    {
      "stop": {
        "id": "2_2923",
        "lat": 48.03470268,
        "lon": -1.69977512,
        "name": "Cornouaille",
        "code": 2923
      },
      "arrival": 65040,
      "departure": 65040
    },
    {
      "stop": {
        "id": "2_2924",
        "lat": 48.03549509,
        "lon": -1.70610918,
        "name": "Argoat",
        "code": 2924
      },
      "arrival": 65160,
      "departure": 65160
    },
    {
      "stop": {
        "id": "2_2927",
        "lat": 48.03317188,
        "lon": -1.70739442,
        "name": "Parc de Loisirs",
        "code": 2927
      },
      "arrival": 65220,
      "departure": 65220
    },
    {
      "stop": {
        "id": "2_2930",
        "lat": 48.03121562,
        "lon": -1.70919607,
        "name": "Constant Mérel",
        "code": 2930
      },
      "arrival": 65280,
      "departure": 65280
    },
    {
      "stop": {
        "id": "2_3909",
        "lat": 48.01988822,
        "lon": -1.70705918,
        "name": "Renaissance",
        "code": 3909
      },
      "arrival": 65460,
      "departure": 65460
    },
    {
      "stop": {
        "id": "2_3910",
        "lat": 48.0169427,
        "lon": -1.7051982,
        "name": "Fontaine Blanche",
        "code": 3910
      },
      "arrival": 65520,
      "departure": 65520
    },
    {
      "stop": {
        "id": "2_3911",
        "lat": 48.01367131,
        "lon": -1.70764824,
        "name": "Rivaudière",
        "code": 3911
      },
      "arrival": 65520,
      "departure": 65520
    },
    {
      "stop": {
        "id": "2_3912",
        "lat": 48.01082475,
        "lon": -1.706468,
        "name": "Pont Péan Mairie",
        "code": 3912
      },
      "arrival": 65640,
      "departure": 65640
    },
    {
      "stop": {
        "id": "2_3904",
        "lat": 48.01295576,
        "lon": -1.70300304,
        "name": "Chemin Vert",
        "code": 3904
      },
      "arrival": 65640,
      "departure": 65640
    },
    {
      "stop": {
        "id": "2_3914",
        "lat": 48.01038435,
        "lon": -1.70102798,
        "name": "Mouton Blanc",
        "code": 3914
      },
      "arrival": 65700,
      "departure": 65700
    },
    {
      "stop": {
        "id": "2_3915",
        "lat": 48.00553207,
        "lon": -1.69815207,
        "name": "Caliorne",
        "code": 3915
      },
      "arrival": 65760,
      "departure": 65760
    },
    {
      "stop": {
        "id": "2_3901",
        "lat": 47.99990894,
        "lon": -1.69696794,
        "name": "Bois Esnault",
        "code": 3901
      },
      "arrival": 65820,
      "departure": 65820
    }
  ],
  "route": {
    "id": "2_0072",
    "textColor": "FFFFFF",
    "color": "0C3C91",
    "description": "Métropolitaine",
    "longName": "Rennes (Henri Fréville) \u003c\u003e Chartres-de-Bretagne / Pont-Péan / Laillé",
    "shortName": "72",
    "type": 3,
    "agencyId": "2"
  }
}