{
  "headsign": "KL | Rennes République",
  "stopTimes": [
    {
      "stop": {
        "id": "2_2319",
        "lat": 48.044534,
        "lon": -1.746319,
        "name": "Schuman",
        "code": 2319
      },
      "arrival": 61800,
      "departure": 61800
    },
    {
      "stop": {
        "id": "2_2311",
        "lat": 48.047249,
        "lon": -1.741955,
        "name": "Coeur de Campus",
        "code": 2311
      },
      "arrival": 61920,
      "departure": 61920
    },
    {
      "stop": {
        "id": "2_2312",
        "lat": 48.049424,
        "lon": -1.740454,
        "name": "Etangs",
        "code": 2312
      },
      "arrival": 61980,
      "departure": 61980
    },
    {
      "stop": {
        "id": "2_2313",
        "lat": 48.052679,
        "lon": -1.73829,
        "name": "Lande du Pont",
        "code": 2313
      },
      "arrival": 62100,
      "departure": 62100
    },
    {
      "stop": {
        "id": "2_1022",
        "lat": 48.106222,
        "lon": -1.680736,
        "name": "Plélo Colombier",
        "code": 1022
      },
      "arrival": 63360,
      "departure": 63360
    },
    {
      "stop": {
        "id": "2_1615",
        "lat": 48.109803,
        "lon": -1.678283,
        "name": "République",
        "code": 1615
      },
      "arrival": 63540,
      "departure": 63540
    }
  ],
  "route": {
    "id": "2_0158",
    "textColor": "3D3C3F",
    "color": "FFDD00",
    "description": "Express métropolitaine",
    "longName": "Rennes (République) \u003c\u003e Campus de Ker-Lann",
    "shortName": "KL",
    "type": 3,
    "agencyId": "2"
  }
}