{
  "headsign": "238 | L\u0027Hermitage La Chapelle-Th.",
  "stopTimes": [
    {
      "stop": {
        "id": "2_2517",
        "lat": 48.0993953,
        "lon": -1.79670831,
        "name": "Brassens",
        "code": 2517
      },
      "arrival": 42300,
      "departure": 42300
    },
    {
      "stop": {
        "id": "2_2519",
        "lat": 48.10084549,
        "lon": -1.80690728,
        "name": "Lycée Monod",
        "code": 2519
      },
      "arrival": 42420,
      "departure": 42420
    },
    {
      "stop": {
        "id": "2_4307",
        "lat": 48.12346101,
        "lon": -1.80743913,
        "name": "Clairefontaine",
        "code": 4307
      },
      "arrival": 42900,
      "departure": 42900
    },
    {
      "stop": {
        "id": "2_4308",
        "lat": 48.12499565,
        "lon": -1.81290303,
        "name": "Village",
        "code": 4308
      },
      "arrival": 42960,
      "departure": 42960
    },
    {
      "stop": {
        "id": "2_4304",
        "lat": 48.12551567,
        "lon": -1.81606092,
        "name": "L\u0027Hermitage Centre",
        "code": 4304
      },
      "arrival": 43020,
      "departure": 43020
    },
    {
      "stop": {
        "id": "2_4310",
        "lat": 48.12373586,
        "lon": -1.81791833,
        "name": "L\u0027Hermitage Gare",
        "code": 4310
      },
      "arrival": 43080,
      "departure": 43080
    },
    {
      "stop": {
        "id": "2_4311",
        "lat": 48.12290007,
        "lon": -1.82093895,
        "name": "Hautière",
        "code": 4311
      },
      "arrival": 43140,
      "departure": 43140
    },
    {
      "stop": {
        "id": "2_4255",
        "lat": 48.12140881,
        "lon": -1.83774109,
        "name": "Grippière",
        "code": 4255
      },
      "arrival": 43260,
      "departure": 43260
    },
    {
      "stop": {
        "id": "2_4256",
        "lat": 48.1220314,
        "lon": -1.84628093,
        "name": "Piardière",
        "code": 4256
      },
      "arrival": 43320,
      "departure": 43320
    },
    {
      "stop": {
        "id": "2_4257",
        "lat": 48.1230881,
        "lon": -1.86080178,
        "name": "Rochers",
        "code": 4257
      },
      "arrival": 43440,
      "departure": 43440
    },
    {
      "stop": {
        "id": "2_4269",
        "lat": 48.12308598,
        "lon": -1.86604237,
        "name": "Place de la Mairie",
        "code": 4269
      },
      "arrival": 43500,
      "departure": 43500
    },
    {
      "stop": {
        "id": "2_4267",
        "lat": 48.12259522,
        "lon": -1.86836925,
        "name": "Ville aux Archers",
        "code": 4267
      },
      "arrival": 43560,
      "departure": 43560
    }
  ],
  "route": {
    "id": "2_0238",
    "textColor": "FFFFFF",
    "color": "BA67A6",
    "description": "Complémentaire",
    "longName": "La Chapelle-Thouarault (Ville aux Archers) \u003c\u003e Le Rheu (Lycée Théodore Monod)",
    "shortName": "238",
    "type": 3,
    "agencyId": "2"
  }
}