{
  "headsign": "9 | Saint-Laurent",
  "stopTimes": [
    {
      "stop": {
        "id": "2_1390",
        "lat": 48.104175,
        "lon": -1.713394,
        "name": "Cleunay",
        "code": 1390
      },
      "arrival": 58860,
      "departure": 58860
    },
    {
      "stop": {
        "id": "2_1391",
        "lat": 48.101056,
        "lon": -1.711799,
        "name": "Clinique La Sagesse",
        "code": 1391
      },
      "arrival": 58980,
      "departure": 58980
    },
    {
      "stop": {
        "id": "2_1388",
        "lat": 48.099353,
        "lon": -1.711217,
        "name": "Montand",
        "code": 1388
      },
      "arrival": 59040,
      "departure": 59040
    },
    {
      "stop": {
        "id": "2_1393",
        "lat": 48.097814,
        "lon": -1.707641,
        "name": "Récipon",
        "code": 1393
      },
      "arrival": 59100,
      "departure": 59100
    },
    {
      "stop": {
        "id": "2_1394",
        "lat": 48.099043,
        "lon": -1.705513,
        "name": "Guérinais",
        "code": 1394
      },
      "arrival": 59160,
      "departure": 59160
    },
    {
      "stop": {
        "id": "2_1395",
        "lat": 48.101013,
        "lon": -1.706956,
        "name": "De Lesseps",
        "code": 1395
      },
      "arrival": 59280,
      "departure": 59280
    },
    {
      "stop": {
        "id": "2_1396",
        "lat": 48.102182,
        "lon": -1.705063,
        "name": "Champion de Cicé",
        "code": 1396
      },
      "arrival": 59280,
      "departure": 59280
    },
    {
      "stop": {
        "id": "2_1383",
        "lat": 48.103589,
        "lon": -1.700048,
        "name": "Dargent",
        "code": 1383
      },
      "arrival": 59400,
      "departure": 59400
    },
    {
      "stop": {
        "id": "2_1382",
        "lat": 48.105074,
        "lon": -1.698818,
        "name": "Voltaire",
        "code": 1382
      },
      "arrival": 59460,
      "departure": 59460
    },
    {
      "stop": {
        "id": "2_1399",
        "lat": 48.105015,
        "lon": -1.69546,
        "name": "Malakoff",
        "code": 1399
      },
      "arrival": 59520,
      "departure": 59520
    },
    {
      "stop": {
        "id": "2_1612",
        "lat": 48.103539,
        "lon": -1.688429,
        "name": "Saint-Conwoïon",
        "code": 1612
      },
      "arrival": 59760,
      "departure": 59760
    },
    {
      "stop": {
        "id": "2_1401",
        "lat": 48.105574,
        "lon": -1.687728,
        "name": "Redon",
        "code": 1401
      },
      "arrival": 59820,
      "departure": 59820
    },
    {
      "stop": {
        "id": "2_1021",
        "lat": 48.105444,
        "lon": -1.684005,
        "name": "Cité Judiciaire",
        "code": 1021
      },
      "arrival": 59880,
      "departure": 59880
    },
    {
      "stop": {
        "id": "2_1022",
        "lat": 48.106222,
        "lon": -1.680736,
        "name": "Plélo Colombier",
        "code": 1022
      },
      "arrival": 60000,
      "departure": 60000
    },
    {
      "stop": {
        "id": "2_1023",
        "lat": 48.108066,
        "lon": -1.680048,
        "name": "Les Halles",
        "code": 1023
      },
      "arrival": 60060,
      "departure": 60060
    },
    {
      "stop": {
        "id": "2_1016",
        "lat": 48.110073,
        "lon": -1.680101,
        "name": "République Nemours",
        "code": 1016
      },
      "arrival": 60240,
      "departure": 60240
    },
    {
      "stop": {
        "id": "2_1025",
        "lat": 48.112738,
        "lon": -1.680211,
        "name": "Champ Jacquet",
        "code": 1025
      },
      "arrival": 60360,
      "departure": 60360
    },
    {
      "stop": {
        "id": "2_1026",
        "lat": 48.11482,
        "lon": -1.679242,
        "name": "Sainte-Anne",
        "code": 1026
      },
      "arrival": 60480,
      "departure": 60480
    },
    {
      "stop": {
        "id": "2_1027",
        "lat": 48.117163,
        "lon": -1.677351,
        "name": "Hôtel Dieu",
        "code": 1027
      },
      "arrival": 60600,
      "departure": 60600
    },
    {
      "stop": {
        "id": "2_1028",
        "lat": 48.117513,
        "lon": -1.673538,
        "name": "Sévigné",
        "code": 1028
      },
      "arrival": 60720,
      "departure": 60720
    },
    {
      "stop": {
        "id": "2_1029",
        "lat": 48.118281,
        "lon": -1.669591,
        "name": "Fac de Droit",
        "code": 1029
      },
      "arrival": 60780,
      "departure": 60780
    },
    {
      "stop": {
        "id": "2_1030",
        "lat": 48.119572,
        "lon": -1.666629,
        "name": "Guéhenno",
        "code": 1030
      },
      "arrival": 60840,
      "departure": 60840
    },
    {
      "stop": {
        "id": "2_1031",
        "lat": 48.121987,
        "lon": -1.662185,
        "name": "Metz Volney",
        "code": 1031
      },
      "arrival": 60960,
      "departure": 60960
    },
    {
      "stop": {
        "id": "2_1403",
        "lat": 48.125211,
        "lon": -1.66096,
        "name": "Saint-Exupéry",
        "code": 1403
      },
      "arrival": 61080,
      "departure": 61080
    },
    {
      "stop": {
        "id": "2_1404",
        "lat": 48.126712,
        "lon": -1.658487,
        "name": "Trégain",
        "code": 1404
      },
      "arrival": 61140,
      "departure": 61140
    },
    {
      "stop": {
        "id": "2_1405",
        "lat": 48.128416,
        "lon": -1.657061,
        "name": "Europe",
        "code": 1405
      },
      "arrival": 61200,
      "departure": 61200
    },
    {
      "stop": {
        "id": "2_1406",
        "lat": 48.130876,
        "lon": -1.656445,
        "name": "Gast",
        "code": 1406
      },
      "arrival": 61260,
      "departure": 61260
    },
    {
      "stop": {
        "id": "2_1407",
        "lat": 48.133129,
        "lon": -1.656626,
        "name": "Longs Prés",
        "code": 1407
      },
      "arrival": 61320,
      "departure": 61320
    },
    {
      "stop": {
        "id": "2_1373",
        "lat": 48.135248,
        "lon": -1.65936,
        "name": "Hôtel de Région",
        "code": 1373
      },
      "arrival": 61380,
      "departure": 61380
    },
    {
      "stop": {
        "id": "2_1372",
        "lat": 48.138364,
        "lon": -1.659181,
        "name": "Saint-Laurent",
        "code": 1372
      },
      "arrival": 61500,
      "departure": 61500
    }
  ],
  "route": {
    "id": "2_0009",
    "textColor": "FFFFFF",
    "color": "00519E",
    "description": "Majeure",
    "longName": "Saint-Laurent \u003c\u003e Cleunay",
    "shortName": "9",
    "type": 3,
    "agencyId": "2"
  }
}