{
  "headsign": "KL | Rennes République",
  "stopTimes": [
    {
      "stop": {
        "id": "2_2319",
        "lat": 48.044534,
        "lon": -1.746319,
        "name": "Schuman",
        "code": 2319
      },
      "arrival": 65400,
      "departure": 65400
    },
    {
      "stop": {
        "id": "2_2311",
        "lat": 48.047249,
        "lon": -1.741955,
        "name": "Coeur de Campus",
        "code": 2311
      },
      "arrival": 65520,
      "departure": 65520
    },
    {
      "stop": {
        "id": "2_2312",
        "lat": 48.049424,
        "lon": -1.740454,
        "name": "Etangs",
        "code": 2312
      },
      "arrival": 65580,
      "departure": 65580
    },
    {
      "stop": {
        "id": "2_2313",
        "lat": 48.052679,
        "lon": -1.73829,
        "name": "Lande du Pont",
        "code": 2313
      },
      "arrival": 65640,
      "departure": 65640
    },
    {
      "stop": {
        "id": "2_1022",
        "lat": 48.106222,
        "lon": -1.680736,
        "name": "Plélo Colombier",
        "code": 1022
      },
      "arrival": 66720,
      "departure": 66720
    },
    {
      "stop": {
        "id": "2_1615",
        "lat": 48.109803,
        "lon": -1.678283,
        "name": "République",
        "code": 1615
      },
      "arrival": 66900,
      "departure": 66900
    }
  ],
  "route": {
    "id": "2_0158",
    "textColor": "3D3C3F",
    "color": "FFDD00",
    "description": "Express métropolitaine",
    "longName": "Rennes (République) \u003c\u003e Campus de Ker-Lann",
    "shortName": "KL",
    "type": 3,
    "agencyId": "2"
  }
}