{
  "headsign": "11 | La Poterie via ZI Sud-Est",
  "stopTimes": [
    {
      "stop": {
        "id": "2_3751",
        "lat": 48.10740153,
        "lon": -1.73924668,
        "name": "ZI Ouest",
        "code": 3751
      },
      "arrival": 78600,
      "departure": 78600
    },
    {
      "stop": {
        "id": "2_3752",
        "lat": 48.10474061,
        "lon": -1.73906178,
        "name": "Trois Marches",
        "code": 3752
      },
      "arrival": 78660,
      "departure": 78660
    },
    {
      "stop": {
        "id": "2_3769",
        "lat": 48.10421313,
        "lon": -1.73603999,
        "name": "Marais",
        "code": 3769
      },
      "arrival": 78660,
      "departure": 78660
    },
    {
      "stop": {
        "id": "2_1229",
        "lat": 48.10118185,
        "lon": -1.73162775,
        "name": "Servigné",
        "code": 1229
      },
      "arrival": 78780,
      "departure": 78780
    },
    {
      "stop": {
        "id": "2_1230",
        "lat": 48.10210977,
        "lon": -1.72691496,
        "name": "Jardin Moderne",
        "code": 1230
      },
      "arrival": 78840,
      "departure": 78840
    },
    {
      "stop": {
        "id": "2_1231",
        "lat": 48.10328122,
        "lon": -1.72333208,
        "name": "Robinot de St-Cyr",
        "code": 1231
      },
      "arrival": 78840,
      "departure": 78840
    },
    {
      "stop": {
        "id": "2_1232",
        "lat": 48.10625606,
        "lon": -1.72374575,
        "name": "Le Hô",
        "code": 1232
      },
      "arrival": 78900,
      "departure": 78900
    },
    {
      "stop": {
        "id": "2_1233",
        "lat": 48.10704453,
        "lon": -1.72187845,
        "name": "Lemaistre",
        "code": 1233
      },
      "arrival": 78960,
      "departure": 78960
    },
    {
      "stop": {
        "id": "2_1234",
        "lat": 48.10775888,
        "lon": -1.71484897,
        "name": "Stade Rennais",
        "code": 1234
      },
      "arrival": 79020,
      "departure": 79020
    },
    {
      "stop": {
        "id": "2_1235",
        "lat": 48.10892663,
        "lon": -1.70977108,
        "name": "Géniaux",
        "code": 1235
      },
      "arrival": 79080,
      "departure": 79080
    },
    {
      "stop": {
        "id": "2_1236",
        "lat": 48.10881331,
        "lon": -1.7056153,
        "name": "Kerviler",
        "code": 1236
      },
      "arrival": 79140,
      "departure": 79140
    },
    {
      "stop": {
        "id": "2_1237",
        "lat": 48.10773621,
        "lon": -1.70211405,
        "name": "Papeteries",
        "code": 1237
      },
      "arrival": 79200,
      "departure": 79200
    },
    {
      "stop": {
        "id": "2_1238",
        "lat": 48.10869591,
        "lon": -1.69884796,
        "name": "Guilloux Lorient",
        "code": 1238
      },
      "arrival": 79260,
      "departure": 79260
    },
    {
      "stop": {
        "id": "2_1239",
        "lat": 48.10827073,
        "lon": -1.6941653,
        "name": "Chèques Postaux",
        "code": 1239
      },
      "arrival": 79320,
      "departure": 79320
    },
    {
      "stop": {
        "id": "2_1240",
        "lat": 48.10927186,
        "lon": -1.68970708,
        "name": "Le Mail",
        "code": 1240
      },
      "arrival": 79380,
      "departure": 79380
    },
    {
      "stop": {
        "id": "2_1091",
        "lat": 48.10977886,
        "lon": -1.68388248,
        "name": "Place de Bretagne",
        "code": 1091
      },
      "arrival": 79500,
      "departure": 79500
    },
    {
      "stop": {
        "id": "2_1242",
        "lat": 48.10980333,
        "lon": -1.6795219,
        "name": "République",
        "code": 1242
      },
      "arrival": 79620,
      "departure": 81000
    },
    {
      "stop": {
        "id": "2_1088",
        "lat": 48.10744897,
        "lon": -1.67491383,
        "name": "Liberté TNB",
        "code": 1088
      },
      "arrival": 81180,
      "departure": 81180
    },
    {
      "stop": {
        "id": "2_1087",
        "lat": 48.1060299,
        "lon": -1.67410184,
        "name": "Champs Libres",
        "code": 1087
      },
      "arrival": 81240,
      "departure": 81240
    },
    {
      "stop": {
        "id": "2_1477",
        "lat": 48.10388016,
        "lon": -1.67284842,
        "name": "Gares",
        "code": 1477
      },
      "arrival": 81300,
      "departure": 81300
    },
    {
      "stop": {
        "id": "2_1085",
        "lat": 48.10476768,
        "lon": -1.66658594,
        "name": "Laënnec",
        "code": 1085
      },
      "arrival": 81420,
      "departure": 81420
    },
    {
      "stop": {
        "id": "2_1243",
        "lat": 48.10254897,
        "lon": -1.66111869,
        "name": "Croix Saint-Hélier",
        "code": 1243
      },
      "arrival": 81480,
      "departure": 81480
    },
    {
      "stop": {
        "id": "2_1244",
        "lat": 48.10229227,
        "lon": -1.65513195,
        "name": "Mouézy",
        "code": 1244
      },
      "arrival": 81540,
      "departure": 81540
    },
    {
      "stop": {
        "id": "2_1211",
        "lat": 48.10317679,
        "lon": -1.65251241,
        "name": "Serpette",
        "code": 1211
      },
      "arrival": 81600,
      "departure": 81600
    },
    {
      "stop": {
        "id": "2_1246",
        "lat": 48.10439597,
        "lon": -1.64934184,
        "name": "Cimetière de l\u0027Est",
        "code": 1246
      },
      "arrival": 81660,
      "departure": 81660
    },
    {
      "stop": {
        "id": "2_1247",
        "lat": 48.10491097,
        "lon": -1.64382886,
        "name": "Pavie",
        "code": 1247
      },
      "arrival": 81720,
      "departure": 81720
    },
    {
      "stop": {
        "id": "2_1248",
        "lat": 48.10393193,
        "lon": -1.63578425,
        "name": "Pré Garel",
        "code": 1248
      },
      "arrival": 81780,
      "departure": 81780
    },
    {
      "stop": {
        "id": "2_2123",
        "lat": 48.10460642,
        "lon": -1.63076044,
        "name": "Buisson",
        "code": 2123
      },
      "arrival": 81840,
      "departure": 81840
    },
    {
      "stop": {
        "id": "2_2037",
        "lat": 48.10607373,
        "lon": -1.62563212,
        "name": "Erbonière",
        "code": 2037
      },
      "arrival": 81900,
      "departure": 81900
    },
    {
      "stop": {
        "id": "2_2032",
        "lat": 48.10622656,
        "lon": -1.6212918,
        "name": "Charmilles",
        "code": 2032
      },
      "arrival": 81960,
      "departure": 81960
    },
    {
      "stop": {
        "id": "2_2036",
        "lat": 48.10118579,
        "lon": -1.62396139,
        "name": "Bas Village",
        "code": 2036
      },
      "arrival": 82020,
      "departure": 82020
    },
    {
      "stop": {
        "id": "2_2034",
        "lat": 48.0996197,
        "lon": -1.62114642,
        "name": "Forum",
        "code": 2034
      },
      "arrival": 82080,
      "departure": 82080
    },
    {
      "stop": {
        "id": "2_3015",
        "lat": 48.09813047,
        "lon": -1.62296013,
        "name": "Breillou",
        "code": 3015
      },
      "arrival": 82140,
      "departure": 82140
    },
    {
      "stop": {
        "id": "2_1205",
        "lat": 48.09712076,
        "lon": -1.62923032,
        "name": "Veyettes",
        "code": 1205
      },
      "arrival": 82200,
      "departure": 82200
    },
    {
      "stop": {
        "id": "2_1633",
        "lat": 48.09663714,
        "lon": -1.63652489,
        "name": "Haut Sancé",
        "code": 1633
      },
      "arrival": 82260,
      "departure": 82260
    },
    {
      "stop": {
        "id": "2_1072",
        "lat": 48.09499328,
        "lon": -1.63793817,
        "name": "CARSAT",
        "code": 1072
      },
      "arrival": 82320,
      "departure": 82320
    },
    {
      "stop": {
        "id": "2_1073",
        "lat": 48.09257263,
        "lon": -1.63966324,
        "name": "Ronceray",
        "code": 1073
      },
      "arrival": 82380,
      "departure": 82380
    },
    {
      "stop": {
        "id": "2_1074",
        "lat": 48.09187614,
        "lon": -1.63629215,
        "name": "Gohier",
        "code": 1074
      },
      "arrival": 82380,
      "departure": 82380
    },
    {
      "stop": {
        "id": "2_1075",
        "lat": 48.08949402,
        "lon": -1.63543734,
        "name": "Bourgueil",
        "code": 1075
      },
      "arrival": 82440,
      "departure": 82440
    },
    {
      "stop": {
        "id": "2_1076",
        "lat": 48.08799285,
        "lon": -1.6383059,
        "name": "Monnet",
        "code": 1076
      },
      "arrival": 82500,
      "departure": 82500
    },
    {
      "stop": {
        "id": "2_1065",
        "lat": 48.08758724,
        "lon": -1.64393705,
        "name": "La Poterie",
        "code": 1065
      },
      "arrival": 82560,
      "departure": 82560
    }
  ],
  "route": {
    "id": "2_0011",
    "textColor": "FFFFFF",
    "color": "DD84B1",
    "description": "Urbaine",
    "longName": "ZI Ouest / Stade Rennais \u003c\u003e Saint-Saëns / La Poterie",
    "shortName": "11",
    "type": 3,
    "agencyId": "2"
  }
}