{
  "headsign": "59 | Bruz Gare",
  "stopTimes": [
    {
      "stop": {
        "id": "2_2601",
        "lat": 48.038508,
        "lon": -1.602504,
        "name": "Croix Malinge",
        "code": 2601
      },
      "arrival": 71580,
      "departure": 71580
    },
    {
      "stop": {
        "id": "2_2602",
        "lat": 48.043401,
        "lon": -1.601647,
        "name": "Bel Air",
        "code": 2602
      },
      "arrival": 71700,
      "departure": 71700
    },
    {
      "stop": {
        "id": "2_2629",
        "lat": 48.047187,
        "lon": -1.602518,
        "name": "Vern Eglise",
        "code": 2629
      },
      "arrival": 71760,
      "departure": 71760
    },
    {
      "stop": {
        "id": "2_2604",
        "lat": 48.049558,
        "lon": -1.606153,
        "name": "Croix Rouge",
        "code": 2604
      },
      "arrival": 71820,
      "departure": 71820
    },
    {
      "stop": {
        "id": "2_2617",
        "lat": 48.049484,
        "lon": -1.611106,
        "name": "Fosse Gauchère",
        "code": 2617
      },
      "arrival": 71880,
      "departure": 71880
    },
    {
      "stop": {
        "id": "2_2606",
        "lat": 48.050629,
        "lon": -1.614982,
        "name": "Solidor",
        "code": 2606
      },
      "arrival": 71940,
      "departure": 71940
    },
    {
      "stop": {
        "id": "2_2607",
        "lat": 48.052615,
        "lon": -1.613836,
        "name": "Haute Abbaye",
        "code": 2607
      },
      "arrival": 72000,
      "departure": 72000
    },
    {
      "stop": {
        "id": "2_2608",
        "lat": 48.059275,
        "lon": -1.616638,
        "name": "Bretonnière",
        "code": 2608
      },
      "arrival": 72120,
      "departure": 72120
    },
    {
      "stop": {
        "id": "2_2609",
        "lat": 48.064138,
        "lon": -1.623074,
        "name": "Val d\u0027Orson",
        "code": 2609
      },
      "arrival": 72240,
      "departure": 72240
    },
    {
      "stop": {
        "id": "2_2610",
        "lat": 48.067768,
        "lon": -1.625701,
        "name": "Garenne",
        "code": 2610
      },
      "arrival": 72300,
      "departure": 72300
    },
    {
      "stop": {
        "id": "2_2611",
        "lat": 48.072416,
        "lon": -1.628709,
        "name": "Hallerais",
        "code": 2611
      },
      "arrival": 72360,
      "departure": 72360
    },
    {
      "stop": {
        "id": "2_3024",
        "lat": 48.07696,
        "lon": -1.631808,
        "name": "Martinière",
        "code": 3024
      },
      "arrival": 72420,
      "departure": 72420
    },
    {
      "stop": {
        "id": "2_1343",
        "lat": 48.087643,
        "lon": -1.645966,
        "name": "La Poterie",
        "code": 1343
      },
      "arrival": 72660,
      "departure": 72660
    },
    {
      "stop": {
        "id": "2_1344",
        "lat": 48.0877,
        "lon": -1.650088,
        "name": "Galicie",
        "code": 1344
      },
      "arrival": 72720,
      "departure": 72720
    },
    {
      "stop": {
        "id": "2_1345",
        "lat": 48.084879,
        "lon": -1.651171,
        "name": "Sainte-Elisabeth",
        "code": 1345
      },
      "arrival": 72780,
      "departure": 72780
    },
    {
      "stop": {
        "id": "2_1346",
        "lat": 48.084724,
        "lon": -1.655211,
        "name": "Hôpital Sud",
        "code": 1346
      },
      "arrival": 72840,
      "departure": 72840
    },
    {
      "stop": {
        "id": "2_1347",
        "lat": 48.084769,
        "lon": -1.657925,
        "name": "Torigné",
        "code": 1347
      },
      "arrival": 72900,
      "departure": 72900
    },
    {
      "stop": {
        "id": "2_1348",
        "lat": 48.083652,
        "lon": -1.663902,
        "name": "Tage",
        "code": 1348
      },
      "arrival": 72960,
      "departure": 72960
    },
    {
      "stop": {
        "id": "2_1349",
        "lat": 48.083722,
        "lon": -1.668177,
        "name": "Douro",
        "code": 1349
      },
      "arrival": 73020,
      "departure": 73020
    },
    {
      "stop": {
        "id": "2_1535",
        "lat": 48.083784,
        "lon": -1.672491,
        "name": "Portugal",
        "code": 1535
      },
      "arrival": 73080,
      "departure": 73080
    },
    {
      "stop": {
        "id": "2_1564",
        "lat": 48.088114,
        "lon": -1.674405,
        "name": "Henri Fréville",
        "code": 1564
      },
      "arrival": 73200,
      "departure": 73200
    },
    {
      "stop": {
        "id": "2_1449",
        "lat": 48.086865,
        "lon": -1.683079,
        "name": "Norvège",
        "code": 1449
      },
      "arrival": 73380,
      "departure": 73380
    },
    {
      "stop": {
        "id": "2_1450",
        "lat": 48.08669,
        "lon": -1.688453,
        "name": "Coubertin",
        "code": 1450
      },
      "arrival": 73440,
      "departure": 73440
    },
    {
      "stop": {
        "id": "2_1270",
        "lat": 48.085811,
        "lon": -1.694039,
        "name": "Félix Eboué",
        "code": 1270
      },
      "arrival": 73560,
      "departure": 73560
    },
    {
      "stop": {
        "id": "2_2262",
        "lat": 48.068729,
        "lon": -1.697896,
        "name": "Vallon",
        "code": 2262
      },
      "arrival": 73740,
      "departure": 73740
    },
    {
      "stop": {
        "id": "2_2704",
        "lat": 48.059279,
        "lon": -1.7013,
        "name": "Janais",
        "code": 2704
      },
      "arrival": 73860,
      "departure": 73860
    },
    {
      "stop": {
        "id": "2_2902",
        "lat": 48.047893,
        "lon": -1.713543,
        "name": "Croix aux Potiers",
        "code": 2902
      },
      "arrival": 74040,
      "departure": 74040
    },
    {
      "stop": {
        "id": "2_2328",
        "lat": 48.034888,
        "lon": -1.724811,
        "name": "Doublé",
        "code": 2328
      },
      "arrival": 74220,
      "departure": 74220
    },
    {
      "stop": {
        "id": "2_2338",
        "lat": 48.033269,
        "lon": -1.733105,
        "name": "Lavoisier",
        "code": 2338
      },
      "arrival": 74280,
      "departure": 74280
    },
    {
      "stop": {
        "id": "2_2339",
        "lat": 48.028337,
        "lon": -1.73564,
        "name": "Champ Niguel",
        "code": 2339
      },
      "arrival": 74340,
      "departure": 74340
    },
    {
      "stop": {
        "id": "2_2340",
        "lat": 48.025982,
        "lon": -1.734563,
        "name": "Bobinais",
        "code": 2340
      },
      "arrival": 74340,
      "departure": 74340
    },
    {
      "stop": {
        "id": "2_2341",
        "lat": 48.023636,
        "lon": -1.736267,
        "name": "Pasteur",
        "code": 2341
      },
      "arrival": 74400,
      "departure": 74400
    },
    {
      "stop": {
        "id": "2_2348",
        "lat": 48.023484,
        "lon": -1.743371,
        "name": "Bruz Centre",
        "code": 2348
      },
      "arrival": 74460,
      "departure": 74460
    },
    {
      "stop": {
        "id": "2_2343",
        "lat": 48.019598,
        "lon": -1.744633,
        "name": "Epalet",
        "code": 2343
      },
      "arrival": 74640,
      "departure": 74640
    },
    {
      "stop": {
        "id": "2_2344",
        "lat": 48.021674,
        "lon": -1.752317,
        "name": "Noë",
        "code": 2344
      },
      "arrival": 74700,
      "departure": 74700
    },
    {
      "stop": {
        "id": "2_2375",
        "lat": 48.024186,
        "lon": -1.75284,
        "name": "Châteliers",
        "code": 2375
      },
      "arrival": 74760,
      "departure": 74760
    },
    {
      "stop": {
        "id": "2_2372",
        "lat": 48.029045,
        "lon": -1.752705,
        "name": "Bruz Gare",
        "code": 2372
      },
      "arrival": 74880,
      "departure": 74880
    }
  ],
  "route": {
    "id": "2_0059",
    "textColor": "1A171B",
    "color": "F19FC1",
    "description": "Métropolitaine",
    "longName": "Vern-sur-Seiche \u003c\u003e Rennes (La Poterie) / Rennes (Henri Fréville) \u003c\u003e Bruz (Gare)",
    "shortName": "59",
    "type": 3,
    "agencyId": "2"
  }
}