{
  "headsign": "57 | Bruz Lavoisier",
  "stopTimes": [
    {
      "stop": {
        "id": "2_1501",
        "lat": 48.109403,
        "lon": -1.679768,
        "name": "République Pré Botté",
        "code": 1501
      },
      "arrival": 88500,
      "departure": 88500
    },
    {
      "stop": {
        "id": "2_1017",
        "lat": 48.108415,
        "lon": -1.680213,
        "name": "Les Halles",
        "code": 1017
      },
      "arrival": 88560,
      "departure": 88560
    },
    {
      "stop": {
        "id": "2_1018",
        "lat": 48.106204,
        "lon": -1.680999,
        "name": "Plélo Colombier",
        "code": 1018
      },
      "arrival": 88620,
      "departure": 88620
    },
    {
      "stop": {
        "id": "2_1019",
        "lat": 48.105084,
        "lon": -1.684731,
        "name": "Cité Judiciaire",
        "code": 1019
      },
      "arrival": 88740,
      "departure": 88740
    },
    {
      "stop": {
        "id": "2_1264",
        "lat": 48.10206,
        "lon": -1.684417,
        "name": "Pont de Nantes",
        "code": 1264
      },
      "arrival": 88800,
      "departure": 88800
    },
    {
      "stop": {
        "id": "2_1265",
        "lat": 48.099809,
        "lon": -1.687123,
        "name": "Foyer Rennais",
        "code": 1265
      },
      "arrival": 88860,
      "departure": 88860
    },
    {
      "stop": {
        "id": "2_1020",
        "lat": 48.097442,
        "lon": -1.689566,
        "name": "Mermoz",
        "code": 1020
      },
      "arrival": 88920,
      "departure": 88920
    },
    {
      "stop": {
        "id": "2_2208",
        "lat": 48.095802,
        "lon": -1.694528,
        "name": "Commeurec",
        "code": 2208
      },
      "arrival": 88980,
      "departure": 88980
    },
    {
      "stop": {
        "id": "2_2207",
        "lat": 48.093611,
        "lon": -1.701413,
        "name": "Lilas",
        "code": 2207
      },
      "arrival": 89040,
      "departure": 89040
    },
    {
      "stop": {
        "id": "2_2211",
        "lat": 48.087261,
        "lon": -1.707384,
        "name": "Gaité",
        "code": 2211
      },
      "arrival": 89160,
      "departure": 89160
    },
    {
      "stop": {
        "id": "2_2241",
        "lat": 48.08053,
        "lon": -1.71259,
        "name": "Malraux",
        "code": 2241
      },
      "arrival": 89280,
      "departure": 89280
    },
    {
      "stop": {
        "id": "2_2245",
        "lat": 48.077633,
        "lon": -1.712716,
        "name": "Haut Bois",
        "code": 2245
      },
      "arrival": 89280,
      "departure": 89280
    },
    {
      "stop": {
        "id": "2_2233",
        "lat": 48.067424,
        "lon": -1.717305,
        "name": "Abbé Grimault",
        "code": 2233
      },
      "arrival": 89460,
      "departure": 89460
    },
    {
      "stop": {
        "id": "2_2243",
        "lat": 48.066958,
        "lon": -1.722384,
        "name": "Aire Libre Aéroport",
        "code": 2243
      },
      "arrival": 89520,
      "departure": 89520
    },
    {
      "stop": {
        "id": "2_2242",
        "lat": 48.065059,
        "lon": -1.724639,
        "name": "Centre Météo",
        "code": 2242
      },
      "arrival": 89580,
      "departure": 89580
    },
    {
      "stop": {
        "id": "2_2244",
        "lat": 48.059907,
        "lon": -1.73445,
        "name": "Parc Expo",
        "code": 2244
      },
      "arrival": 89640,
      "departure": 89640
    },
    {
      "stop": {
        "id": "2_2315",
        "lat": 48.052844,
        "lon": -1.73842,
        "name": "Lande du Pont",
        "code": 2315
      },
      "arrival": 89760,
      "departure": 89760
    },
    {
      "stop": {
        "id": "2_2316",
        "lat": 48.049376,
        "lon": -1.740727,
        "name": "Etangs",
        "code": 2316
      },
      "arrival": 89820,
      "departure": 89820
    },
    {
      "stop": {
        "id": "2_2317",
        "lat": 48.047427,
        "lon": -1.742103,
        "name": "Coeur de Campus",
        "code": 2317
      },
      "arrival": 89880,
      "departure": 89880
    },
    {
      "stop": {
        "id": "2_2309",
        "lat": 48.044622,
        "lon": -1.746502,
        "name": "Schuman",
        "code": 2309
      },
      "arrival": 89940,
      "departure": 89940
    },
    {
      "stop": {
        "id": "2_2320",
        "lat": 48.040345,
        "lon": -1.755243,
        "name": "Croix Madame",
        "code": 2320
      },
      "arrival": 90000,
      "departure": 90000
    },
    {
      "stop": {
        "id": "2_2321",
        "lat": 48.0312,
        "lon": -1.759598,
        "name": "Gavrinis",
        "code": 2321
      },
      "arrival": 90120,
      "departure": 90120
    },
    {
      "stop": {
        "id": "2_2305",
        "lat": 48.029342,
        "lon": -1.758019,
        "name": "Vert Buisson",
        "code": 2305
      },
      "arrival": 90180,
      "departure": 90180
    },
    {
      "stop": {
        "id": "2_2323",
        "lat": 48.025619,
        "lon": -1.760676,
        "name": "Rabine",
        "code": 2323
      },
      "arrival": 90300,
      "departure": 90300
    },
    {
      "stop": {
        "id": "2_2324",
        "lat": 48.024584,
        "lon": -1.757229,
        "name": "Haut Launay",
        "code": 2324
      },
      "arrival": 90360,
      "departure": 90360
    },
    {
      "stop": {
        "id": "2_2374",
        "lat": 48.024285,
        "lon": -1.752925,
        "name": "Châteliers",
        "code": 2374
      },
      "arrival": 90420,
      "departure": 90420
    },
    {
      "stop": {
        "id": "2_2331",
        "lat": 48.021416,
        "lon": -1.752313,
        "name": "Noë",
        "code": 2331
      },
      "arrival": 90480,
      "departure": 90480
    },
    {
      "stop": {
        "id": "2_2332",
        "lat": 48.019493,
        "lon": -1.744988,
        "name": "Epalet",
        "code": 2332
      },
      "arrival": 90540,
      "departure": 90540
    },
    {
      "stop": {
        "id": "2_2353",
        "lat": 48.023379,
        "lon": -1.742999,
        "name": "Bruz Centre",
        "code": 2353
      },
      "arrival": 90660,
      "departure": 90660
    },
    {
      "stop": {
        "id": "2_2334",
        "lat": 48.023814,
        "lon": -1.736056,
        "name": "Pasteur",
        "code": 2334
      },
      "arrival": 90780,
      "departure": 90780
    },
    {
      "stop": {
        "id": "2_2335",
        "lat": 48.02629,
        "lon": -1.734494,
        "name": "Bobinais",
        "code": 2335
      },
      "arrival": 90840,
      "departure": 90840
    },
    {
      "stop": {
        "id": "2_2336",
        "lat": 48.030226,
        "lon": -1.734384,
        "name": "Champ Niguel",
        "code": 2336
      },
      "arrival": 90900,
      "departure": 90900
    },
    {
      "stop": {
        "id": "2_2337",
        "lat": 48.032956,
        "lon": -1.733031,
        "name": "Lavoisier",
        "code": 2337
      },
      "arrival": 91020,
      "departure": 91020
    }
  ],
  "route": {
    "id": "2_0057",
    "textColor": "FFFFFF",
    "color": "A9701E",
    "description": "Métropolitaine",
    "longName": "Rennes (République) \u003c\u003e Saint-Jacques-de-la-Lande / Bruz (Centre)",
    "shortName": "57",
    "type": 3,
    "agencyId": "2"
  }
}