{
  "headsign": "223 | Betton",
  "stopTimes": [
    {
      "stop": {
        "id": "2_2841",
        "lat": 48.16049892,
        "lon": -1.67685816,
        "name": "Parking scolaire Jean-Paul II",
        "code": 2841
      },
      "arrival": 44400,
      "departure": 44400
    },
    {
      "stop": {
        "id": "2_2829",
        "lat": 48.14928398,
        "lon": -1.65646132,
        "name": "Maison Blanche",
        "code": 2829
      },
      "arrival": 44880,
      "departure": 44880
    },
    {
      "stop": {
        "id": "2_2414",
        "lat": 48.17259986,
        "lon": -1.63732208,
        "name": "Housset",
        "code": 2414
      },
      "arrival": 45240,
      "departure": 45240
    },
    {
      "stop": {
        "id": "2_2415",
        "lat": 48.17681478,
        "lon": -1.63718049,
        "name": "Marronniers",
        "code": 2415
      },
      "arrival": 45300,
      "departure": 45300
    },
    {
      "stop": {
        "id": "2_2416",
        "lat": 48.18021697,
        "lon": -1.63478409,
        "name": "Haye Renaud Gare",
        "code": 2416
      },
      "arrival": 45420,
      "departure": 45420
    },
    {
      "stop": {
        "id": "2_2435",
        "lat": 48.18305974,
        "lon": -1.63721735,
        "name": "Mozart",
        "code": 2435
      },
      "arrival": 45540,
      "departure": 45540
    },
    {
      "stop": {
        "id": "2_2434",
        "lat": 48.18635458,
        "lon": -1.63319375,
        "name": "J. Sébastien Bach",
        "code": 2434
      },
      "arrival": 45600,
      "departure": 45600
    },
    {
      "stop": {
        "id": "2_2458",
        "lat": 48.19099575,
        "lon": -1.6289883,
        "name": "Gentilhommière",
        "code": 2458
      },
      "arrival": 45780,
      "departure": 45780
    }
  ],
  "route": {
    "id": "2_0223",
    "textColor": "FFFFFF",
    "color": "94C11F",
    "description": "Complémentaire",
    "longName": "Chevaigné (Pommiers) \u003c\u003e Saint-Grégoire (Lycée Jean-Paul II)",
    "shortName": "223",
    "type": 3,
    "agencyId": "2"
  }
}