{
  "headsign": "210 | Vezin L\u0027Hermitage",
  "stopTimes": [
    {
      "stop": {
        "id": "2_1566",
        "lat": 48.1253701,
        "lon": -1.69257643,
        "name": "Lycée Basch",
        "code": 1566
      },
      "arrival": 47400,
      "departure": 47400
    },
    {
      "stop": {
        "id": "2_1307",
        "lat": 48.12192614,
        "lon": -1.70388916,
        "name": "Villejean-Université",
        "code": 1307
      },
      "arrival": 47700,
      "departure": 47700
    },
    {
      "stop": {
        "id": "2_1414",
        "lat": 48.11638524,
        "lon": -1.71215936,
        "name": "Merlin",
        "code": 1414
      },
      "arrival": 48000,
      "departure": 48000
    },
    {
      "stop": {
        "id": "2_1499",
        "lat": 48.11626025,
        "lon": -1.71595794,
        "name": "Colin",
        "code": 1499
      },
      "arrival": 48060,
      "departure": 48060
    },
    {
      "stop": {
        "id": "2_1498",
        "lat": 48.11658191,
        "lon": -1.72390238,
        "name": "Petit Champeaux",
        "code": 1498
      },
      "arrival": 48120,
      "departure": 48120
    },
    {
      "stop": {
        "id": "2_3760",
        "lat": 48.11770318,
        "lon": -1.73100316,
        "name": "Champ Noël",
        "code": 3760
      },
      "arrival": 48180,
      "departure": 48180
    },
    {
      "stop": {
        "id": "2_3761",
        "lat": 48.11835118,
        "lon": -1.74111786,
        "name": "Tertre",
        "code": 3761
      },
      "arrival": 48240,
      "departure": 48240
    },
    {
      "stop": {
        "id": "2_3771",
        "lat": 48.1190931,
        "lon": -1.74955621,
        "name": "Champs Bleus",
        "code": 3771
      },
      "arrival": 48300,
      "departure": 48300
    },
    {
      "stop": {
        "id": "2_3762",
        "lat": 48.11918107,
        "lon": -1.75547076,
        "name": "Vezin Centre",
        "code": 3762
      },
      "arrival": 48360,
      "departure": 48360
    },
    {
      "stop": {
        "id": "2_3763",
        "lat": 48.11919235,
        "lon": -1.76128325,
        "name": "Lion d\u0027Or",
        "code": 3763
      },
      "arrival": 48420,
      "departure": 48420
    },
    {
      "stop": {
        "id": "2_3764",
        "lat": 48.12036615,
        "lon": -1.76557329,
        "name": "Vallée",
        "code": 3764
      },
      "arrival": 48540,
      "departure": 48540
    },
    {
      "stop": {
        "id": "2_3765",
        "lat": 48.1209756,
        "lon": -1.7716735,
        "name": "Haie de Terre",
        "code": 3765
      },
      "arrival": 48600,
      "departure": 48600
    },
    {
      "stop": {
        "id": "2_4315",
        "lat": 48.12294892,
        "lon": -1.80230832,
        "name": "Noë Biche",
        "code": 4315
      },
      "arrival": 48780,
      "departure": 48780
    },
    {
      "stop": {
        "id": "2_4307",
        "lat": 48.12346101,
        "lon": -1.80743913,
        "name": "Clairefontaine",
        "code": 4307
      },
      "arrival": 48840,
      "departure": 48840
    },
    {
      "stop": {
        "id": "2_4308",
        "lat": 48.12499565,
        "lon": -1.81290303,
        "name": "Village",
        "code": 4308
      },
      "arrival": 48900,
      "departure": 48900
    },
    {
      "stop": {
        "id": "2_4304",
        "lat": 48.12551567,
        "lon": -1.81606092,
        "name": "L\u0027Hermitage Centre",
        "code": 4304
      },
      "arrival": 48960,
      "departure": 48960
    }
  ],
  "route": {
    "id": "2_0210",
    "textColor": "FFFFFF",
    "color": "E30613",
    "description": "Complémentaire",
    "longName": "L\u0027Hermitage (Centre) \u003c\u003e Rennes (Lycée V.H. Basch)",
    "shortName": "210",
    "type": 3,
    "agencyId": "2"
  }
}