{
  "headsign": "8 | La Poterie",
  "stopTimes": [
    {
      "stop": {
        "id": "2_2844",
        "lat": 48.1552843,
        "lon": -1.67145004,
        "name": "Champ Daguet",
        "code": 2844
      },
      "arrival": 53760,
      "departure": 53760
    },
    {
      "stop": {
        "id": "2_2842",
        "lat": 48.15810481,
        "lon": -1.67208344,
        "name": "Nobel",
        "code": 2842
      },
      "arrival": 53820,
      "departure": 53820
    },
    {
      "stop": {
        "id": "2_2804",
        "lat": 48.15906836,
        "lon": -1.67661716,
        "name": "Ricoquais",
        "code": 2804
      },
      "arrival": 53880,
      "departure": 53880
    },
    {
      "stop": {
        "id": "2_2805",
        "lat": 48.15910748,
        "lon": -1.68130906,
        "name": "Camus",
        "code": 2805
      },
      "arrival": 53940,
      "departure": 53940
    },
    {
      "stop": {
        "id": "2_2806",
        "lat": 48.15898341,
        "lon": -1.68558847,
        "name": "Vivier Louis",
        "code": 2806
      },
      "arrival": 54000,
      "departure": 54000
    },
    {
      "stop": {
        "id": "2_2808",
        "lat": 48.15685741,
        "lon": -1.687347,
        "name": "Uttenreuth",
        "code": 2808
      },
      "arrival": 54060,
      "departure": 54060
    },
    {
      "stop": {
        "id": "2_2809",
        "lat": 48.15435099,
        "lon": -1.68667982,
        "name": "Discalceat",
        "code": 2809
      },
      "arrival": 54120,
      "departure": 54120
    },
    {
      "stop": {
        "id": "2_2821",
        "lat": 48.15374931,
        "lon": -1.69201256,
        "name": "Paul-Emile Victor",
        "code": 2821
      },
      "arrival": 54180,
      "departure": 54180
    },
    {
      "stop": {
        "id": "2_2811",
        "lat": 48.15141645,
        "lon": -1.69133602,
        "name": "Cité des Jardins",
        "code": 2811
      },
      "arrival": 54240,
      "departure": 54240
    },
    {
      "stop": {
        "id": "2_2812",
        "lat": 48.15091519,
        "lon": -1.68580896,
        "name": "Forge",
        "code": 2812
      },
      "arrival": 54360,
      "departure": 54360
    },
    {
      "stop": {
        "id": "2_2813",
        "lat": 48.14748738,
        "lon": -1.68609731,
        "name": "Haut Trait",
        "code": 2813
      },
      "arrival": 54420,
      "departure": 54420
    },
    {
      "stop": {
        "id": "2_2817",
        "lat": 48.1430331,
        "lon": -1.68650406,
        "name": "CHP Saint-Grégoire",
        "code": 2817
      },
      "arrival": 54540,
      "departure": 54540
    },
    {
      "stop": {
        "id": "2_2815",
        "lat": 48.13721048,
        "lon": -1.68638899,
        "name": "La Plesse",
        "code": 2815
      },
      "arrival": 54660,
      "departure": 54660
    },
    {
      "stop": {
        "id": "2_1328",
        "lat": 48.1332141,
        "lon": -1.68528827,
        "name": "Lycée Mendès France",
        "code": 1328
      },
      "arrival": 54780,
      "departure": 54780
    },
    {
      "stop": {
        "id": "2_1040",
        "lat": 48.13006097,
        "lon": -1.6843352,
        "name": "Donelière",
        "code": 1040
      },
      "arrival": 54840,
      "departure": 54840
    },
    {
      "stop": {
        "id": "2_1101",
        "lat": 48.1272746,
        "lon": -1.68322628,
        "name": "Trois Croix",
        "code": 1101
      },
      "arrival": 54900,
      "departure": 54900
    },
    {
      "stop": {
        "id": "2_1042",
        "lat": 48.12442016,
        "lon": -1.68178832,
        "name": "Cimetière Nord",
        "code": 1042
      },
      "arrival": 54960,
      "departure": 54960
    },
    {
      "stop": {
        "id": "2_1043",
        "lat": 48.12359497,
        "lon": -1.68417898,
        "name": "Saint-Martin",
        "code": 1043
      },
      "arrival": 55020,
      "departure": 55020
    },
    {
      "stop": {
        "id": "2_1329",
        "lat": 48.12163125,
        "lon": -1.6832374,
        "name": "Lenoir (ex IUFM)",
        "code": 1329
      },
      "arrival": 55080,
      "departure": 55080
    },
    {
      "stop": {
        "id": "2_1330",
        "lat": 48.1203716,
        "lon": -1.68159095,
        "name": "Auberge de Jeunesse",
        "code": 1330
      },
      "arrival": 55140,
      "departure": 55140
    },
    {
      "stop": {
        "id": "2_1331",
        "lat": 48.11797136,
        "lon": -1.68074546,
        "name": "Square de la Rance",
        "code": 1331
      },
      "arrival": 55260,
      "departure": 55260
    },
    {
      "stop": {
        "id": "2_1027",
        "lat": 48.11723114,
        "lon": -1.67736823,
        "name": "Hôtel Dieu",
        "code": 1027
      },
      "arrival": 55380,
      "departure": 55380
    },
    {
      "stop": {
        "id": "2_1555",
        "lat": 48.11329571,
        "lon": -1.67522943,
        "name": "Fossés",
        "code": 1555
      },
      "arrival": 55560,
      "departure": 55560
    },
    {
      "stop": {
        "id": "2_1507",
        "lat": 48.10936967,
        "lon": -1.67512421,
        "name": "Lycée Zola",
        "code": 1507
      },
      "arrival": 55740,
      "departure": 55740
    },
    {
      "stop": {
        "id": "2_1556",
        "lat": 48.10943229,
        "lon": -1.67763328,
        "name": "République",
        "code": 1556
      },
      "arrival": 55800,
      "departure": 55800
    },
    {
      "stop": {
        "id": "2_1121",
        "lat": 48.10607068,
        "lon": -1.6777658,
        "name": "Charles de Gaulle",
        "code": 1121
      },
      "arrival": 55980,
      "departure": 55980
    },
    {
      "stop": {
        "id": "2_1122",
        "lat": 48.10306416,
        "lon": -1.67682716,
        "name": "Gare Sud Féval",
        "code": 1122
      },
      "arrival": 56040,
      "departure": 56040
    },
    {
      "stop": {
        "id": "2_1123",
        "lat": 48.09916061,
        "lon": -1.67570108,
        "name": "Ginguené",
        "code": 1123
      },
      "arrival": 56160,
      "departure": 56160
    },
    {
      "stop": {
        "id": "2_1140",
        "lat": 48.09741291,
        "lon": -1.67476592,
        "name": "Jacques Cartier",
        "code": 1140
      },
      "arrival": 56220,
      "departure": 56220
    },
    {
      "stop": {
        "id": "2_1334",
        "lat": 48.09775842,
        "lon": -1.67128426,
        "name": "Châtillon",
        "code": 1334
      },
      "arrival": 56280,
      "departure": 56280
    },
    {
      "stop": {
        "id": "2_1335",
        "lat": 48.09773962,
        "lon": -1.66834901,
        "name": "Ormeaux",
        "code": 1335
      },
      "arrival": 56340,
      "departure": 56340
    },
    {
      "stop": {
        "id": "2_1336",
        "lat": 48.09802171,
        "lon": -1.66646307,
        "name": "Bigot de Préameneu",
        "code": 1336
      },
      "arrival": 56400,
      "departure": 56400
    },
    {
      "stop": {
        "id": "2_1337",
        "lat": 48.09759287,
        "lon": -1.66295336,
        "name": "Sainte-Thérèse",
        "code": 1337
      },
      "arrival": 56460,
      "departure": 56460
    },
    {
      "stop": {
        "id": "2_1338",
        "lat": 48.095015,
        "lon": -1.66158209,
        "name": "Leray",
        "code": 1338
      },
      "arrival": 56520,
      "departure": 56520
    },
    {
      "stop": {
        "id": "2_1339",
        "lat": 48.09472542,
        "lon": -1.65865006,
        "name": "Langevin",
        "code": 1339
      },
      "arrival": 56580,
      "departure": 56580
    },
    {
      "stop": {
        "id": "2_1340",
        "lat": 48.09203055,
        "lon": -1.65841246,
        "name": "Gide",
        "code": 1340
      },
      "arrival": 56640,
      "departure": 56640
    },
    {
      "stop": {
        "id": "2_1341",
        "lat": 48.09126172,
        "lon": -1.65460419,
        "name": "Landrel",
        "code": 1341
      },
      "arrival": 56700,
      "departure": 56700
    },
    {
      "stop": {
        "id": "2_1342",
        "lat": 48.09120234,
        "lon": -1.65177341,
        "name": "Pologne",
        "code": 1342
      },
      "arrival": 56760,
      "departure": 56760
    },
    {
      "stop": {
        "id": "2_1356",
        "lat": 48.08753214,
        "lon": -1.64998384,
        "name": "Galicie",
        "code": 1356
      },
      "arrival": 56820,
      "departure": 56820
    },
    {
      "stop": {
        "id": "2_1343",
        "lat": 48.08761374,
        "lon": -1.64610727,
        "name": "La Poterie",
        "code": 1343
      },
      "arrival": 56940,
      "departure": 56940
    }
  ],
  "route": {
    "id": "2_0008",
    "textColor": "FFFFFF",
    "color": "B966A2",
    "description": "Majeure",
    "longName": "Saint-Grégoire \u003c\u003e Rennes (La Poterie)",
    "shortName": "8",
    "type": 3,
    "agencyId": "2"
  }
}