{
  "headsign": "234 | Laillé Gingouillère",
  "stopTimes": [
    {
      "stop": {
        "id": "2_3246",
        "lat": 48.0023863,
        "lon": -1.66889107,
        "name": "Parking scolaire Récipon",
        "code": 3246
      },
      "arrival": 61500,
      "departure": 61500
    },
    {
      "stop": {
        "id": "2_4712",
        "lat": 47.97481571,
        "lon": -1.69135986,
        "name": "Estuaires",
        "code": 4712
      },
      "arrival": 62040,
      "departure": 62040
    },
    {
      "stop": {
        "id": "2_4701",
        "lat": 47.97856568,
        "lon": -1.71297883,
        "name": "Point du Jour",
        "code": 4701
      },
      "arrival": 62280,
      "departure": 62280
    },
    {
      "stop": {
        "id": "2_4703",
        "lat": 47.97548188,
        "lon": -1.71714821,
        "name": "Orée du Bois",
        "code": 4703
      },
      "arrival": 62400,
      "departure": 62400
    },
    {
      "stop": {
        "id": "2_4705",
        "lat": 47.97801567,
        "lon": -1.71969708,
        "name": "Laillé Eglise",
        "code": 4705
      },
      "arrival": 62520,
      "departure": 62520
    },
    {
      "stop": {
        "id": "2_4707",
        "lat": 47.9792529,
        "lon": -1.72433022,
        "name": "Châtaigneraie",
        "code": 4707
      },
      "arrival": 62640,
      "departure": 62640
    },
    {
      "stop": {
        "id": "2_4760",
        "lat": 47.98017484,
        "lon": -1.73092787,
        "name": "Gingouillère",
        "code": 4760
      },
      "arrival": 62760,
      "departure": 62760
    }
  ],
  "route": {
    "id": "2_0234",
    "textColor": "1A171B",
    "color": "F29FC5",
    "description": "Complémentaire",
    "longName": "Laillé (Gingouillère) \u003c\u003e Orgères (Collège Andrée Récipon)",
    "shortName": "234",
    "type": 3,
    "agencyId": "2"
  }
}