{
  "headsign": "206 | Cesson-Sévigné Métairies Chalotais",
  "stopTimes": [
    {
      "stop": {
        "id": "2_1429",
        "lat": 48.1276684,
        "lon": -1.65098708,
        "name": "Joliot-Curie",
        "code": 1429
      },
      "arrival": 44220,
      "departure": 44220
    },
    {
      "stop": {
        "id": "2_1033",
        "lat": 48.1213237,
        "lon": -1.65499372,
        "name": "Assomption",
        "code": 1033
      },
      "arrival": 44400,
      "departure": 44400
    },
    {
      "stop": {
        "id": "2_1111",
        "lat": 48.12024278,
        "lon": -1.65071004,
        "name": "Docteur Quentin",
        "code": 1111
      },
      "arrival": 44520,
      "departure": 44520
    },
    {
      "stop": {
        "id": "2_1610",
        "lat": 48.11406057,
        "lon": -1.63602668,
        "name": "Tournebride",
        "code": 1610
      },
      "arrival": 44760,
      "departure": 44760
    },
    {
      "stop": {
        "id": "2_2019",
        "lat": 48.1140789,
        "lon": -1.62801107,
        "name": "Champs Péans",
        "code": 2019
      },
      "arrival": 44880,
      "departure": 44880
    },
    {
      "stop": {
        "id": "2_2020",
        "lat": 48.11415,
        "lon": -1.62183892,
        "name": "Taillis",
        "code": 2020
      },
      "arrival": 44940,
      "departure": 44940
    },
    {
      "stop": {
        "id": "2_2021",
        "lat": 48.11421457,
        "lon": -1.61375483,
        "name": "Hublais",
        "code": 2021
      },
      "arrival": 45060,
      "departure": 45060
    },
    {
      "stop": {
        "id": "2_2059",
        "lat": 48.10930792,
        "lon": -1.60901705,
        "name": "Monniais",
        "code": 2059
      },
      "arrival": 45300,
      "departure": 45300
    },
    {
      "stop": {
        "id": "2_2022",
        "lat": 48.11467541,
        "lon": -1.60958194,
        "name": "Place Sévigné",
        "code": 2022
      },
      "arrival": 45420,
      "departure": 45420
    },
    {
      "stop": {
        "id": "2_2023",
        "lat": 48.11561362,
        "lon": -1.60698111,
        "name": "Vilaine",
        "code": 2023
      },
      "arrival": 45480,
      "departure": 45480
    },
    {
      "stop": {
        "id": "2_2066",
        "lat": 48.11834687,
        "lon": -1.60420821,
        "name": "Cesson Mairie",
        "code": 2066
      },
      "arrival": 45540,
      "departure": 45540
    },
    {
      "stop": {
        "id": "2_2067",
        "lat": 48.12037328,
        "lon": -1.60240598,
        "name": "Cesson Piscine",
        "code": 2067
      },
      "arrival": 45660,
      "departure": 45660
    },
    {
      "stop": {
        "id": "2_2068",
        "lat": 48.12317362,
        "lon": -1.60178843,
        "name": "Métairies Chalotais",
        "code": 2068
      },
      "arrival": 45780,
      "departure": 45780
    }
  ],
  "route": {
    "id": "2_0206",
    "textColor": "1A171B",
    "color": "FECC00",
    "description": "Complémentaire",
    "longName": "Cesson-Sévigné (Métairies Chalotais) \u003c\u003e Rennes (Lycée Assomption)",
    "shortName": "206",
    "type": 3,
    "agencyId": "2"
  }
}