{
  "headsign": "3 | Saint-Laurent",
  "stopTimes": [
    {
      "stop": {
        "id": "2_1564",
        "lat": 48.08782223,
        "lon": -1.67459024,
        "name": "Henri Fréville",
        "code": 1564
      },
      "arrival": 87000,
      "departure": 87000
    },
    {
      "stop": {
        "id": "2_1622",
        "lat": 48.08415,
        "lon": -1.679998,
        "name": "Alma",
        "code": 1622
      },
      "arrival": 87120,
      "departure": 87120
    },
    {
      "stop": {
        "id": "2_1134",
        "lat": 48.08517813,
        "lon": -1.68230743,
        "name": "Canada",
        "code": 1134
      },
      "arrival": 87180,
      "departure": 87180
    },
    {
      "stop": {
        "id": "2_1135",
        "lat": 48.08807547,
        "lon": -1.68221434,
        "name": "Suède",
        "code": 1135
      },
      "arrival": 87240,
      "departure": 87240
    },
    {
      "stop": {
        "id": "2_1136",
        "lat": 48.09113663,
        "lon": -1.68208194,
        "name": "Champs Manceaux",
        "code": 1136
      },
      "arrival": 87300,
      "departure": 87300
    },
    {
      "stop": {
        "id": "2_1137",
        "lat": 48.09359701,
        "lon": -1.68186938,
        "name": "Frères Moines",
        "code": 1137
      },
      "arrival": 87360,
      "departure": 87360
    },
    {
      "stop": {
        "id": "2_1138",
        "lat": 48.09634749,
        "lon": -1.68161522,
        "name": "Garigliano",
        "code": 1138
      },
      "arrival": 87420,
      "departure": 87420
    },
    {
      "stop": {
        "id": "2_1139",
        "lat": 48.09695782,
        "lon": -1.67850697,
        "name": "Sacrés Coeurs",
        "code": 1139
      },
      "arrival": 87480,
      "departure": 87480
    },
    {
      "stop": {
        "id": "2_1333",
        "lat": 48.09774726,
        "lon": -1.67519921,
        "name": "Jacques Cartier",
        "code": 1333
      },
      "arrival": 87540,
      "departure": 87540
    },
    {
      "stop": {
        "id": "2_1141",
        "lat": 48.09927814,
        "lon": -1.67561799,
        "name": "Ginguené",
        "code": 1141
      },
      "arrival": 87600,
      "departure": 87600
    },
    {
      "stop": {
        "id": "2_1142",
        "lat": 48.10133802,
        "lon": -1.67625716,
        "name": "Gare Sud Féval",
        "code": 1142
      },
      "arrival": 87660,
      "departure": 87660
    },
    {
      "stop": {
        "id": "2_1143",
        "lat": 48.10608092,
        "lon": -1.67760115,
        "name": "Charles de Gaulle",
        "code": 1143
      },
      "arrival": 87780,
      "departure": 87780
    },
    {
      "stop": {
        "id": "2_1550",
        "lat": 48.10969793,
        "lon": -1.67797331,
        "name": "République",
        "code": 1550
      },
      "arrival": 87900,
      "departure": 88500
    },
    {
      "stop": {
        "id": "2_1552",
        "lat": 48.11068847,
        "lon": -1.67369302,
        "name": "Place Pasteur",
        "code": 1552
      },
      "arrival": 88620,
      "departure": 88620
    },
    {
      "stop": {
        "id": "2_1146",
        "lat": 48.11187283,
        "lon": -1.67113003,
        "name": "Thabor",
        "code": 1146
      },
      "arrival": 88680,
      "departure": 88680
    },
    {
      "stop": {
        "id": "2_1147",
        "lat": 48.11271566,
        "lon": -1.66439614,
        "name": "Saint-Vincent",
        "code": 1147
      },
      "arrival": 88800,
      "departure": 88800
    },
    {
      "stop": {
        "id": "2_1148",
        "lat": 48.11341058,
        "lon": -1.66141539,
        "name": "Oberthur",
        "code": 1148
      },
      "arrival": 88860,
      "departure": 88860
    },
    {
      "stop": {
        "id": "2_1149",
        "lat": 48.114256,
        "lon": -1.65873929,
        "name": "Durafour",
        "code": 1149
      },
      "arrival": 88860,
      "departure": 88860
    },
    {
      "stop": {
        "id": "2_1150",
        "lat": 48.11652806,
        "lon": -1.65552519,
        "name": "Jeanne d\u0027Arc",
        "code": 1150
      },
      "arrival": 88980,
      "departure": 88980
    },
    {
      "stop": {
        "id": "2_1151",
        "lat": 48.11879169,
        "lon": -1.65161883,
        "name": "Vitré Danton",
        "code": 1151
      },
      "arrival": 89040,
      "departure": 89040
    },
    {
      "stop": {
        "id": "2_1152",
        "lat": 48.12043354,
        "lon": -1.65067299,
        "name": "Docteur Quentin",
        "code": 1152
      },
      "arrival": 89100,
      "departure": 89100
    },
    {
      "stop": {
        "id": "2_1153",
        "lat": 48.12250411,
        "lon": -1.65118232,
        "name": "Lycée Chateaubriand",
        "code": 1153
      },
      "arrival": 89160,
      "departure": 89160
    },
    {
      "stop": {
        "id": "2_1154",
        "lat": 48.12608523,
        "lon": -1.65181702,
        "name": "Joliot-Curie",
        "code": 1154
      },
      "arrival": 89220,
      "departure": 89220
    },
    {
      "stop": {
        "id": "2_1155",
        "lat": 48.12916578,
        "lon": -1.65210189,
        "name": "Gayeulles",
        "code": 1155
      },
      "arrival": 89280,
      "departure": 89280
    },
    {
      "stop": {
        "id": "2_1156",
        "lat": 48.13185588,
        "lon": -1.65200229,
        "name": "Le Blizz",
        "code": 1156
      },
      "arrival": 89340,
      "departure": 89340
    },
    {
      "stop": {
        "id": "2_1157",
        "lat": 48.13494543,
        "lon": -1.65205906,
        "name": "Gayeulles Piscine",
        "code": 1157
      },
      "arrival": 89340,
      "departure": 89340
    },
    {
      "stop": {
        "id": "2_1158",
        "lat": 48.13553883,
        "lon": -1.65620509,
        "name": "Héronière",
        "code": 1158
      },
      "arrival": 89400,
      "departure": 89400
    },
    {
      "stop": {
        "id": "2_1373",
        "lat": 48.13520527,
        "lon": -1.65938653,
        "name": "Hôtel de Région",
        "code": 1373
      },
      "arrival": 89460,
      "departure": 89460
    },
    {
      "stop": {
        "id": "2_1103",
        "lat": 48.13880017,
        "lon": -1.65921311,
        "name": "Saint-Laurent",
        "code": 1103
      },
      "arrival": 89520,
      "departure": 89520
    }
  ],
  "route": {
    "id": "2_0003",
    "textColor": "FFFFFF",
    "color": "00843A",
    "description": "Majeure",
    "longName": "Saint-Laurent \u003c\u003e Henri Fréville",
    "shortName": "3",
    "type": 3,
    "agencyId": "2"
  }
}