{
  "headsign": "41 | Gares",
  "stopTimes": [
    {
      "stop": {
        "id": "2_1481",
        "lat": 48.129789,
        "lon": -1.642252,
        "name": "Pâtis Tatelin",
        "code": 1481
      },
      "arrival": 66000,
      "departure": 66000
    },
    {
      "stop": {
        "id": "2_1480",
        "lat": 48.131978,
        "lon": -1.634928,
        "name": "ZA Saint-Sulpice",
        "code": 1480
      },
      "arrival": 66120,
      "departure": 66120
    },
    {
      "stop": {
        "id": "2_1617",
        "lat": 48.129137,
        "lon": -1.630168,
        "name": "Longs Champs Est",
        "code": 1617
      },
      "arrival": 66300,
      "departure": 66300
    },
    {
      "stop": {
        "id": "2_1536",
        "lat": 48.12678,
        "lon": -1.630245,
        "name": "Clos Courtel",
        "code": 1536
      },
      "arrival": 66360,
      "departure": 66360
    },
    {
      "stop": {
        "id": "2_1291",
        "lat": 48.124789,
        "lon": -1.633892,
        "name": "IUT",
        "code": 1291
      },
      "arrival": 66420,
      "departure": 66420
    },
    {
      "stop": {
        "id": "2_1292",
        "lat": 48.121437,
        "lon": -1.638194,
        "name": "Beaulieu Restau U",
        "code": 1292
      },
      "arrival": 66540,
      "departure": 66540
    },
    {
      "stop": {
        "id": "2_1176",
        "lat": 48.119028,
        "lon": -1.63521,
        "name": "Beaulieu INSA",
        "code": 1176
      },
      "arrival": 66600,
      "departure": 66600
    },
    {
      "stop": {
        "id": "2_1312",
        "lat": 48.116581,
        "lon": -1.633944,
        "name": "Beaulieu Chimie",
        "code": 1312
      },
      "arrival": 66660,
      "departure": 66660
    },
    {
      "stop": {
        "id": "2_1160",
        "lat": 48.114099,
        "lon": -1.637565,
        "name": "Tournebride",
        "code": 1160
      },
      "arrival": 66780,
      "departure": 66780
    },
    {
      "stop": {
        "id": "2_1161",
        "lat": 48.112232,
        "lon": -1.644227,
        "name": "Plaine de Baud",
        "code": 1161
      },
      "arrival": 66840,
      "departure": 66840
    },
    {
      "stop": {
        "id": "2_1164",
        "lat": 48.110145,
        "lon": -1.663921,
        "name": "Pont de Châteaudun",
        "code": 1164
      },
      "arrival": 67080,
      "departure": 67080
    },
    {
      "stop": {
        "id": "2_1056",
        "lat": 48.103956,
        "lon": -1.673185,
        "name": "Gares",
        "code": 1056
      },
      "arrival": 67500,
      "departure": 67500
    }
  ],
  "route": {
    "id": "2_0041",
    "textColor": "3D3C3F",
    "color": "FFDD00",
    "description": "Express urbaine",
    "longName": "Gares \u003c\u003e Pâtis Tatelin",
    "shortName": "41",
    "type": 3,
    "agencyId": "2"
  }
}