{
  "headsign": "31 | Beaulieu Chimie",
  "stopTimes": [
    {
      "stop": {
        "id": "2_1190",
        "lat": 48.11740687,
        "lon": -1.70825224,
        "name": "Villejean-Churchill",
        "code": 1190
      },
      "arrival": 39660,
      "departure": 39660
    },
    {
      "stop": {
        "id": "2_1191",
        "lat": 48.11557372,
        "lon": -1.70472339,
        "name": "Languedoc",
        "code": 1191
      },
      "arrival": 39720,
      "departure": 39720
    },
    {
      "stop": {
        "id": "2_1188",
        "lat": 48.11498492,
        "lon": -1.70208633,
        "name": "La Salle",
        "code": 1188
      },
      "arrival": 39780,
      "departure": 39780
    },
    {
      "stop": {
        "id": "2_1193",
        "lat": 48.11377696,
        "lon": -1.6980212,
        "name": "Maison Diocésaine",
        "code": 1193
      },
      "arrival": 39840,
      "departure": 39840
    },
    {
      "stop": {
        "id": "2_1094",
        "lat": 48.11309647,
        "lon": -1.69338394,
        "name": "Brest Verdun",
        "code": 1094
      },
      "arrival": 39960,
      "departure": 39960
    },
    {
      "stop": {
        "id": "2_1095",
        "lat": 48.11646144,
        "lon": -1.69082908,
        "name": "La Touche",
        "code": 1095
      },
      "arrival": 40020,
      "departure": 40020
    },
    {
      "stop": {
        "id": "2_1194",
        "lat": 48.1182104,
        "lon": -1.68720155,
        "name": "Anatole France",
        "code": 1194
      },
      "arrival": 40140,
      "departure": 40140
    },
    {
      "stop": {
        "id": "2_1195",
        "lat": 48.11776089,
        "lon": -1.6850048,
        "name": "Legraverend",
        "code": 1195
      },
      "arrival": 40200,
      "departure": 40200
    },
    {
      "stop": {
        "id": "2_1196",
        "lat": 48.11720566,
        "lon": -1.68231994,
        "name": "Dinan",
        "code": 1196
      },
      "arrival": 40260,
      "departure": 40260
    },
    {
      "stop": {
        "id": "2_1027",
        "lat": 48.11723114,
        "lon": -1.67736823,
        "name": "Hôtel Dieu",
        "code": 1027
      },
      "arrival": 40380,
      "departure": 40380
    },
    {
      "stop": {
        "id": "2_1197",
        "lat": 48.11640279,
        "lon": -1.67325639,
        "name": "Sévigné",
        "code": 1197
      },
      "arrival": 40440,
      "departure": 40440
    },
    {
      "stop": {
        "id": "2_1198",
        "lat": 48.11631466,
        "lon": -1.66888706,
        "name": "George Sand",
        "code": 1198
      },
      "arrival": 40500,
      "departure": 40500
    },
    {
      "stop": {
        "id": "2_1181",
        "lat": 48.11619452,
        "lon": -1.66258994,
        "name": "Musset Cité U.",
        "code": 1181
      },
      "arrival": 40620,
      "departure": 40620
    },
    {
      "stop": {
        "id": "2_1200",
        "lat": 48.11682755,
        "lon": -1.6563862,
        "name": "Jeanne d\u0027Arc",
        "code": 1200
      },
      "arrival": 40680,
      "departure": 40680
    },
    {
      "stop": {
        "id": "2_1201",
        "lat": 48.11911266,
        "lon": -1.64919701,
        "name": "Vitré Foulon",
        "code": 1201
      },
      "arrival": 40800,
      "departure": 40800
    },
    {
      "stop": {
        "id": "2_1202",
        "lat": 48.12062049,
        "lon": -1.64433521,
        "name": "Beaulieu Cité U.",
        "code": 1202
      },
      "arrival": 40860,
      "departure": 40860
    },
    {
      "stop": {
        "id": "2_1203",
        "lat": 48.12203302,
        "lon": -1.6395994,
        "name": "Beaulieu Restau. U.",
        "code": 1203
      },
      "arrival": 40920,
      "departure": 40920
    },
    {
      "stop": {
        "id": "2_1176",
        "lat": 48.11901733,
        "lon": -1.63514782,
        "name": "Beaulieu INSA",
        "code": 1176
      },
      "arrival": 40980,
      "departure": 40980
    },
    {
      "stop": {
        "id": "2_1312",
        "lat": 48.1166495,
        "lon": -1.63393042,
        "name": "Beaulieu Chimie",
        "code": 1312
      },
      "arrival": 41040,
      "departure": 41040
    }
  ],
  "route": {
    "id": "2_0031",
    "textColor": "DF171C",
    "color": "FEF466",
    "description": "Inter-quartiers",
    "longName": "Villejean-Churchill \u003c\u003e Beaulieu Ecole de Chimie",
    "shortName": "31",
    "type": 3,
    "agencyId": "2"
  }
}