{
  "headsign": "51 | Betton Chevaigné Saint-Sulpice",
  "stopTimes": [
    {
      "stop": {
        "id": "2_1567",
        "lat": 48.1062288,
        "lon": -1.67750174,
        "name": "Charles de Gaulle",
        "code": 1567
      },
      "arrival": 92400,
      "departure": 92400
    },
    {
      "stop": {
        "id": "2_1279",
        "lat": 48.11946401,
        "lon": -1.67448311,
        "name": "Rectorat",
        "code": 1279
      },
      "arrival": 92760,
      "departure": 92760
    },
    {
      "stop": {
        "id": "2_1280",
        "lat": 48.12141907,
        "lon": -1.67087311,
        "name": "Jules Ferry",
        "code": 1280
      },
      "arrival": 92820,
      "departure": 92820
    },
    {
      "stop": {
        "id": "2_1281",
        "lat": 48.12528439,
        "lon": -1.66636805,
        "name": "Volney",
        "code": 1281
      },
      "arrival": 92880,
      "departure": 92880
    },
    {
      "stop": {
        "id": "2_1282",
        "lat": 48.12661537,
        "lon": -1.66533269,
        "name": "Gros Chêne",
        "code": 1282
      },
      "arrival": 92880,
      "departure": 92880
    },
    {
      "stop": {
        "id": "2_1489",
        "lat": 48.13230625,
        "lon": -1.66158898,
        "name": "Patton Gast",
        "code": 1489
      },
      "arrival": 93000,
      "departure": 93000
    },
    {
      "stop": {
        "id": "2_1490",
        "lat": 48.13593467,
        "lon": -1.65918915,
        "name": "Hôtel de Région",
        "code": 1490
      },
      "arrival": 93000,
      "departure": 93000
    },
    {
      "stop": {
        "id": "2_1491",
        "lat": 48.13884258,
        "lon": -1.65836842,
        "name": "Saint-Laurent",
        "code": 1491
      },
      "arrival": 93060,
      "departure": 93060
    },
    {
      "stop": {
        "id": "2_2829",
        "lat": 48.14928398,
        "lon": -1.65646132,
        "name": "Maison Blanche",
        "code": 2829
      },
      "arrival": 93180,
      "departure": 93180
    },
    {
      "stop": {
        "id": "2_2412",
        "lat": 48.16199698,
        "lon": -1.64746497,
        "name": "Betton Vallée",
        "code": 2412
      },
      "arrival": 93300,
      "departure": 93300
    },
    {
      "stop": {
        "id": "2_2413",
        "lat": 48.17110928,
        "lon": -1.64175914,
        "name": "Enseigne Abbaye",
        "code": 2413
      },
      "arrival": 93360,
      "departure": 93360
    },
    {
      "stop": {
        "id": "2_2414",
        "lat": 48.17259985,
        "lon": -1.63732208,
        "name": "Housset",
        "code": 2414
      },
      "arrival": 93420,
      "departure": 93420
    },
    {
      "stop": {
        "id": "2_2415",
        "lat": 48.17681478,
        "lon": -1.63718049,
        "name": "Marronniers",
        "code": 2415
      },
      "arrival": 93480,
      "departure": 93480
    },
    {
      "stop": {
        "id": "2_2416",
        "lat": 48.18021697,
        "lon": -1.63478408,
        "name": "Haye Renaud Gare",
        "code": 2416
      },
      "arrival": 93540,
      "departure": 93540
    },
    {
      "stop": {
        "id": "2_2437",
        "lat": 48.18157224,
        "lon": -1.63928389,
        "name": "Betton Centre",
        "code": 2437
      },
      "arrival": 93600,
      "departure": 93600
    },
    {
      "stop": {
        "id": "2_2418",
        "lat": 48.18191157,
        "lon": -1.64120022,
        "name": "Betton Mairie",
        "code": 2418
      },
      "arrival": 93660,
      "departure": 93660
    },
    {
      "stop": {
        "id": "2_2419",
        "lat": 48.1831832,
        "lon": -1.64644735,
        "name": "Trégor",
        "code": 2419
      },
      "arrival": 93720,
      "departure": 93720
    },
    {
      "stop": {
        "id": "2_2420",
        "lat": 48.18060633,
        "lon": -1.65213707,
        "name": "Brocéliande",
        "code": 2420
      },
      "arrival": 93780,
      "departure": 93780
    },
    {
      "stop": {
        "id": "2_2421",
        "lat": 48.17922788,
        "lon": -1.65120686,
        "name": "Omblais",
        "code": 2421
      },
      "arrival": 93840,
      "departure": 93840
    },
    {
      "stop": {
        "id": "2_2401",
        "lat": 48.17703667,
        "lon": -1.65122928,
        "name": "Champ Devant",
        "code": 2401
      },
      "arrival": 93900,
      "departure": 93900
    },
    {
      "stop": {
        "id": "2_2417",
        "lat": 48.18170386,
        "lon": -1.63855109,
        "name": "Betton Centre",
        "code": 2417
      },
      "arrival": 94200,
      "departure": 94200
    },
    {
      "stop": {
        "id": "2_2435",
        "lat": 48.18305974,
        "lon": -1.63721735,
        "name": "Mozart",
        "code": 2435
      },
      "arrival": 94200,
      "departure": 94200
    },
    {
      "stop": {
        "id": "2_2434",
        "lat": 48.18635458,
        "lon": -1.63319375,
        "name": "J.-Sébastien Bach",
        "code": 2434
      },
      "arrival": 94260,
      "departure": 94260
    },
    {
      "stop": {
        "id": "2_2450",
        "lat": 48.18980379,
        "lon": -1.62615025,
        "name": "Gentilhommière",
        "code": 2450
      },
      "arrival": 94320,
      "departure": 94320
    },
    {
      "stop": {
        "id": "2_4610",
        "lat": 48.19918212,
        "lon": -1.62764716,
        "name": "Chopinais",
        "code": 4610
      },
      "arrival": 94440,
      "departure": 94440
    },
    {
      "stop": {
        "id": "2_4608",
        "lat": 48.20787045,
        "lon": -1.63064822,
        "name": "Chevaigné Gare",
        "code": 4608
      },
      "arrival": 94560,
      "departure": 94560
    },
    {
      "stop": {
        "id": "2_4601",
        "lat": 48.21171751,
        "lon": -1.63046022,
        "name": "Chevaigné Mairie",
        "code": 4601
      },
      "arrival": 94620,
      "departure": 94620
    },
    {
      "stop": {
        "id": "2_4602",
        "lat": 48.21431434,
        "lon": -1.62905651,
        "name": "Fonderies",
        "code": 4602
      },
      "arrival": 94680,
      "departure": 94680
    },
    {
      "stop": {
        "id": "2_4603",
        "lat": 48.21095412,
        "lon": -1.62602395,
        "name": "Pommiers",
        "code": 4603
      },
      "arrival": 94740,
      "departure": 94740
    },
    {
      "stop": {
        "id": "2_3959",
        "lat": 48.21179703,
        "lon": -1.59059123,
        "name": "Tronchay",
        "code": 3959
      },
      "arrival": 94980,
      "departure": 94980
    },
    {
      "stop": {
        "id": "2_3954",
        "lat": 48.21479222,
        "lon": -1.58657706,
        "name": "Terrain des Sports",
        "code": 3954
      },
      "arrival": 95040,
      "departure": 95040
    },
    {
      "stop": {
        "id": "2_3961",
        "lat": 48.21773209,
        "lon": -1.58139746,
        "name": "Bourg",
        "code": 3961
      },
      "arrival": 95100,
      "departure": 95100
    },
    {
      "stop": {
        "id": "2_3962",
        "lat": 48.22315211,
        "lon": -1.57693236,
        "name": "Chesnais",
        "code": 3962
      },
      "arrival": 95160,
      "departure": 95160
    },
    {
      "stop": {
        "id": "2_3951",
        "lat": 48.22528095,
        "lon": -1.57037306,
        "name": "Cropy",
        "code": 3951
      },
      "arrival": 95220,
      "departure": 95220
    }
  ],
  "route": {
    "id": "2_0051",
    "textColor": "FFFFFF",
    "color": "93007C",
    "description": "Métropolitaine",
    "longName": "Rennes (Hoche) \u003c\u003e Betton (Champ Devant)",
    "shortName": "51",
    "type": 3,
    "agencyId": "2"
  }
}