{
  "headsign": "31 | Cesson-Sévigné Base de Loisirs",
  "stopTimes": [
    {
      "stop": {
        "id": "2_1190",
        "lat": 48.11739,
        "lon": -1.70835,
        "name": "Villejean-Churchill",
        "code": 1190
      },
      "arrival": 47700,
      "departure": 47700
    },
    {
      "stop": {
        "id": "2_1191",
        "lat": 48.115474,
        "lon": -1.704489,
        "name": "Languedoc",
        "code": 1191
      },
      "arrival": 47760,
      "departure": 47760
    },
    {
      "stop": {
        "id": "2_1188",
        "lat": 48.114898,
        "lon": -1.701959,
        "name": "La Salle",
        "code": 1188
      },
      "arrival": 47820,
      "departure": 47820
    },
    {
      "stop": {
        "id": "2_1193",
        "lat": 48.113738,
        "lon": -1.69804,
        "name": "Maison Diocésaine",
        "code": 1193
      },
      "arrival": 47880,
      "departure": 47880
    },
    {
      "stop": {
        "id": "2_1094",
        "lat": 48.113208,
        "lon": -1.69329,
        "name": "Brest Verdun",
        "code": 1094
      },
      "arrival": 48000,
      "departure": 48000
    },
    {
      "stop": {
        "id": "2_1095",
        "lat": 48.116505,
        "lon": -1.690744,
        "name": "La Touche",
        "code": 1095
      },
      "arrival": 48060,
      "departure": 48060
    },
    {
      "stop": {
        "id": "2_1194",
        "lat": 48.118173,
        "lon": -1.687217,
        "name": "Anatole France",
        "code": 1194
      },
      "arrival": 48180,
      "departure": 48180
    },
    {
      "stop": {
        "id": "2_1195",
        "lat": 48.117788,
        "lon": -1.684992,
        "name": "Legraverend",
        "code": 1195
      },
      "arrival": 48240,
      "departure": 48240
    },
    {
      "stop": {
        "id": "2_1196",
        "lat": 48.117181,
        "lon": -1.682302,
        "name": "Dinan",
        "code": 1196
      },
      "arrival": 48300,
      "departure": 48300
    },
    {
      "stop": {
        "id": "2_1027",
        "lat": 48.117163,
        "lon": -1.677351,
        "name": "Hôtel Dieu",
        "code": 1027
      },
      "arrival": 48420,
      "departure": 48420
    },
    {
      "stop": {
        "id": "2_1197",
        "lat": 48.116347,
        "lon": -1.673257,
        "name": "Sévigné",
        "code": 1197
      },
      "arrival": 48480,
      "departure": 48480
    },
    {
      "stop": {
        "id": "2_1198",
        "lat": 48.116266,
        "lon": -1.668859,
        "name": "George Sand",
        "code": 1198
      },
      "arrival": 48540,
      "departure": 48540
    },
    {
      "stop": {
        "id": "2_1181",
        "lat": 48.116247,
        "lon": -1.662785,
        "name": "Musset Cité U",
        "code": 1181
      },
      "arrival": 48660,
      "departure": 48660
    },
    {
      "stop": {
        "id": "2_1200",
        "lat": 48.116798,
        "lon": -1.656369,
        "name": "Jeanne d\u0027Arc",
        "code": 1200
      },
      "arrival": 48720,
      "departure": 48720
    },
    {
      "stop": {
        "id": "2_1151",
        "lat": 48.118733,
        "lon": -1.651589,
        "name": "Vitré Danton",
        "code": 1151
      },
      "arrival": 48840,
      "departure": 48840
    },
    {
      "stop": {
        "id": "2_1202",
        "lat": 48.120592,
        "lon": -1.644215,
        "name": "Beaulieu Cité U",
        "code": 1202
      },
      "arrival": 48900,
      "departure": 48900
    },
    {
      "stop": {
        "id": "2_1203",
        "lat": 48.122036,
        "lon": -1.639496,
        "name": "Beaulieu Restau U",
        "code": 1203
      },
      "arrival": 48960,
      "departure": 48960
    },
    {
      "stop": {
        "id": "2_1176",
        "lat": 48.119028,
        "lon": -1.63521,
        "name": "Beaulieu INSA",
        "code": 1176
      },
      "arrival": 49020,
      "departure": 49020
    },
    {
      "stop": {
        "id": "2_1312",
        "lat": 48.116581,
        "lon": -1.633944,
        "name": "Beaulieu Chimie",
        "code": 1312
      },
      "arrival": 49080,
      "departure": 49080
    },
    {
      "stop": {
        "id": "2_2019",
        "lat": 48.114037,
        "lon": -1.628008,
        "name": "Champs Péans",
        "code": 2019
      },
      "arrival": 49200,
      "departure": 49200
    },
    {
      "stop": {
        "id": "2_2020",
        "lat": 48.114105,
        "lon": -1.621837,
        "name": "Taillis",
        "code": 2020
      },
      "arrival": 49260,
      "departure": 49260
    },
    {
      "stop": {
        "id": "2_2021",
        "lat": 48.114168,
        "lon": -1.613754,
        "name": "Hublais",
        "code": 2021
      },
      "arrival": 49380,
      "departure": 49380
    },
    {
      "stop": {
        "id": "2_2022",
        "lat": 48.114642,
        "lon": -1.609545,
        "name": "Place Sévigné",
        "code": 2022
      },
      "arrival": 49440,
      "departure": 49440
    },
    {
      "stop": {
        "id": "2_2023",
        "lat": 48.115593,
        "lon": -1.606961,
        "name": "Vilaine",
        "code": 2023
      },
      "arrival": 49500,
      "departure": 49500
    },
    {
      "stop": {
        "id": "2_2066",
        "lat": 48.118312,
        "lon": -1.604191,
        "name": "Cesson Mairie",
        "code": 2066
      },
      "arrival": 49560,
      "departure": 49560
    },
    {
      "stop": {
        "id": "2_2067",
        "lat": 48.120381,
        "lon": -1.602371,
        "name": "Cesson Piscine",
        "code": 2067
      },
      "arrival": 49620,
      "departure": 49620
    },
    {
      "stop": {
        "id": "2_2068",
        "lat": 48.123149,
        "lon": -1.60173,
        "name": "Métairies Chalotais",
        "code": 2068
      },
      "arrival": 49680,
      "departure": 49680
    },
    {
      "stop": {
        "id": "2_2029",
        "lat": 48.123131,
        "lon": -1.600719,
        "name": "Bourgchevreuil",
        "code": 2029
      },
      "arrival": 49680,
      "departure": 49680
    },
    {
      "stop": {
        "id": "2_2030",
        "lat": 48.124795,
        "lon": -1.596767,
        "name": "Petits Champs",
        "code": 2030
      },
      "arrival": 49740,
      "departure": 49740
    },
    {
      "stop": {
        "id": "2_2031",
        "lat": 48.123852,
        "lon": -1.593542,
        "name": "Grand Domaine",
        "code": 2031
      },
      "arrival": 49800,
      "departure": 49800
    },
    {
      "stop": {
        "id": "2_2088",
        "lat": 48.124676,
        "lon": -1.590653,
        "name": "Base de Loisirs",
        "code": 2088
      },
      "arrival": 49860,
      "departure": 49860
    }
  ],
  "route": {
    "id": "2_0031",
    "textColor": "E2001A",
    "color": "FFF164",
    "description": "Inter-quartiers",
    "longName": "Villejean-Churchill \u003c\u003e Cesson-Sévigné (Base de Loisirs)",
    "shortName": "31",
    "type": 3,
    "agencyId": "2"
  }
}