{
  "headsign": "64 | Acigné",
  "stopTimes": [
    {
      "stop": {
        "id": "2_1143",
        "lat": 48.10608092,
        "lon": -1.67760115,
        "name": "Charles de Gaulle",
        "code": 1143
      },
      "arrival": 92400,
      "departure": 92400
    },
    {
      "stop": {
        "id": "2_1172",
        "lat": 48.11007924,
        "lon": -1.65919453,
        "name": "Robidou",
        "code": 1172
      },
      "arrival": 92640,
      "departure": 92640
    },
    {
      "stop": {
        "id": "2_1515",
        "lat": 48.11350079,
        "lon": -1.64755396,
        "name": "Moulin de Joué",
        "code": 1515
      },
      "arrival": 92820,
      "departure": 92820
    },
    {
      "stop": {
        "id": "2_1516",
        "lat": 48.11595285,
        "lon": -1.64840733,
        "name": "Bois Perrin",
        "code": 1516
      },
      "arrival": 92880,
      "departure": 92880
    },
    {
      "stop": {
        "id": "2_1201",
        "lat": 48.11911266,
        "lon": -1.64919701,
        "name": "Vitré Foulon",
        "code": 1201
      },
      "arrival": 92940,
      "departure": 92940
    },
    {
      "stop": {
        "id": "2_1202",
        "lat": 48.12062049,
        "lon": -1.64433521,
        "name": "Beaulieu Cité U.",
        "code": 1202
      },
      "arrival": 93000,
      "departure": 93000
    },
    {
      "stop": {
        "id": "2_1203",
        "lat": 48.12203302,
        "lon": -1.6395994,
        "name": "Beaulieu Restau. U.",
        "code": 1203
      },
      "arrival": 93000,
      "departure": 93000
    },
    {
      "stop": {
        "id": "2_2046",
        "lat": 48.12733271,
        "lon": -1.62783456,
        "name": "Clos Courtel",
        "code": 2046
      },
      "arrival": 93120,
      "departure": 93120
    },
    {
      "stop": {
        "id": "2_2047",
        "lat": 48.12725633,
        "lon": -1.62413052,
        "name": "Belle Fontaine",
        "code": 2047
      },
      "arrival": 93120,
      "departure": 93120
    },
    {
      "stop": {
        "id": "2_2081",
        "lat": 48.1268256,
        "lon": -1.61994598,
        "name": "Bouriande",
        "code": 2081
      },
      "arrival": 93180,
      "departure": 93180
    },
    {
      "stop": {
        "id": "2_2083",
        "lat": 48.12696193,
        "lon": -1.61439739,
        "name": "Gaudais",
        "code": 2083
      },
      "arrival": 93180,
      "departure": 93180
    },
    {
      "stop": {
        "id": "2_2084",
        "lat": 48.12903982,
        "lon": -1.60483093,
        "name": "Verger",
        "code": 2084
      },
      "arrival": 93240,
      "departure": 93240
    },
    {
      "stop": {
        "id": "2_3316",
        "lat": 48.13215303,
        "lon": -1.59643107,
        "name": "Saint-Etienne",
        "code": 3316
      },
      "arrival": 93300,
      "departure": 93300
    },
    {
      "stop": {
        "id": "2_3318",
        "lat": 48.14093339,
        "lon": -1.57346681,
        "name": "Pâtis du Moulinet",
        "code": 3318
      },
      "arrival": 93480,
      "departure": 93480
    },
    {
      "stop": {
        "id": "2_4008",
        "lat": 48.13908696,
        "lon": -1.55947698,
        "name": "Boulais",
        "code": 4008
      },
      "arrival": 93540,
      "departure": 93540
    },
    {
      "stop": {
        "id": "2_4009",
        "lat": 48.13686615,
        "lon": -1.54860696,
        "name": "Pont d\u0027Ohin",
        "code": 4009
      },
      "arrival": 93600,
      "departure": 93600
    },
    {
      "stop": {
        "id": "2_4010",
        "lat": 48.13448301,
        "lon": -1.54192503,
        "name": "Lande",
        "code": 4010
      },
      "arrival": 93660,
      "departure": 93660
    },
    {
      "stop": {
        "id": "2_4011",
        "lat": 48.13388288,
        "lon": -1.53762999,
        "name": "Foyer",
        "code": 4011
      },
      "arrival": 93720,
      "departure": 93720
    },
    {
      "stop": {
        "id": "2_4012",
        "lat": 48.13417021,
        "lon": -1.5347181,
        "name": "Acigné Mairie",
        "code": 4012
      },
      "arrival": 93780,
      "departure": 93780
    },
    {
      "stop": {
        "id": "2_4013",
        "lat": 48.13716321,
        "lon": -1.53294519,
        "name": "Verdaudais",
        "code": 4013
      },
      "arrival": 93840,
      "departure": 93840
    },
    {
      "stop": {
        "id": "2_4001",
        "lat": 48.13701918,
        "lon": -1.52637517,
        "name": "Timonière",
        "code": 4001
      },
      "arrival": 93960,
      "departure": 93960
    }
  ],
  "route": {
    "id": "2_0064",
    "textColor": "ffffff",
    "color": "008dd6",
    "description": "Métropolitaine",
    "longName": "Rennes (République) \u003c\u003e Acigné",
    "shortName": "64",
    "type": 3,
    "agencyId": "2"
  }
}