{
  "headsign": "3 | Saint-Laurent",
  "stopTimes": [
    {
      "stop": {
        "id": "2_1509",
        "lat": 48.08810982,
        "lon": -1.67444972,
        "name": "Henri Fréville",
        "code": 1509
      },
      "arrival": 41940,
      "departure": 41940
    },
    {
      "stop": {
        "id": "2_1622",
        "lat": 48.08412006,
        "lon": -1.6791678,
        "name": "Alma",
        "code": 1622
      },
      "arrival": 42120,
      "departure": 42120
    },
    {
      "stop": {
        "id": "2_1134",
        "lat": 48.08517814,
        "lon": -1.68230743,
        "name": "Canada",
        "code": 1134
      },
      "arrival": 42180,
      "departure": 42180
    },
    {
      "stop": {
        "id": "2_1135",
        "lat": 48.08807548,
        "lon": -1.68221434,
        "name": "Suède",
        "code": 1135
      },
      "arrival": 42300,
      "departure": 42300
    },
    {
      "stop": {
        "id": "2_1136",
        "lat": 48.09113663,
        "lon": -1.68208194,
        "name": "Champs Manceaux",
        "code": 1136
      },
      "arrival": 42360,
      "departure": 42360
    },
    {
      "stop": {
        "id": "2_1137",
        "lat": 48.09359701,
        "lon": -1.68186938,
        "name": "Frères Moine",
        "code": 1137
      },
      "arrival": 42420,
      "departure": 42420
    },
    {
      "stop": {
        "id": "2_1138",
        "lat": 48.09634749,
        "lon": -1.68161522,
        "name": "Garigliano",
        "code": 1138
      },
      "arrival": 42480,
      "departure": 42480
    },
    {
      "stop": {
        "id": "2_1139",
        "lat": 48.09695782,
        "lon": -1.67850697,
        "name": "Sacrés Coeurs",
        "code": 1139
      },
      "arrival": 42600,
      "departure": 42600
    },
    {
      "stop": {
        "id": "2_1333",
        "lat": 48.09774726,
        "lon": -1.67519921,
        "name": "Jacques Cartier",
        "code": 1333
      },
      "arrival": 42660,
      "departure": 42660
    },
    {
      "stop": {
        "id": "2_1141",
        "lat": 48.09927815,
        "lon": -1.67561799,
        "name": "Ginguené",
        "code": 1141
      },
      "arrival": 42720,
      "departure": 42720
    },
    {
      "stop": {
        "id": "2_1142",
        "lat": 48.10204067,
        "lon": -1.67395497,
        "name": "Gare Sud Féval",
        "code": 1142
      },
      "arrival": 42780,
      "departure": 42780
    },
    {
      "stop": {
        "id": "2_1143",
        "lat": 48.10608092,
        "lon": -1.67760115,
        "name": "Charles de Gaulle",
        "code": 1143
      },
      "arrival": 42900,
      "departure": 42900
    },
    {
      "stop": {
        "id": "2_1550",
        "lat": 48.10969793,
        "lon": -1.67797331,
        "name": "République",
        "code": 1550
      },
      "arrival": 43080,
      "departure": 43080
    },
    {
      "stop": {
        "id": "2_1552",
        "lat": 48.11064955,
        "lon": -1.6735086,
        "name": "Place Pasteur",
        "code": 1552
      },
      "arrival": 43200,
      "departure": 43200
    },
    {
      "stop": {
        "id": "2_1146",
        "lat": 48.11187283,
        "lon": -1.67113003,
        "name": "Thabor",
        "code": 1146
      },
      "arrival": 43260,
      "departure": 43260
    },
    {
      "stop": {
        "id": "2_1147",
        "lat": 48.11271566,
        "lon": -1.66439614,
        "name": "Saint-Vincent",
        "code": 1147
      },
      "arrival": 43440,
      "departure": 43440
    },
    {
      "stop": {
        "id": "2_1148",
        "lat": 48.11341058,
        "lon": -1.66141539,
        "name": "Oberthur",
        "code": 1148
      },
      "arrival": 43500,
      "departure": 43500
    },
    {
      "stop": {
        "id": "2_1149",
        "lat": 48.114256,
        "lon": -1.65873929,
        "name": "Durafour",
        "code": 1149
      },
      "arrival": 43560,
      "departure": 43560
    },
    {
      "stop": {
        "id": "2_1150",
        "lat": 48.11652807,
        "lon": -1.65552519,
        "name": "Jeanne d\u0027Arc",
        "code": 1150
      },
      "arrival": 43620,
      "departure": 43620
    },
    {
      "stop": {
        "id": "2_1151",
        "lat": 48.11879169,
        "lon": -1.65161883,
        "name": "Vitré Danton",
        "code": 1151
      },
      "arrival": 43740,
      "departure": 43740
    },
    {
      "stop": {
        "id": "2_1152",
        "lat": 48.12043354,
        "lon": -1.65067299,
        "name": "Docteur Quentin",
        "code": 1152
      },
      "arrival": 43800,
      "departure": 43800
    },
    {
      "stop": {
        "id": "2_1638",
        "lat": 48.12250411,
        "lon": -1.65118232,
        "name": "Lycée Chateaubriand",
        "code": 1638
      },
      "arrival": 43800,
      "departure": 43800
    },
    {
      "stop": {
        "id": "2_1619",
        "lat": 48.12519569,
        "lon": -1.65291775,
        "name": "Joliot-Curie",
        "code": 1619
      },
      "arrival": 43920,
      "departure": 43920
    },
    {
      "stop": {
        "id": "2_1155",
        "lat": 48.12916578,
        "lon": -1.65210189,
        "name": "Gayeulles",
        "code": 1155
      },
      "arrival": 43980,
      "departure": 43980
    },
    {
      "stop": {
        "id": "2_1156",
        "lat": 48.13185588,
        "lon": -1.65200229,
        "name": "Le Blizz",
        "code": 1156
      },
      "arrival": 44040,
      "departure": 44040
    },
    {
      "stop": {
        "id": "2_1157",
        "lat": 48.13494543,
        "lon": -1.65205906,
        "name": "Gayeulles Piscine",
        "code": 1157
      },
      "arrival": 44100,
      "departure": 44100
    },
    {
      "stop": {
        "id": "2_1158",
        "lat": 48.13553883,
        "lon": -1.6562051,
        "name": "Héronière",
        "code": 1158
      },
      "arrival": 44160,
      "departure": 44160
    },
    {
      "stop": {
        "id": "2_1373",
        "lat": 48.13520527,
        "lon": -1.65938653,
        "name": "Hôtel de Région",
        "code": 1373
      },
      "arrival": 44220,
      "departure": 44220
    },
    {
      "stop": {
        "id": "2_1103",
        "lat": 48.13880017,
        "lon": -1.65921311,
        "name": "Saint-Laurent",
        "code": 1103
      },
      "arrival": 44280,
      "departure": 44280
    }
  ],
  "route": {
    "id": "2_0003",
    "textColor": "FFFFFF",
    "color": "008436",
    "description": "Majeure",
    "longName": "Saint-Laurent \u003c\u003e Henri Fréville",
    "shortName": "3",
    "type": 3,
    "agencyId": "2"
  }
}