{
  "headsign": "57 | Bruz Centre",
  "stopTimes": [
    {
      "stop": {
        "id": "2_1501",
        "lat": 48.109403,
        "lon": -1.679768,
        "name": "République Pré Botté",
        "code": 1501
      },
      "arrival": 49800,
      "departure": 49800
    },
    {
      "stop": {
        "id": "2_1017",
        "lat": 48.108415,
        "lon": -1.680213,
        "name": "Les Halles",
        "code": 1017
      },
      "arrival": 49860,
      "departure": 49860
    },
    {
      "stop": {
        "id": "2_1018",
        "lat": 48.106204,
        "lon": -1.680999,
        "name": "Plélo Colombier",
        "code": 1018
      },
      "arrival": 49980,
      "departure": 49980
    },
    {
      "stop": {
        "id": "2_1019",
        "lat": 48.105084,
        "lon": -1.684731,
        "name": "Cité Judiciaire",
        "code": 1019
      },
      "arrival": 50100,
      "departure": 50100
    },
    {
      "stop": {
        "id": "2_1264",
        "lat": 48.10206,
        "lon": -1.684417,
        "name": "Pont de Nantes",
        "code": 1264
      },
      "arrival": 50160,
      "departure": 50160
    },
    {
      "stop": {
        "id": "2_1265",
        "lat": 48.099809,
        "lon": -1.687123,
        "name": "Foyer Rennais",
        "code": 1265
      },
      "arrival": 50220,
      "departure": 50220
    },
    {
      "stop": {
        "id": "2_1020",
        "lat": 48.097442,
        "lon": -1.689566,
        "name": "Mermoz",
        "code": 1020
      },
      "arrival": 50280,
      "departure": 50280
    },
    {
      "stop": {
        "id": "2_2208",
        "lat": 48.095802,
        "lon": -1.694528,
        "name": "Commeurec",
        "code": 2208
      },
      "arrival": 50340,
      "departure": 50340
    },
    {
      "stop": {
        "id": "2_2207",
        "lat": 48.093611,
        "lon": -1.701413,
        "name": "Lilas",
        "code": 2207
      },
      "arrival": 50460,
      "departure": 50460
    },
    {
      "stop": {
        "id": "2_2211",
        "lat": 48.087261,
        "lon": -1.707384,
        "name": "Gaité",
        "code": 2211
      },
      "arrival": 50580,
      "departure": 50580
    },
    {
      "stop": {
        "id": "2_2241",
        "lat": 48.08053,
        "lon": -1.71259,
        "name": "Malraux",
        "code": 2241
      },
      "arrival": 50700,
      "departure": 50700
    },
    {
      "stop": {
        "id": "2_2245",
        "lat": 48.077633,
        "lon": -1.712716,
        "name": "Haut Bois",
        "code": 2245
      },
      "arrival": 50700,
      "departure": 50700
    },
    {
      "stop": {
        "id": "2_2233",
        "lat": 48.067424,
        "lon": -1.717305,
        "name": "Abbé Grimault",
        "code": 2233
      },
      "arrival": 50880,
      "departure": 50880
    },
    {
      "stop": {
        "id": "2_2243",
        "lat": 48.066958,
        "lon": -1.722384,
        "name": "Aire Libre Aéroport",
        "code": 2243
      },
      "arrival": 50940,
      "departure": 50940
    },
    {
      "stop": {
        "id": "2_2242",
        "lat": 48.065059,
        "lon": -1.724639,
        "name": "Centre Météo",
        "code": 2242
      },
      "arrival": 51000,
      "departure": 51000
    },
    {
      "stop": {
        "id": "2_2244",
        "lat": 48.059907,
        "lon": -1.73445,
        "name": "Parc Expo",
        "code": 2244
      },
      "arrival": 51120,
      "departure": 51120
    },
    {
      "stop": {
        "id": "2_2315",
        "lat": 48.052844,
        "lon": -1.73842,
        "name": "Lande du Pont",
        "code": 2315
      },
      "arrival": 51240,
      "departure": 51240
    },
    {
      "stop": {
        "id": "2_2316",
        "lat": 48.049376,
        "lon": -1.740727,
        "name": "Etangs",
        "code": 2316
      },
      "arrival": 51300,
      "departure": 51300
    },
    {
      "stop": {
        "id": "2_2317",
        "lat": 48.047427,
        "lon": -1.742103,
        "name": "Coeur de Campus",
        "code": 2317
      },
      "arrival": 51360,
      "departure": 51360
    },
    {
      "stop": {
        "id": "2_2309",
        "lat": 48.044622,
        "lon": -1.746502,
        "name": "Schuman",
        "code": 2309
      },
      "arrival": 51420,
      "departure": 51420
    },
    {
      "stop": {
        "id": "2_2320",
        "lat": 48.040345,
        "lon": -1.755243,
        "name": "Croix Madame",
        "code": 2320
      },
      "arrival": 51480,
      "departure": 51480
    },
    {
      "stop": {
        "id": "2_2321",
        "lat": 48.0312,
        "lon": -1.759598,
        "name": "Gavrinis",
        "code": 2321
      },
      "arrival": 51600,
      "departure": 51600
    },
    {
      "stop": {
        "id": "2_2305",
        "lat": 48.029342,
        "lon": -1.758019,
        "name": "Vert Buisson",
        "code": 2305
      },
      "arrival": 51660,
      "departure": 51660
    },
    {
      "stop": {
        "id": "2_2323",
        "lat": 48.025619,
        "lon": -1.760676,
        "name": "Rabine",
        "code": 2323
      },
      "arrival": 51780,
      "departure": 51780
    },
    {
      "stop": {
        "id": "2_2324",
        "lat": 48.024584,
        "lon": -1.757229,
        "name": "Haut Launay",
        "code": 2324
      },
      "arrival": 51900,
      "departure": 51900
    },
    {
      "stop": {
        "id": "2_2374",
        "lat": 48.024285,
        "lon": -1.752925,
        "name": "Châteliers",
        "code": 2374
      },
      "arrival": 51960,
      "departure": 51960
    },
    {
      "stop": {
        "id": "2_2331",
        "lat": 48.021416,
        "lon": -1.752313,
        "name": "Noë",
        "code": 2331
      },
      "arrival": 52020,
      "departure": 52020
    },
    {
      "stop": {
        "id": "2_2332",
        "lat": 48.019493,
        "lon": -1.744988,
        "name": "Epalet",
        "code": 2332
      },
      "arrival": 52080,
      "departure": 52080
    },
    {
      "stop": {
        "id": "2_2373",
        "lat": 48.022989,
        "lon": -1.743824,
        "name": "Bruz Centre",
        "code": 2373
      },
      "arrival": 52260,
      "departure": 52260
    }
  ],
  "route": {
    "id": "2_0057",
    "textColor": "FFFFFF",
    "color": "A9701E",
    "description": "Métropolitaine",
    "longName": "Rennes (République) \u003c\u003e Saint-Jacques-de-la-Lande / Bruz (Centre)",
    "shortName": "57",
    "type": 3,
    "agencyId": "2"
  }
}