{
  "headsign": "57 | Rennes République",
  "stopTimes": [
    {
      "stop": {
        "id": "2_2373",
        "lat": 48.022989,
        "lon": -1.743824,
        "name": "Bruz Centre",
        "code": 2373
      },
      "arrival": 65100,
      "departure": 65100
    },
    {
      "stop": {
        "id": "2_2343",
        "lat": 48.019598,
        "lon": -1.744633,
        "name": "Epalet",
        "code": 2343
      },
      "arrival": 65220,
      "departure": 65220
    },
    {
      "stop": {
        "id": "2_2344",
        "lat": 48.021674,
        "lon": -1.752317,
        "name": "Noë",
        "code": 2344
      },
      "arrival": 65280,
      "departure": 65280
    },
    {
      "stop": {
        "id": "2_2375",
        "lat": 48.024186,
        "lon": -1.75284,
        "name": "Châteliers",
        "code": 2375
      },
      "arrival": 65340,
      "departure": 65340
    },
    {
      "stop": {
        "id": "2_2303",
        "lat": 48.02471,
        "lon": -1.757238,
        "name": "Haut Launay",
        "code": 2303
      },
      "arrival": 65460,
      "departure": 65460
    },
    {
      "stop": {
        "id": "2_2304",
        "lat": 48.02575,
        "lon": -1.76091,
        "name": "Rabine",
        "code": 2304
      },
      "arrival": 65520,
      "departure": 65520
    },
    {
      "stop": {
        "id": "2_2322",
        "lat": 48.029465,
        "lon": -1.757995,
        "name": "Vert Buisson",
        "code": 2322
      },
      "arrival": 65640,
      "departure": 65640
    },
    {
      "stop": {
        "id": "2_2307",
        "lat": 48.031275,
        "lon": -1.759442,
        "name": "Gavrinis",
        "code": 2307
      },
      "arrival": 65700,
      "departure": 65700
    },
    {
      "stop": {
        "id": "2_2308",
        "lat": 48.041413,
        "lon": -1.754424,
        "name": "Croix Madame",
        "code": 2308
      },
      "arrival": 65820,
      "departure": 65820
    },
    {
      "stop": {
        "id": "2_2319",
        "lat": 48.044534,
        "lon": -1.746319,
        "name": "Schuman",
        "code": 2319
      },
      "arrival": 65880,
      "departure": 65880
    },
    {
      "stop": {
        "id": "2_2311",
        "lat": 48.047249,
        "lon": -1.741955,
        "name": "Coeur de Campus",
        "code": 2311
      },
      "arrival": 65940,
      "departure": 65940
    },
    {
      "stop": {
        "id": "2_2312",
        "lat": 48.049424,
        "lon": -1.740454,
        "name": "Etangs",
        "code": 2312
      },
      "arrival": 66000,
      "departure": 66000
    },
    {
      "stop": {
        "id": "2_2313",
        "lat": 48.052679,
        "lon": -1.73829,
        "name": "Lande du Pont",
        "code": 2313
      },
      "arrival": 66060,
      "departure": 66060
    },
    {
      "stop": {
        "id": "2_2236",
        "lat": 48.059996,
        "lon": -1.734101,
        "name": "Parc Expo",
        "code": 2236
      },
      "arrival": 66180,
      "departure": 66180
    },
    {
      "stop": {
        "id": "2_2238",
        "lat": 48.065007,
        "lon": -1.724483,
        "name": "Centre Météo",
        "code": 2238
      },
      "arrival": 66300,
      "departure": 66300
    },
    {
      "stop": {
        "id": "2_2237",
        "lat": 48.067372,
        "lon": -1.721674,
        "name": "Aire Libre Aéroport",
        "code": 2237
      },
      "arrival": 66360,
      "departure": 66360
    },
    {
      "stop": {
        "id": "2_2223",
        "lat": 48.067334,
        "lon": -1.716885,
        "name": "Abbé Grimault",
        "code": 2223
      },
      "arrival": 66420,
      "departure": 66420
    },
    {
      "stop": {
        "id": "2_2239",
        "lat": 48.077838,
        "lon": -1.712445,
        "name": "Haut Bois",
        "code": 2239
      },
      "arrival": 66600,
      "departure": 66600
    },
    {
      "stop": {
        "id": "2_2240",
        "lat": 48.080594,
        "lon": -1.712287,
        "name": "Malraux",
        "code": 2240
      },
      "arrival": 66660,
      "departure": 66660
    },
    {
      "stop": {
        "id": "2_2206",
        "lat": 48.087497,
        "lon": -1.706946,
        "name": "Gaité",
        "code": 2206
      },
      "arrival": 66780,
      "departure": 66780
    },
    {
      "stop": {
        "id": "2_2210",
        "lat": 48.093307,
        "lon": -1.70147,
        "name": "Lilas",
        "code": 2210
      },
      "arrival": 66900,
      "departure": 66900
    },
    {
      "stop": {
        "id": "2_2209",
        "lat": 48.095716,
        "lon": -1.694313,
        "name": "Commeurec",
        "code": 2209
      },
      "arrival": 66960,
      "departure": 66960
    },
    {
      "stop": {
        "id": "2_1573",
        "lat": 48.097045,
        "lon": -1.690278,
        "name": "Mermoz",
        "code": 1573
      },
      "arrival": 67020,
      "departure": 67020
    },
    {
      "stop": {
        "id": "2_1276",
        "lat": 48.099714,
        "lon": -1.68619,
        "name": "Foyer Rennais",
        "code": 1276
      },
      "arrival": 67140,
      "departure": 67140
    },
    {
      "stop": {
        "id": "2_1277",
        "lat": 48.102127,
        "lon": -1.684092,
        "name": "Pont de Nantes",
        "code": 1277
      },
      "arrival": 67200,
      "departure": 67200
    },
    {
      "stop": {
        "id": "2_1021",
        "lat": 48.105444,
        "lon": -1.684005,
        "name": "Cité Judiciaire",
        "code": 1021
      },
      "arrival": 67260,
      "departure": 67260
    },
    {
      "stop": {
        "id": "2_1022",
        "lat": 48.106222,
        "lon": -1.680736,
        "name": "Plélo Colombier",
        "code": 1022
      },
      "arrival": 67320,
      "departure": 67320
    },
    {
      "stop": {
        "id": "2_1023",
        "lat": 48.108066,
        "lon": -1.680048,
        "name": "Les Halles",
        "code": 1023
      },
      "arrival": 67380,
      "departure": 67380
    },
    {
      "stop": {
        "id": "2_1615",
        "lat": 48.109803,
        "lon": -1.678283,
        "name": "République",
        "code": 1615
      },
      "arrival": 67500,
      "departure": 67500
    }
  ],
  "route": {
    "id": "2_0057",
    "textColor": "FFFFFF",
    "color": "A9701E",
    "description": "Métropolitaine",
    "longName": "Rennes (République) \u003c\u003e Saint-Jacques-de-la-Lande / Bruz (Centre)",
    "shortName": "57",
    "type": 3,
    "agencyId": "2"
  }
}