{
  "headsign": "51 | Rennes Hoche",
  "stopTimes": [
    {
      "stop": {
        "id": "2_2401",
        "lat": 48.17703667,
        "lon": -1.65122928,
        "name": "Champ Devant",
        "code": 2401
      },
      "arrival": 68700,
      "departure": 68700
    },
    {
      "stop": {
        "id": "2_2402",
        "lat": 48.17926699,
        "lon": -1.65112944,
        "name": "Omblais",
        "code": 2402
      },
      "arrival": 68760,
      "departure": 68760
    },
    {
      "stop": {
        "id": "2_2403",
        "lat": 48.18066394,
        "lon": -1.65204781,
        "name": "Brocéliande",
        "code": 2403
      },
      "arrival": 68760,
      "departure": 68760
    },
    {
      "stop": {
        "id": "2_2404",
        "lat": 48.18305535,
        "lon": -1.64603174,
        "name": "Trégor",
        "code": 2404
      },
      "arrival": 68880,
      "departure": 68880
    },
    {
      "stop": {
        "id": "2_2405",
        "lat": 48.18191274,
        "lon": -1.64173916,
        "name": "Betton Mairie",
        "code": 2405
      },
      "arrival": 68940,
      "departure": 68940
    },
    {
      "stop": {
        "id": "2_2406",
        "lat": 48.18119826,
        "lon": -1.6380241,
        "name": "Betton Centre",
        "code": 2406
      },
      "arrival": 69000,
      "departure": 69000
    },
    {
      "stop": {
        "id": "2_2407",
        "lat": 48.18021327,
        "lon": -1.6348781,
        "name": "Haye Renaud Gare",
        "code": 2407
      },
      "arrival": 69060,
      "departure": 69060
    },
    {
      "stop": {
        "id": "2_2408",
        "lat": 48.17623356,
        "lon": -1.63729111,
        "name": "Marronniers",
        "code": 2408
      },
      "arrival": 69120,
      "departure": 69120
    },
    {
      "stop": {
        "id": "2_2409",
        "lat": 48.17240012,
        "lon": -1.63735842,
        "name": "Housset",
        "code": 2409
      },
      "arrival": 69180,
      "departure": 69180
    },
    {
      "stop": {
        "id": "2_2410",
        "lat": 48.17135339,
        "lon": -1.64196927,
        "name": "Enseigne Abbaye",
        "code": 2410
      },
      "arrival": 69240,
      "departure": 69240
    },
    {
      "stop": {
        "id": "2_2411",
        "lat": 48.16179617,
        "lon": -1.64775716,
        "name": "Betton Vallée",
        "code": 2411
      },
      "arrival": 69360,
      "departure": 69360
    },
    {
      "stop": {
        "id": "2_2827",
        "lat": 48.14906521,
        "lon": -1.65652284,
        "name": "Maison Blanche",
        "code": 2827
      },
      "arrival": 69480,
      "departure": 69480
    },
    {
      "stop": {
        "id": "2_1485",
        "lat": 48.13797172,
        "lon": -1.65873598,
        "name": "Saint-Laurent",
        "code": 1485
      },
      "arrival": 69600,
      "departure": 69600
    },
    {
      "stop": {
        "id": "2_1486",
        "lat": 48.13482757,
        "lon": -1.65983208,
        "name": "Hôtel de Région",
        "code": 1486
      },
      "arrival": 69660,
      "departure": 69660
    },
    {
      "stop": {
        "id": "2_1487",
        "lat": 48.13141312,
        "lon": -1.66229111,
        "name": "Patton Gast",
        "code": 1487
      },
      "arrival": 69720,
      "departure": 69720
    },
    {
      "stop": {
        "id": "2_1260",
        "lat": 48.12670281,
        "lon": -1.66538386,
        "name": "Gros Chêne",
        "code": 1260
      },
      "arrival": 69840,
      "departure": 69840
    },
    {
      "stop": {
        "id": "2_1261",
        "lat": 48.12528168,
        "lon": -1.66666402,
        "name": "Volney",
        "code": 1261
      },
      "arrival": 69840,
      "departure": 69840
    },
    {
      "stop": {
        "id": "2_1262",
        "lat": 48.12147137,
        "lon": -1.67091812,
        "name": "Jules Ferry",
        "code": 1262
      },
      "arrival": 69960,
      "departure": 69960
    },
    {
      "stop": {
        "id": "2_1011",
        "lat": 48.11830509,
        "lon": -1.67120349,
        "name": "Fac de Droit",
        "code": 1011
      },
      "arrival": 70020,
      "departure": 70020
    },
    {
      "stop": {
        "id": "2_1606",
        "lat": 48.11563108,
        "lon": -1.67670645,
        "name": "Hoche",
        "code": 1606
      },
      "arrival": 70140,
      "departure": 70140
    }
  ],
  "route": {
    "id": "2_0051",
    "textColor": "FFFFFF",
    "color": "93007C",
    "description": "Métropolitaine",
    "longName": "Rennes (Hoche) \u003c\u003e Betton (Champ Devant)",
    "shortName": "51",
    "type": 3,
    "agencyId": "2"
  }
}