{
  "headsign": "50 | Rennes République",
  "stopTimes": [
    {
      "stop": {
        "id": "2_3301",
        "lat": 48.15515021,
        "lon": -1.57316318,
        "name": "Landelles",
        "code": 3301
      },
      "arrival": 24300,
      "departure": 24300
    },
    {
      "stop": {
        "id": "2_3322",
        "lat": 48.1492763,
        "lon": -1.57750308,
        "name": "Curien",
        "code": 3322
      },
      "arrival": 24420,
      "departure": 24420
    },
    {
      "stop": {
        "id": "2_3315",
        "lat": 48.15354798,
        "lon": -1.5798402,
        "name": "Thorigné Mairie",
        "code": 3315
      },
      "arrival": 24480,
      "departure": 24480
    },
    {
      "stop": {
        "id": "2_3314",
        "lat": 48.15594837,
        "lon": -1.58069511,
        "name": "Anne de Bretagne",
        "code": 3314
      },
      "arrival": 24540,
      "departure": 24540
    },
    {
      "stop": {
        "id": "2_3305",
        "lat": 48.15897926,
        "lon": -1.57970534,
        "name": "Bocage",
        "code": 3305
      },
      "arrival": 24600,
      "departure": 24600
    },
    {
      "stop": {
        "id": "2_3306",
        "lat": 48.16417683,
        "lon": -1.57932113,
        "name": "Juteauderies",
        "code": 3306
      },
      "arrival": 24660,
      "departure": 24660
    },
    {
      "stop": {
        "id": "2_3307",
        "lat": 48.16041313,
        "lon": -1.58594602,
        "name": "Fouillard",
        "code": 3307
      },
      "arrival": 24780,
      "departure": 24780
    },
    {
      "stop": {
        "id": "2_3309",
        "lat": 48.15626165,
        "lon": -1.59233418,
        "name": "Portail",
        "code": 3309
      },
      "arrival": 24840,
      "departure": 24840
    },
    {
      "stop": {
        "id": "2_2070",
        "lat": 48.14510684,
        "lon": -1.6086299,
        "name": "Victoire",
        "code": 2070
      },
      "arrival": 25020,
      "departure": 25020
    },
    {
      "stop": {
        "id": "2_2071",
        "lat": 48.14041547,
        "lon": -1.61679887,
        "name": "Calendrou",
        "code": 2071
      },
      "arrival": 25080,
      "departure": 25080
    },
    {
      "stop": {
        "id": "2_2114",
        "lat": 48.13737913,
        "lon": -1.62240807,
        "name": "Château de Vaux",
        "code": 2114
      },
      "arrival": 25140,
      "departure": 25140
    },
    {
      "stop": {
        "id": "2_2076",
        "lat": 48.13406637,
        "lon": -1.6290629,
        "name": "Lande Bouhard",
        "code": 2076
      },
      "arrival": 25200,
      "departure": 25200
    },
    {
      "stop": {
        "id": "2_1484",
        "lat": 48.13185965,
        "lon": -1.63589821,
        "name": "Gaudinais",
        "code": 1484
      },
      "arrival": 25260,
      "departure": 25260
    },
    {
      "stop": {
        "id": "2_1530",
        "lat": 48.12899468,
        "lon": -1.64272897,
        "name": "Zac Saint-Sulpice",
        "code": 1530
      },
      "arrival": 25380,
      "departure": 25380
    },
    {
      "stop": {
        "id": "2_1004",
        "lat": 48.12528847,
        "lon": -1.64253775,
        "name": "Donzelot",
        "code": 1004
      },
      "arrival": 25440,
      "departure": 25440
    },
    {
      "stop": {
        "id": "2_1005",
        "lat": 48.1233588,
        "lon": -1.64623199,
        "name": "Mirabeau",
        "code": 1005
      },
      "arrival": 25440,
      "departure": 25440
    },
    {
      "stop": {
        "id": "2_1006",
        "lat": 48.12226258,
        "lon": -1.65069568,
        "name": "Turmel",
        "code": 1006
      },
      "arrival": 25500,
      "departure": 25500
    },
    {
      "stop": {
        "id": "2_1111",
        "lat": 48.12024278,
        "lon": -1.65071004,
        "name": "Docteur Quentin",
        "code": 1111
      },
      "arrival": 25560,
      "departure": 25560
    },
    {
      "stop": {
        "id": "2_1432",
        "lat": 48.11876913,
        "lon": -1.64990717,
        "name": "Vitré Foulon",
        "code": 1432
      },
      "arrival": 25560,
      "departure": 25560
    },
    {
      "stop": {
        "id": "2_1513",
        "lat": 48.11548204,
        "lon": -1.64846012,
        "name": "Bois Perrin",
        "code": 1513
      },
      "arrival": 25620,
      "departure": 25620
    },
    {
      "stop": {
        "id": "2_1514",
        "lat": 48.11333583,
        "lon": -1.64760506,
        "name": "Moulin de Joué",
        "code": 1514
      },
      "arrival": 25620,
      "departure": 25620
    },
    {
      "stop": {
        "id": "2_1163",
        "lat": 48.1101066,
        "lon": -1.66054614,
        "name": "Robidou",
        "code": 1163
      },
      "arrival": 25800,
      "departure": 25800
    },
    {
      "stop": {
        "id": "2_1166",
        "lat": 48.10988328,
        "lon": -1.67512929,
        "name": "Musée Beaux Arts",
        "code": 1166
      },
      "arrival": 25980,
      "departure": 25980
    },
    {
      "stop": {
        "id": "2_1563",
        "lat": 48.10969683,
        "lon": -1.67818363,
        "name": "République",
        "code": 1563
      },
      "arrival": 26040,
      "departure": 26040
    }
  ],
  "route": {
    "id": "2_0050",
    "textColor": "ffffff",
    "color": "8ea1cf",
    "description": "Métropolitaine",
    "longName": "Rennes (République) \u003c\u003e Thorigné-Fouillard",
    "shortName": "50",
    "type": 3,
    "agencyId": "2"
  }
}