{
  "headsign": "59 | Rennes La Poterie",
  "stopTimes": [
    {
      "stop": {
        "id": "2_2601",
        "lat": 48.038508,
        "lon": -1.602504,
        "name": "Croix Malinge",
        "code": 2601
      },
      "arrival": 74880,
      "departure": 74880
    },
    {
      "stop": {
        "id": "2_2602",
        "lat": 48.043401,
        "lon": -1.601647,
        "name": "Bel Air",
        "code": 2602
      },
      "arrival": 75000,
      "departure": 75000
    },
    {
      "stop": {
        "id": "2_2629",
        "lat": 48.047187,
        "lon": -1.602518,
        "name": "Vern Eglise",
        "code": 2629
      },
      "arrival": 75060,
      "departure": 75060
    },
    {
      "stop": {
        "id": "2_2604",
        "lat": 48.049558,
        "lon": -1.606153,
        "name": "Croix Rouge",
        "code": 2604
      },
      "arrival": 75120,
      "departure": 75120
    },
    {
      "stop": {
        "id": "2_2617",
        "lat": 48.049484,
        "lon": -1.611106,
        "name": "Fosse Gauchère",
        "code": 2617
      },
      "arrival": 75180,
      "departure": 75180
    },
    {
      "stop": {
        "id": "2_2606",
        "lat": 48.050629,
        "lon": -1.614982,
        "name": "Solidor",
        "code": 2606
      },
      "arrival": 75240,
      "departure": 75240
    },
    {
      "stop": {
        "id": "2_2607",
        "lat": 48.052615,
        "lon": -1.613836,
        "name": "Haute Abbaye",
        "code": 2607
      },
      "arrival": 75300,
      "departure": 75300
    },
    {
      "stop": {
        "id": "2_2608",
        "lat": 48.059275,
        "lon": -1.616638,
        "name": "Bretonnière",
        "code": 2608
      },
      "arrival": 75420,
      "departure": 75420
    },
    {
      "stop": {
        "id": "2_2609",
        "lat": 48.064138,
        "lon": -1.623074,
        "name": "Val d\u0027Orson",
        "code": 2609
      },
      "arrival": 75540,
      "departure": 75540
    },
    {
      "stop": {
        "id": "2_2610",
        "lat": 48.067768,
        "lon": -1.625701,
        "name": "Garenne",
        "code": 2610
      },
      "arrival": 75600,
      "departure": 75600
    },
    {
      "stop": {
        "id": "2_2611",
        "lat": 48.072416,
        "lon": -1.628709,
        "name": "Hallerais",
        "code": 2611
      },
      "arrival": 75660,
      "departure": 75660
    },
    {
      "stop": {
        "id": "2_3024",
        "lat": 48.07696,
        "lon": -1.631808,
        "name": "Martinière",
        "code": 3024
      },
      "arrival": 75720,
      "departure": 75720
    },
    {
      "stop": {
        "id": "2_1533",
        "lat": 48.087637,
        "lon": -1.643479,
        "name": "La Poterie",
        "code": 1533
      },
      "arrival": 75960,
      "departure": 75960
    }
  ],
  "route": {
    "id": "2_0059",
    "textColor": "1A171B",
    "color": "F19FC1",
    "description": "Métropolitaine",
    "longName": "Vern-sur-Seiche \u003c\u003e Rennes (La Poterie) / Rennes (Henri Fréville) \u003c\u003e Bruz (Gare)",
    "shortName": "59",
    "type": 3,
    "agencyId": "2"
  }
}