{
  "headsign": "31 | Villejean Churchill",
  "stopTimes": [
    {
      "stop": {
        "id": "2_1175",
        "lat": 48.11698398,
        "lon": -1.63390592,
        "name": "Beaulieu Chimie",
        "code": 1175
      },
      "arrival": 60360,
      "departure": 60360
    },
    {
      "stop": {
        "id": "2_1204",
        "lat": 48.11947652,
        "lon": -1.63539005,
        "name": "Beaulieu INSA",
        "code": 1204
      },
      "arrival": 60420,
      "departure": 60420
    },
    {
      "stop": {
        "id": "2_1177",
        "lat": 48.12187978,
        "lon": -1.640286,
        "name": "Beaulieu Restau. U.",
        "code": 1177
      },
      "arrival": 60540,
      "departure": 60540
    },
    {
      "stop": {
        "id": "2_1178",
        "lat": 48.12078326,
        "lon": -1.64386488,
        "name": "Beaulieu Cité U.",
        "code": 1178
      },
      "arrival": 60600,
      "departure": 60600
    },
    {
      "stop": {
        "id": "2_1112",
        "lat": 48.11890008,
        "lon": -1.65092835,
        "name": "Vitré Danton",
        "code": 1112
      },
      "arrival": 60720,
      "departure": 60720
    },
    {
      "stop": {
        "id": "2_1179",
        "lat": 48.11698403,
        "lon": -1.65584808,
        "name": "Jeanne d\u0027Arc",
        "code": 1179
      },
      "arrival": 60840,
      "departure": 60840
    },
    {
      "stop": {
        "id": "2_1180",
        "lat": 48.1161613,
        "lon": -1.65932935,
        "name": "Balzac",
        "code": 1180
      },
      "arrival": 60840,
      "departure": 60840
    },
    {
      "stop": {
        "id": "2_1199",
        "lat": 48.11620028,
        "lon": -1.66290006,
        "name": "Musset Cité U.",
        "code": 1199
      },
      "arrival": 60900,
      "departure": 60900
    },
    {
      "stop": {
        "id": "2_1182",
        "lat": 48.11625003,
        "lon": -1.66505828,
        "name": "George Sand",
        "code": 1182
      },
      "arrival": 60960,
      "departure": 60960
    },
    {
      "stop": {
        "id": "2_1010",
        "lat": 48.11917574,
        "lon": -1.66765915,
        "name": "Guéhenno",
        "code": 1010
      },
      "arrival": 61080,
      "departure": 61080
    },
    {
      "stop": {
        "id": "2_1011",
        "lat": 48.11830509,
        "lon": -1.67120349,
        "name": "Fac de Droit",
        "code": 1011
      },
      "arrival": 61140,
      "departure": 61140
    },
    {
      "stop": {
        "id": "2_1572",
        "lat": 48.1179832,
        "lon": -1.67522707,
        "name": "Vincennes",
        "code": 1572
      },
      "arrival": 61260,
      "departure": 61260
    },
    {
      "stop": {
        "id": "2_1183",
        "lat": 48.11735545,
        "lon": -1.67855043,
        "name": "Hôtel Dieu",
        "code": 1183
      },
      "arrival": 61320,
      "departure": 61320
    },
    {
      "stop": {
        "id": "2_1184",
        "lat": 48.11717158,
        "lon": -1.68158998,
        "name": "Dinan",
        "code": 1184
      },
      "arrival": 61440,
      "departure": 61440
    },
    {
      "stop": {
        "id": "2_1185",
        "lat": 48.11767912,
        "lon": -1.68484515,
        "name": "Legraverend",
        "code": 1185
      },
      "arrival": 61500,
      "departure": 61500
    },
    {
      "stop": {
        "id": "2_1186",
        "lat": 48.11853287,
        "lon": -1.68815907,
        "name": "Anatole France",
        "code": 1186
      },
      "arrival": 61620,
      "departure": 61620
    },
    {
      "stop": {
        "id": "2_1047",
        "lat": 48.11617754,
        "lon": -1.69116733,
        "name": "La Touche",
        "code": 1047
      },
      "arrival": 61740,
      "departure": 61740
    },
    {
      "stop": {
        "id": "2_1048",
        "lat": 48.11334584,
        "lon": -1.69345994,
        "name": "Brest Verdun",
        "code": 1048
      },
      "arrival": 61800,
      "departure": 61800
    },
    {
      "stop": {
        "id": "2_1187",
        "lat": 48.11402889,
        "lon": -1.69825899,
        "name": "Maison Diocésaine",
        "code": 1187
      },
      "arrival": 61920,
      "departure": 61920
    },
    {
      "stop": {
        "id": "2_1192",
        "lat": 48.11489023,
        "lon": -1.70129713,
        "name": "La Salle",
        "code": 1192
      },
      "arrival": 61980,
      "departure": 61980
    },
    {
      "stop": {
        "id": "2_1189",
        "lat": 48.11603293,
        "lon": -1.70563932,
        "name": "Languedoc",
        "code": 1189
      },
      "arrival": 62100,
      "departure": 62100
    },
    {
      "stop": {
        "id": "2_1190",
        "lat": 48.11740687,
        "lon": -1.70825224,
        "name": "Villejean-Churchill",
        "code": 1190
      },
      "arrival": 62220,
      "departure": 62220
    }
  ],
  "route": {
    "id": "2_0031",
    "textColor": "DF171C",
    "color": "FEF466",
    "description": "Inter-quartiers",
    "longName": "Villejean-Churchill \u003c\u003e Beaulieu Ecole de Chimie",
    "shortName": "31",
    "type": 3,
    "agencyId": "2"
  }
}