{
  "headsign": "201 | Cesson-Sévigné Thorigné",
  "stopTimes": [
    {
      "stop": {
        "id": "2_1429",
        "lat": 48.1276684,
        "lon": -1.65098708,
        "name": "Joliot-Curie",
        "code": 1429
      },
      "arrival": 42300,
      "departure": 42300
    },
    {
      "stop": {
        "id": "2_2077",
        "lat": 48.13420321,
        "lon": -1.62879212,
        "name": "Lande Bouhard",
        "code": 2077
      },
      "arrival": 42600,
      "departure": 42600
    },
    {
      "stop": {
        "id": "2_2072",
        "lat": 48.14059929,
        "lon": -1.61647827,
        "name": "Calendrou",
        "code": 2072
      },
      "arrival": 42780,
      "departure": 42780
    },
    {
      "stop": {
        "id": "2_2073",
        "lat": 48.14510205,
        "lon": -1.60852174,
        "name": "Victoire",
        "code": 2073
      },
      "arrival": 42840,
      "departure": 42840
    },
    {
      "stop": {
        "id": "2_3310",
        "lat": 48.15630543,
        "lon": -1.59213593,
        "name": "Portail",
        "code": 3310
      },
      "arrival": 43020,
      "departure": 43020
    },
    {
      "stop": {
        "id": "2_3311",
        "lat": 48.16050547,
        "lon": -1.58565766,
        "name": "Fouillard",
        "code": 3311
      },
      "arrival": 43140,
      "departure": 43140
    },
    {
      "stop": {
        "id": "2_3312",
        "lat": 48.16302115,
        "lon": -1.57914001,
        "name": "Juteauderies",
        "code": 3312
      },
      "arrival": 43260,
      "departure": 43260
    },
    {
      "stop": {
        "id": "2_3313",
        "lat": 48.15918482,
        "lon": -1.57975012,
        "name": "Bocage",
        "code": 3313
      },
      "arrival": 43380,
      "departure": 43380
    },
    {
      "stop": {
        "id": "2_3304",
        "lat": 48.15563878,
        "lon": -1.580776,
        "name": "Anne de Bretagne",
        "code": 3304
      },
      "arrival": 43440,
      "departure": 43440
    },
    {
      "stop": {
        "id": "2_3302",
        "lat": 48.1530775,
        "lon": -1.57942222,
        "name": "Thorigné Mairie",
        "code": 3302
      },
      "arrival": 43500,
      "departure": 43500
    },
    {
      "stop": {
        "id": "2_3323",
        "lat": 48.14928986,
        "lon": -1.57715406,
        "name": "Curien",
        "code": 3323
      },
      "arrival": 43620,
      "departure": 43620
    },
    {
      "stop": {
        "id": "2_3301",
        "lat": 48.15515021,
        "lon": -1.57316318,
        "name": "Landelles",
        "code": 3301
      },
      "arrival": 43740,
      "departure": 43740
    }
  ],
  "route": {
    "id": "2_0201",
    "textColor": "FFFFFF",
    "color": "E30613",
    "description": "Complémentaire",
    "longName": "Thorigné-Fouillard (Landelles) \u003c\u003e Rennes (Lycée Assomption)",
    "shortName": "201",
    "type": 3,
    "agencyId": "2"
  }
}