{
  "headsign": "223 | Betton Chevaigné",
  "stopTimes": [
    {
      "stop": {
        "id": "2_2841",
        "lat": 48.16049892,
        "lon": -1.67685816,
        "name": "Parking scolaire Jean-Paul II",
        "code": 2841
      },
      "arrival": 60000,
      "departure": 60000
    },
    {
      "stop": {
        "id": "2_2403",
        "lat": 48.18066394,
        "lon": -1.65204781,
        "name": "Brocéliande",
        "code": 2403
      },
      "arrival": 60300,
      "departure": 60300
    },
    {
      "stop": {
        "id": "2_2417",
        "lat": 48.18170386,
        "lon": -1.63855109,
        "name": "Betton Centre",
        "code": 2417
      },
      "arrival": 60420,
      "departure": 60420
    },
    {
      "stop": {
        "id": "2_4610",
        "lat": 48.19918213,
        "lon": -1.62764716,
        "name": "Chopinais",
        "code": 4610
      },
      "arrival": 60720,
      "departure": 60720
    },
    {
      "stop": {
        "id": "2_4608",
        "lat": 48.20787045,
        "lon": -1.63064822,
        "name": "Chevaigné Gare",
        "code": 4608
      },
      "arrival": 60840,
      "departure": 60840
    },
    {
      "stop": {
        "id": "2_4601",
        "lat": 48.21171751,
        "lon": -1.63046022,
        "name": "Chevaigné Mairie",
        "code": 4601
      },
      "arrival": 60960,
      "departure": 60960
    },
    {
      "stop": {
        "id": "2_4602",
        "lat": 48.21431434,
        "lon": -1.62905651,
        "name": "Fonderies",
        "code": 4602
      },
      "arrival": 61020,
      "departure": 61020
    },
    {
      "stop": {
        "id": "2_4603",
        "lat": 48.21095412,
        "lon": -1.62602395,
        "name": "Pommiers",
        "code": 4603
      },
      "arrival": 61140,
      "departure": 61140
    }
  ],
  "route": {
    "id": "2_0223",
    "textColor": "FFFFFF",
    "color": "94C11F",
    "description": "Complémentaire",
    "longName": "Chevaigné (Pommiers) \u003c\u003e Saint-Grégoire (Lycée Jean-Paul II)",
    "shortName": "223",
    "type": 3,
    "agencyId": "2"
  }
}