{
  "headsign": "33 | Saint-Jacques Gautrais",
  "stopTimes": [
    {
      "stop": {
        "id": "2_3016",
        "lat": 48.093514,
        "lon": -1.607562,
        "name": "Cucé",
        "code": 3016
      },
      "arrival": 43620,
      "departure": 43620
    },
    {
      "stop": {
        "id": "2_3023",
        "lat": 48.092596,
        "lon": -1.612945,
        "name": "IDEFS",
        "code": 3023
      },
      "arrival": 43740,
      "departure": 43740
    },
    {
      "stop": {
        "id": "2_3004",
        "lat": 48.090327,
        "lon": -1.615976,
        "name": "Hallouvry",
        "code": 3004
      },
      "arrival": 43800,
      "departure": 43800
    },
    {
      "stop": {
        "id": "2_3005",
        "lat": 48.088293,
        "lon": -1.61698,
        "name": "Chantepie Eglise",
        "code": 3005
      },
      "arrival": 43800,
      "departure": 43800
    },
    {
      "stop": {
        "id": "2_3006",
        "lat": 48.08848,
        "lon": -1.6192,
        "name": "Chantepie Mairie",
        "code": 3006
      },
      "arrival": 43860,
      "departure": 43860
    },
    {
      "stop": {
        "id": "2_3007",
        "lat": 48.090504,
        "lon": -1.623943,
        "name": "Loges",
        "code": 3007
      },
      "arrival": 43920,
      "departure": 43920
    },
    {
      "stop": {
        "id": "2_3018",
        "lat": 48.085481,
        "lon": -1.627229,
        "name": "Rocade Sud",
        "code": 3018
      },
      "arrival": 44040,
      "departure": 44040
    },
    {
      "stop": {
        "id": "2_3019",
        "lat": 48.080508,
        "lon": -1.630849,
        "name": "Val Blanc",
        "code": 3019
      },
      "arrival": 44160,
      "departure": 44160
    },
    {
      "stop": {
        "id": "2_1343",
        "lat": 48.087643,
        "lon": -1.645966,
        "name": "La Poterie",
        "code": 1343
      },
      "arrival": 44340,
      "departure": 44340
    },
    {
      "stop": {
        "id": "2_1344",
        "lat": 48.0877,
        "lon": -1.650088,
        "name": "Galicie",
        "code": 1344
      },
      "arrival": 44400,
      "departure": 44400
    },
    {
      "stop": {
        "id": "2_1440",
        "lat": 48.087647,
        "lon": -1.653923,
        "name": "Le Blosne",
        "code": 1440
      },
      "arrival": 44460,
      "departure": 44460
    },
    {
      "stop": {
        "id": "2_1346",
        "lat": 48.084724,
        "lon": -1.655211,
        "name": "Hôpital Sud",
        "code": 1346
      },
      "arrival": 44520,
      "departure": 44520
    },
    {
      "stop": {
        "id": "2_1347",
        "lat": 48.084769,
        "lon": -1.657925,
        "name": "Torigné",
        "code": 1347
      },
      "arrival": 44580,
      "departure": 44580
    },
    {
      "stop": {
        "id": "2_1441",
        "lat": 48.08608,
        "lon": -1.660855,
        "name": "Triangle",
        "code": 1441
      },
      "arrival": 44640,
      "departure": 44640
    },
    {
      "stop": {
        "id": "2_1443",
        "lat": 48.091624,
        "lon": -1.662448,
        "name": "Binquenais Collège",
        "code": 1443
      },
      "arrival": 44820,
      "departure": 44820
    },
    {
      "stop": {
        "id": "2_1442",
        "lat": 48.091639,
        "lon": -1.66733,
        "name": "Binquenais",
        "code": 1442
      },
      "arrival": 44880,
      "departure": 44880
    },
    {
      "stop": {
        "id": "2_1444",
        "lat": 48.093622,
        "lon": -1.66964,
        "name": "Combes",
        "code": 1444
      },
      "arrival": 44940,
      "departure": 44940
    },
    {
      "stop": {
        "id": "2_1445",
        "lat": 48.093147,
        "lon": -1.674668,
        "name": "Clemenceau",
        "code": 1445
      },
      "arrival": 45060,
      "departure": 45060
    },
    {
      "stop": {
        "id": "2_1446",
        "lat": 48.090338,
        "lon": -1.674969,
        "name": "Argonautes",
        "code": 1446
      },
      "arrival": 45120,
      "departure": 45120
    },
    {
      "stop": {
        "id": "2_1447",
        "lat": 48.08721,
        "lon": -1.675075,
        "name": "Henri Fréville",
        "code": 1447
      },
      "arrival": 45180,
      "departure": 45180
    },
    {
      "stop": {
        "id": "2_1622",
        "lat": 48.084157,
        "lon": -1.679166,
        "name": "Alma",
        "code": 1622
      },
      "arrival": 45360,
      "departure": 45360
    },
    {
      "stop": {
        "id": "2_1134",
        "lat": 48.085207,
        "lon": -1.682259,
        "name": "Canada",
        "code": 1134
      },
      "arrival": 45420,
      "departure": 45420
    },
    {
      "stop": {
        "id": "2_1449",
        "lat": 48.086865,
        "lon": -1.683079,
        "name": "Norvège",
        "code": 1449
      },
      "arrival": 45420,
      "departure": 45420
    },
    {
      "stop": {
        "id": "2_1450",
        "lat": 48.08669,
        "lon": -1.688453,
        "name": "Coubertin",
        "code": 1450
      },
      "arrival": 45540,
      "departure": 45540
    },
    {
      "stop": {
        "id": "2_1451",
        "lat": 48.086857,
        "lon": -1.691262,
        "name": "Lycée Bréquigny",
        "code": 1451
      },
      "arrival": 45540,
      "departure": 45540
    },
    {
      "stop": {
        "id": "2_1452",
        "lat": 48.089851,
        "lon": -1.690987,
        "name": "Bréquigny Piscine",
        "code": 1452
      },
      "arrival": 45600,
      "departure": 45600
    },
    {
      "stop": {
        "id": "2_2217",
        "lat": 48.090645,
        "lon": -1.695013,
        "name": "25 Fusillés",
        "code": 2217
      },
      "arrival": 45660,
      "departure": 45660
    },
    {
      "stop": {
        "id": "2_2229",
        "lat": 48.089432,
        "lon": -1.697947,
        "name": "Croix Verte",
        "code": 2229
      },
      "arrival": 45720,
      "departure": 45720
    },
    {
      "stop": {
        "id": "2_2226",
        "lat": 48.086645,
        "lon": -1.701446,
        "name": "Rablais Allende",
        "code": 2226
      },
      "arrival": 45840,
      "departure": 45840
    },
    {
      "stop": {
        "id": "2_2231",
        "lat": 48.086974,
        "lon": -1.706633,
        "name": "Gaité",
        "code": 2231
      },
      "arrival": 45900,
      "departure": 45900
    },
    {
      "stop": {
        "id": "2_2212",
        "lat": 48.084407,
        "lon": -1.709256,
        "name": "Blosne",
        "code": 2212
      },
      "arrival": 45960,
      "departure": 45960
    },
    {
      "stop": {
        "id": "2_2264",
        "lat": 48.082821,
        "lon": -1.713051,
        "name": "Jean Jaurès",
        "code": 2264
      },
      "arrival": 46020,
      "departure": 46020
    },
    {
      "stop": {
        "id": "2_2213",
        "lat": 48.082491,
        "lon": -1.715453,
        "name": "Jean Marin",
        "code": 2213
      },
      "arrival": 46020,
      "departure": 46020
    },
    {
      "stop": {
        "id": "2_2203",
        "lat": 48.07942,
        "lon": -1.71571,
        "name": "Médiathèque",
        "code": 2203
      },
      "arrival": 46080,
      "departure": 46080
    },
    {
      "stop": {
        "id": "2_2215",
        "lat": 48.076909,
        "lon": -1.715921,
        "name": "Collège Jean Moulin",
        "code": 2215
      },
      "arrival": 46140,
      "departure": 46140
    },
    {
      "stop": {
        "id": "2_2224",
        "lat": 48.075073,
        "lon": -1.71604,
        "name": "Morinais",
        "code": 2224
      },
      "arrival": 46140,
      "departure": 46140
    },
    {
      "stop": {
        "id": "2_2233",
        "lat": 48.067424,
        "lon": -1.717305,
        "name": "Abbé Grimault",
        "code": 2233
      },
      "arrival": 46260,
      "departure": 46260
    },
    {
      "stop": {
        "id": "2_2222",
        "lat": 48.066422,
        "lon": -1.720279,
        "name": "Pommerais",
        "code": 2222
      },
      "arrival": 46320,
      "departure": 46320
    },
    {
      "stop": {
        "id": "2_2235",
        "lat": 48.062865,
        "lon": -1.720702,
        "name": "Rossel",
        "code": 2235
      },
      "arrival": 46380,
      "departure": 46380
    },
    {
      "stop": {
        "id": "2_2265",
        "lat": 48.061616,
        "lon": -1.724012,
        "name": "Gautrais",
        "code": 2265
      },
      "arrival": 46440,
      "departure": 46440
    }
  ],
  "route": {
    "id": "2_0033",
    "textColor": "E2001A",
    "color": "FFF164",
    "description": "Inter-quartiers",
    "longName": "Saint-Jacques-de-la-Lande (Gautrais) / Bréquigny \u003c\u003e La Poterie / Chantepie (Cucé)",
    "shortName": "33",
    "type": 3,
    "agencyId": "2"
  }
}