{
  "headsign": "59 | Bruz Gare",
  "stopTimes": [
    {
      "stop": {
        "id": "2_2601",
        "lat": 48.038508,
        "lon": -1.602504,
        "name": "Croix Malinge",
        "code": 2601
      },
      "arrival": 66420,
      "departure": 66420
    },
    {
      "stop": {
        "id": "2_2602",
        "lat": 48.043401,
        "lon": -1.601647,
        "name": "Bel Air",
        "code": 2602
      },
      "arrival": 66540,
      "departure": 66540
    },
    {
      "stop": {
        "id": "2_2629",
        "lat": 48.047187,
        "lon": -1.602518,
        "name": "Vern Eglise",
        "code": 2629
      },
      "arrival": 66600,
      "departure": 66600
    },
    {
      "stop": {
        "id": "2_2604",
        "lat": 48.049558,
        "lon": -1.606153,
        "name": "Croix Rouge",
        "code": 2604
      },
      "arrival": 66720,
      "departure": 66720
    },
    {
      "stop": {
        "id": "2_2617",
        "lat": 48.049484,
        "lon": -1.611106,
        "name": "Fosse Gauchère",
        "code": 2617
      },
      "arrival": 66780,
      "departure": 66780
    },
    {
      "stop": {
        "id": "2_2606",
        "lat": 48.050629,
        "lon": -1.614982,
        "name": "Solidor",
        "code": 2606
      },
      "arrival": 66840,
      "departure": 66840
    },
    {
      "stop": {
        "id": "2_2607",
        "lat": 48.052615,
        "lon": -1.613836,
        "name": "Haute Abbaye",
        "code": 2607
      },
      "arrival": 66900,
      "departure": 66900
    },
    {
      "stop": {
        "id": "2_2608",
        "lat": 48.059275,
        "lon": -1.616638,
        "name": "Bretonnière",
        "code": 2608
      },
      "arrival": 67020,
      "departure": 67020
    },
    {
      "stop": {
        "id": "2_2609",
        "lat": 48.064138,
        "lon": -1.623074,
        "name": "Val d\u0027Orson",
        "code": 2609
      },
      "arrival": 67140,
      "departure": 67140
    },
    {
      "stop": {
        "id": "2_2610",
        "lat": 48.067768,
        "lon": -1.625701,
        "name": "Garenne",
        "code": 2610
      },
      "arrival": 67200,
      "departure": 67200
    },
    {
      "stop": {
        "id": "2_2611",
        "lat": 48.072416,
        "lon": -1.628709,
        "name": "Hallerais",
        "code": 2611
      },
      "arrival": 67260,
      "departure": 67260
    },
    {
      "stop": {
        "id": "2_3024",
        "lat": 48.07696,
        "lon": -1.631808,
        "name": "Martinière",
        "code": 3024
      },
      "arrival": 67320,
      "departure": 67320
    },
    {
      "stop": {
        "id": "2_1343",
        "lat": 48.087643,
        "lon": -1.645966,
        "name": "La Poterie",
        "code": 1343
      },
      "arrival": 67560,
      "departure": 67560
    },
    {
      "stop": {
        "id": "2_1344",
        "lat": 48.0877,
        "lon": -1.650088,
        "name": "Galicie",
        "code": 1344
      },
      "arrival": 67620,
      "departure": 67620
    },
    {
      "stop": {
        "id": "2_1345",
        "lat": 48.084879,
        "lon": -1.651171,
        "name": "Sainte-Elisabeth",
        "code": 1345
      },
      "arrival": 67680,
      "departure": 67680
    },
    {
      "stop": {
        "id": "2_1346",
        "lat": 48.084724,
        "lon": -1.655211,
        "name": "Hôpital Sud",
        "code": 1346
      },
      "arrival": 67740,
      "departure": 67740
    },
    {
      "stop": {
        "id": "2_1347",
        "lat": 48.084769,
        "lon": -1.657925,
        "name": "Torigné",
        "code": 1347
      },
      "arrival": 67800,
      "departure": 67800
    },
    {
      "stop": {
        "id": "2_1348",
        "lat": 48.083652,
        "lon": -1.663902,
        "name": "Tage",
        "code": 1348
      },
      "arrival": 67860,
      "departure": 67860
    },
    {
      "stop": {
        "id": "2_1349",
        "lat": 48.083722,
        "lon": -1.668177,
        "name": "Douro",
        "code": 1349
      },
      "arrival": 67920,
      "departure": 67920
    },
    {
      "stop": {
        "id": "2_1535",
        "lat": 48.083784,
        "lon": -1.672491,
        "name": "Portugal",
        "code": 1535
      },
      "arrival": 67980,
      "departure": 67980
    },
    {
      "stop": {
        "id": "2_1564",
        "lat": 48.088114,
        "lon": -1.674405,
        "name": "Henri Fréville",
        "code": 1564
      },
      "arrival": 68100,
      "departure": 68100
    },
    {
      "stop": {
        "id": "2_1449",
        "lat": 48.086865,
        "lon": -1.683079,
        "name": "Norvège",
        "code": 1449
      },
      "arrival": 68280,
      "departure": 68280
    },
    {
      "stop": {
        "id": "2_1450",
        "lat": 48.08669,
        "lon": -1.688453,
        "name": "Coubertin",
        "code": 1450
      },
      "arrival": 68340,
      "departure": 68340
    },
    {
      "stop": {
        "id": "2_1270",
        "lat": 48.085811,
        "lon": -1.694039,
        "name": "Félix Eboué",
        "code": 1270
      },
      "arrival": 68460,
      "departure": 68460
    },
    {
      "stop": {
        "id": "2_2262",
        "lat": 48.068729,
        "lon": -1.697896,
        "name": "Vallon",
        "code": 2262
      },
      "arrival": 68640,
      "departure": 68640
    },
    {
      "stop": {
        "id": "2_2704",
        "lat": 48.059279,
        "lon": -1.7013,
        "name": "Janais",
        "code": 2704
      },
      "arrival": 68760,
      "departure": 68760
    },
    {
      "stop": {
        "id": "2_2902",
        "lat": 48.047893,
        "lon": -1.713543,
        "name": "Croix aux Potiers",
        "code": 2902
      },
      "arrival": 68940,
      "departure": 68940
    },
    {
      "stop": {
        "id": "2_2328",
        "lat": 48.034888,
        "lon": -1.724811,
        "name": "Doublé",
        "code": 2328
      },
      "arrival": 69120,
      "departure": 69120
    },
    {
      "stop": {
        "id": "2_2338",
        "lat": 48.033269,
        "lon": -1.733105,
        "name": "Lavoisier",
        "code": 2338
      },
      "arrival": 69180,
      "departure": 69180
    },
    {
      "stop": {
        "id": "2_2339",
        "lat": 48.028337,
        "lon": -1.73564,
        "name": "Champ Niguel",
        "code": 2339
      },
      "arrival": 69240,
      "departure": 69240
    },
    {
      "stop": {
        "id": "2_2340",
        "lat": 48.025982,
        "lon": -1.734563,
        "name": "Bobinais",
        "code": 2340
      },
      "arrival": 69240,
      "departure": 69240
    },
    {
      "stop": {
        "id": "2_2341",
        "lat": 48.023636,
        "lon": -1.736267,
        "name": "Pasteur",
        "code": 2341
      },
      "arrival": 69300,
      "departure": 69300
    },
    {
      "stop": {
        "id": "2_2348",
        "lat": 48.023484,
        "lon": -1.743371,
        "name": "Bruz Centre",
        "code": 2348
      },
      "arrival": 69420,
      "departure": 69420
    },
    {
      "stop": {
        "id": "2_2343",
        "lat": 48.019598,
        "lon": -1.744633,
        "name": "Epalet",
        "code": 2343
      },
      "arrival": 69540,
      "departure": 69540
    },
    {
      "stop": {
        "id": "2_2344",
        "lat": 48.021674,
        "lon": -1.752317,
        "name": "Noë",
        "code": 2344
      },
      "arrival": 69660,
      "departure": 69660
    },
    {
      "stop": {
        "id": "2_2375",
        "lat": 48.024186,
        "lon": -1.75284,
        "name": "Châteliers",
        "code": 2375
      },
      "arrival": 69720,
      "departure": 69720
    },
    {
      "stop": {
        "id": "2_2372",
        "lat": 48.029045,
        "lon": -1.752705,
        "name": "Bruz Gare",
        "code": 2372
      },
      "arrival": 69840,
      "departure": 69840
    }
  ],
  "route": {
    "id": "2_0059",
    "textColor": "1A171B",
    "color": "F19FC1",
    "description": "Métropolitaine",
    "longName": "Vern-sur-Seiche \u003c\u003e Rennes (La Poterie) / Rennes (Henri Fréville) \u003c\u003e Bruz (Gare)",
    "shortName": "59",
    "type": 3,
    "agencyId": "2"
  }
}