{
  "headsign": "53 | Vezin Hermitage Chapelle Verger",
  "stopTimes": [
    {
      "stop": {
        "id": "2_1567",
        "lat": 48.1062288,
        "lon": -1.67750174,
        "name": "Charles de Gaulle",
        "code": 1567
      },
      "arrival": 92400,
      "departure": 92400
    },
    {
      "stop": {
        "id": "2_1540",
        "lat": 48.1099522,
        "lon": -1.68519001,
        "name": "Pont de Bretagne",
        "code": 1540
      },
      "arrival": 92640,
      "departure": 92640
    },
    {
      "stop": {
        "id": "2_1217",
        "lat": 48.10845176,
        "lon": -1.69364366,
        "name": "Chèques Postaux",
        "code": 1217
      },
      "arrival": 92760,
      "departure": 92760
    },
    {
      "stop": {
        "id": "2_1293",
        "lat": 48.10992139,
        "lon": -1.69863394,
        "name": "Guilloux",
        "code": 1293
      },
      "arrival": 92820,
      "departure": 92820
    },
    {
      "stop": {
        "id": "2_1310",
        "lat": 48.11122281,
        "lon": -1.70080917,
        "name": "Marbeuf",
        "code": 1310
      },
      "arrival": 92820,
      "departure": 92820
    },
    {
      "stop": {
        "id": "2_1502",
        "lat": 48.1132726,
        "lon": -1.7045588,
        "name": "Agrocampus",
        "code": 1502
      },
      "arrival": 92880,
      "departure": 92880
    },
    {
      "stop": {
        "id": "2_1414",
        "lat": 48.11638524,
        "lon": -1.71215936,
        "name": "Merlin",
        "code": 1414
      },
      "arrival": 93000,
      "departure": 93000
    },
    {
      "stop": {
        "id": "2_1499",
        "lat": 48.11626024,
        "lon": -1.71595794,
        "name": "Colin",
        "code": 1499
      },
      "arrival": 93000,
      "departure": 93000
    },
    {
      "stop": {
        "id": "2_1498",
        "lat": 48.11658191,
        "lon": -1.72390238,
        "name": "Petit Champeaux",
        "code": 1498
      },
      "arrival": 93060,
      "departure": 93060
    },
    {
      "stop": {
        "id": "2_3760",
        "lat": 48.11770317,
        "lon": -1.73100316,
        "name": "Champ Noël",
        "code": 3760
      },
      "arrival": 93120,
      "departure": 93120
    },
    {
      "stop": {
        "id": "2_3761",
        "lat": 48.11835117,
        "lon": -1.74111786,
        "name": "Tertre",
        "code": 3761
      },
      "arrival": 93180,
      "departure": 93180
    },
    {
      "stop": {
        "id": "2_3771",
        "lat": 48.11912564,
        "lon": -1.74955085,
        "name": "Champs Bleus",
        "code": 3771
      },
      "arrival": 93240,
      "departure": 93240
    },
    {
      "stop": {
        "id": "2_3762",
        "lat": 48.11918107,
        "lon": -1.75547076,
        "name": "Vezin Centre",
        "code": 3762
      },
      "arrival": 93300,
      "departure": 93300
    },
    {
      "stop": {
        "id": "2_3763",
        "lat": 48.11919235,
        "lon": -1.76128325,
        "name": "Lion d\u0027Or",
        "code": 3763
      },
      "arrival": 93360,
      "departure": 93360
    },
    {
      "stop": {
        "id": "2_3764",
        "lat": 48.12036615,
        "lon": -1.76557329,
        "name": "Vallée",
        "code": 3764
      },
      "arrival": 93420,
      "departure": 93420
    },
    {
      "stop": {
        "id": "2_3765",
        "lat": 48.12097559,
        "lon": -1.7716735,
        "name": "Haie de Terre",
        "code": 3765
      },
      "arrival": 93480,
      "departure": 93480
    },
    {
      "stop": {
        "id": "2_4315",
        "lat": 48.12294892,
        "lon": -1.80230832,
        "name": "Noë Biche",
        "code": 4315
      },
      "arrival": 93660,
      "departure": 93660
    },
    {
      "stop": {
        "id": "2_4307",
        "lat": 48.12346101,
        "lon": -1.80743913,
        "name": "Clairefontaine",
        "code": 4307
      },
      "arrival": 93720,
      "departure": 93720
    },
    {
      "stop": {
        "id": "2_4308",
        "lat": 48.12499565,
        "lon": -1.81290303,
        "name": "Village",
        "code": 4308
      },
      "arrival": 93780,
      "departure": 93780
    },
    {
      "stop": {
        "id": "2_4304",
        "lat": 48.12551567,
        "lon": -1.81606092,
        "name": "L\u0027Hermitage Centre",
        "code": 4304
      },
      "arrival": 93780,
      "departure": 93780
    },
    {
      "stop": {
        "id": "2_4310",
        "lat": 48.12373585,
        "lon": -1.81791833,
        "name": "L\u0027Hermitage Gare",
        "code": 4310
      },
      "arrival": 93840,
      "departure": 93840
    },
    {
      "stop": {
        "id": "2_4311",
        "lat": 48.12290006,
        "lon": -1.82093895,
        "name": "Hautière",
        "code": 4311
      },
      "arrival": 93840,
      "departure": 93840
    },
    {
      "stop": {
        "id": "2_4255",
        "lat": 48.12140881,
        "lon": -1.83774109,
        "name": "Grippière",
        "code": 4255
      },
      "arrival": 93960,
      "departure": 93960
    },
    {
      "stop": {
        "id": "2_4256",
        "lat": 48.1220314,
        "lon": -1.84628093,
        "name": "Piardière",
        "code": 4256
      },
      "arrival": 94020,
      "departure": 94020
    },
    {
      "stop": {
        "id": "2_4257",
        "lat": 48.1230881,
        "lon": -1.86080178,
        "name": "Rochers",
        "code": 4257
      },
      "arrival": 94140,
      "departure": 94140
    },
    {
      "stop": {
        "id": "2_4269",
        "lat": 48.12309875,
        "lon": -1.86605346,
        "name": "Place de la Mairie",
        "code": 4269
      },
      "arrival": 94200,
      "departure": 94200
    },
    {
      "stop": {
        "id": "2_4270",
        "lat": 48.12271,
        "lon": -1.868153,
        "name": "Ville aux Archers",
        "code": 4270
      },
      "arrival": 94200,
      "departure": 94200
    },
    {
      "stop": {
        "id": "2_4652",
        "lat": 48.10508252,
        "lon": -1.87271047,
        "name": "Chêne Vert",
        "code": 4652
      },
      "arrival": 94560,
      "departure": 94560
    },
    {
      "stop": {
        "id": "2_4653",
        "lat": 48.10342902,
        "lon": -1.86952936,
        "name": "Saint-Melaine",
        "code": 4653
      },
      "arrival": 94560,
      "departure": 94560
    },
    {
      "stop": {
        "id": "2_4403",
        "lat": 48.07002136,
        "lon": -1.93025491,
        "name": "Bouvrais",
        "code": 4403
      },
      "arrival": 95280,
      "departure": 95280
    },
    {
      "stop": {
        "id": "2_4408",
        "lat": 48.06999661,
        "lon": -1.93235118,
        "name": "Le Verger Eglise",
        "code": 4408
      },
      "arrival": 95280,
      "departure": 95280
    }
  ],
  "route": {
    "id": "2_0053",
    "textColor": "FFFFFF",
    "color": "D01733",
    "description": "Métropolitaine",
    "longName": "Rennes (République) \u003c\u003e Vezin-le-Coquet / L\u0027Hermitage / La Chapelle-Thouarault",
    "shortName": "53",
    "type": 3,
    "agencyId": "2"
  }
}