{
  "headsign": "32 | Beaulieu Atalante",
  "stopTimes": [
    {
      "stop": {
        "id": "2_1441",
        "lat": 48.08606219,
        "lon": -1.66094033,
        "name": "Triangle",
        "code": 1441
      },
      "arrival": 30300,
      "departure": 30300
    },
    {
      "stop": {
        "id": "2_1574",
        "lat": 48.0907957,
        "lon": -1.66114259,
        "name": "Binquenais Le Moine",
        "code": 1574
      },
      "arrival": 30420,
      "departure": 30420
    },
    {
      "stop": {
        "id": "2_1360",
        "lat": 48.09241999,
        "lon": -1.65836606,
        "name": "Gide",
        "code": 1360
      },
      "arrival": 30480,
      "departure": 30480
    },
    {
      "stop": {
        "id": "2_1361",
        "lat": 48.09421028,
        "lon": -1.65822788,
        "name": "Langevin",
        "code": 1361
      },
      "arrival": 30540,
      "departure": 30540
    },
    {
      "stop": {
        "id": "2_1439",
        "lat": 48.09826154,
        "lon": -1.65516705,
        "name": "Bourgeois",
        "code": 1439
      },
      "arrival": 30660,
      "departure": 30660
    },
    {
      "stop": {
        "id": "2_1469",
        "lat": 48.099269,
        "lon": -1.6525768,
        "name": "Le Dantec",
        "code": 1469
      },
      "arrival": 30720,
      "departure": 30720
    },
    {
      "stop": {
        "id": "2_1326",
        "lat": 48.10121174,
        "lon": -1.64962682,
        "name": "Villebois-Mareuil",
        "code": 1326
      },
      "arrival": 30840,
      "departure": 30840
    },
    {
      "stop": {
        "id": "2_1471",
        "lat": 48.10372382,
        "lon": -1.6494711,
        "name": "Cimetière de l\u0027Est",
        "code": 1471
      },
      "arrival": 30900,
      "departure": 30900
    },
    {
      "stop": {
        "id": "2_1472",
        "lat": 48.10714408,
        "lon": -1.65097,
        "name": "Chardonnet",
        "code": 1472
      },
      "arrival": 30960,
      "departure": 30960
    },
    {
      "stop": {
        "id": "2_1473",
        "lat": 48.11069919,
        "lon": -1.65567097,
        "name": "Pont de Strasbourg",
        "code": 1473
      },
      "arrival": 31080,
      "departure": 31080
    },
    {
      "stop": {
        "id": "2_1433",
        "lat": 48.1135831,
        "lon": -1.65659822,
        "name": "Durafour Strasbourg",
        "code": 1433
      },
      "arrival": 31140,
      "departure": 31140
    },
    {
      "stop": {
        "id": "2_1524",
        "lat": 48.11467385,
        "lon": -1.65135039,
        "name": "Hôpital Régnier",
        "code": 1524
      },
      "arrival": 31200,
      "departure": 31200
    },
    {
      "stop": {
        "id": "2_1523",
        "lat": 48.11454875,
        "lon": -1.6499529,
        "name": "Moulin de Joué",
        "code": 1523
      },
      "arrival": 31260,
      "departure": 31260
    },
    {
      "stop": {
        "id": "2_1522",
        "lat": 48.11392882,
        "lon": -1.642818,
        "name": "Piletière",
        "code": 1522
      },
      "arrival": 31320,
      "departure": 31320
    },
    {
      "stop": {
        "id": "2_1610",
        "lat": 48.11406056,
        "lon": -1.63602668,
        "name": "Tournebride",
        "code": 1610
      },
      "arrival": 31440,
      "departure": 31440
    },
    {
      "stop": {
        "id": "2_1175",
        "lat": 48.11698398,
        "lon": -1.63390592,
        "name": "Beaulieu Chimie",
        "code": 1175
      },
      "arrival": 31560,
      "departure": 31560
    },
    {
      "stop": {
        "id": "2_1204",
        "lat": 48.11947652,
        "lon": -1.63539005,
        "name": "Beaulieu INSA",
        "code": 1204
      },
      "arrival": 31620,
      "departure": 31620
    },
    {
      "stop": {
        "id": "2_1313",
        "lat": 48.12187502,
        "lon": -1.63834696,
        "name": "Beaulieu Restau. U.",
        "code": 1313
      },
      "arrival": 31680,
      "departure": 31680
    },
    {
      "stop": {
        "id": "2_1314",
        "lat": 48.1250923,
        "lon": -1.63309609,
        "name": "IUT",
        "code": 1314
      },
      "arrival": 31800,
      "departure": 31800
    },
    {
      "stop": {
        "id": "2_1290",
        "lat": 48.12688601,
        "lon": -1.62954442,
        "name": "Clos Courtel",
        "code": 1290
      },
      "arrival": 31860,
      "departure": 31860
    }
  ],
  "route": {
    "id": "2_0032",
    "textColor": "df171c",
    "color": "fef466",
    "description": "Inter-quartiers",
    "longName": "Triangle \u003c\u003e Beaulieu Atalante",
    "shortName": "32",
    "type": 3,
    "agencyId": "2"
  }
}