{
  "headsign": "212 | Noyal Saint-Erblon",
  "stopTimes": [
    {
      "stop": {
        "id": "2_1456",
        "lat": 48.08658018,
        "lon": -1.68739623,
        "name": "Coubertin",
        "code": 1456
      },
      "arrival": 63600,
      "departure": 63600
    },
    {
      "stop": {
        "id": "2_2719",
        "lat": 48.04706769,
        "lon": -1.66111999,
        "name": "Petite Saudrais",
        "code": 2719
      },
      "arrival": 64320,
      "departure": 64320
    },
    {
      "stop": {
        "id": "2_2720",
        "lat": 48.0440836,
        "lon": -1.66135439,
        "name": "Salle Polyvalente",
        "code": 2720
      },
      "arrival": 64440,
      "departure": 64440
    },
    {
      "stop": {
        "id": "2_2721",
        "lat": 48.04244672,
        "lon": -1.665579,
        "name": "Centre",
        "code": 2721
      },
      "arrival": 64500,
      "departure": 64500
    },
    {
      "stop": {
        "id": "2_2722",
        "lat": 48.04077157,
        "lon": -1.67212053,
        "name": "Potiers",
        "code": 2722
      },
      "arrival": 64620,
      "departure": 64620
    },
    {
      "stop": {
        "id": "2_2723",
        "lat": 48.03839894,
        "lon": -1.67062832,
        "name": "Molène",
        "code": 2723
      },
      "arrival": 64680,
      "departure": 64680
    },
    {
      "stop": {
        "id": "2_2733",
        "lat": 48.03487037,
        "lon": -1.66409088,
        "name": "Côteaux",
        "code": 2733
      },
      "arrival": 64800,
      "departure": 64800
    },
    {
      "stop": {
        "id": "2_4360",
        "lat": 48.02156395,
        "lon": -1.65364618,
        "name": "Leuzières",
        "code": 4360
      },
      "arrival": 64920,
      "departure": 64920
    },
    {
      "stop": {
        "id": "2_4361",
        "lat": 48.01776753,
        "lon": -1.64957701,
        "name": "Croix Faucheux",
        "code": 4361
      },
      "arrival": 65040,
      "departure": 65040
    },
    {
      "stop": {
        "id": "2_4363",
        "lat": 48.01629311,
        "lon": -1.65132633,
        "name": "Alexandre Gilois",
        "code": 4363
      },
      "arrival": 65100,
      "departure": 65100
    },
    {
      "stop": {
        "id": "2_4354",
        "lat": 48.01764653,
        "lon": -1.65445718,
        "name": "Paul Féval",
        "code": 4354
      },
      "arrival": 65160,
      "departure": 65160
    },
    {
      "stop": {
        "id": "2_4355",
        "lat": 48.01883506,
        "lon": -1.65767902,
        "name": "Champ Mulon",
        "code": 4355
      },
      "arrival": 65220,
      "departure": 65220
    }
  ],
  "route": {
    "id": "2_0212",
    "textColor": "FFFFFF",
    "color": "BA67A6",
    "description": "Complémentaire",
    "longName": "Saint-Erblon (Orgerblon) \u003c\u003e Rennes (Lycée Bréquigny)",
    "shortName": "212",
    "type": 3,
    "agencyId": "2"
  }
}