{
  "headsign": "237 | Rennes Villejean-Université",
  "stopTimes": [
    {
      "stop": {
        "id": "2_4801",
        "lat": 48.2969197,
        "lon": -1.94375077,
        "name": "Bécherel Centre",
        "code": 4801
      },
      "arrival": 24420,
      "departure": 24420
    },
    {
      "stop": {
        "id": "2_4803",
        "lat": 48.29971242,
        "lon": -1.93931644,
        "name": "Sévignière",
        "code": 4803
      },
      "arrival": 24540,
      "departure": 24540
    },
    {
      "stop": {
        "id": "2_4950",
        "lat": 48.28466552,
        "lon": -1.93073938,
        "name": "Miniac Eglise",
        "code": 4950
      },
      "arrival": 24900,
      "departure": 24900
    },
    {
      "stop": {
        "id": "2_4850",
        "lat": 48.27199077,
        "lon": -1.85689014,
        "name": "Chapelle-Chaussée",
        "code": 4850
      },
      "arrival": 25320,
      "departure": 25320
    },
    {
      "stop": {
        "id": "2_4901",
        "lat": 48.24522684,
        "lon": -1.85374809,
        "name": "Langan Bourg",
        "code": 4901
      },
      "arrival": 25620,
      "departure": 25620
    },
    {
      "stop": {
        "id": "2_1553",
        "lat": 48.1213441,
        "lon": -1.70243715,
        "name": "Villejean-Université",
        "code": 1553
      },
      "arrival": 27300,
      "departure": 27300
    }
  ],
  "route": {
    "id": "2_0237",
    "textColor": "1A171B",
    "color": "94C11F",
    "description": "Complémentaire",
    "longName": "Bécherel (Centre) \u003c\u003e Rennes (Villejean-Université)",
    "shortName": "237",
    "type": 3,
    "agencyId": "2"
  }
}