{
  "headsign": "81 | Clayes Romillé",
  "stopTimes": [
    {
      "stop": {
        "id": "2_1497",
        "lat": 48.12102411,
        "lon": -1.70300103,
        "name": "Villejean-Université",
        "code": 1497
      },
      "arrival": 72600,
      "departure": 72600
    },
    {
      "stop": {
        "id": "2_1518",
        "lat": 48.12062672,
        "lon": -1.71046453,
        "name": "Bourbonnais",
        "code": 1518
      },
      "arrival": 72720,
      "departure": 72720
    },
    {
      "stop": {
        "id": "2_1521",
        "lat": 48.11845974,
        "lon": -1.71376004,
        "name": "Berry",
        "code": 1521
      },
      "arrival": 72780,
      "departure": 72780
    },
    {
      "stop": {
        "id": "2_4457",
        "lat": 48.176174,
        "lon": -1.8525,
        "name": "Clayes Centre",
        "code": 4457
      },
      "arrival": 73560,
      "departure": 73560
    },
    {
      "stop": {
        "id": "2_4459",
        "lat": 48.178285,
        "lon": -1.85295,
        "name": "La Cour aux Pages",
        "code": 4459
      },
      "arrival": 73620,
      "departure": 73620
    },
    {
      "stop": {
        "id": "2_4458",
        "lat": 48.177136,
        "lon": -1.852934,
        "name": "Croix Simon",
        "code": 4458
      },
      "arrival": 73680,
      "departure": 73680
    },
    {
      "stop": {
        "id": "2_6005",
        "lat": 48.213221,
        "lon": -1.891408,
        "name": "Mettrie Templiers",
        "code": 6005
      },
      "arrival": 73980,
      "departure": 73980
    },
    {
      "stop": {
        "id": "2_6003",
        "lat": 48.214157,
        "lon": -1.892046,
        "name": "Romillé Mairie",
        "code": 6003
      },
      "arrival": 74040,
      "departure": 74040
    },
    {
      "stop": {
        "id": "2_6001",
        "lat": 48.215998,
        "lon": -1.891413,
        "name": "Frères Aubert",
        "code": 6001
      },
      "arrival": 74100,
      "departure": 74100
    },
    {
      "stop": {
        "id": "2_6000",
        "lat": 48.218908,
        "lon": -1.893833,
        "name": "Romillé Collège",
        "code": 6000
      },
      "arrival": 74220,
      "departure": 74220
    }
  ],
  "route": {
    "id": "2_0081",
    "textColor": "FFFFFF",
    "color": "0083CD",
    "description": "Métropolitaine",
    "longName": "Rennes (Villejean-Université) \u003c\u003e Clayes / Romillé",
    "shortName": "81",
    "type": 3,
    "agencyId": "2"
  }
}