{
  "headsign": "81 | Pacé Saint-Gilles Clayes Romillé",
  "stopTimes": [
    {
      "stop": {
        "id": "2_1567",
        "lat": 48.1062288,
        "lon": -1.67750174,
        "name": "Charles de Gaulle",
        "code": 1567
      },
      "arrival": 86700,
      "departure": 86700
    },
    {
      "stop": {
        "id": "2_1497",
        "lat": 48.12102411,
        "lon": -1.70300103,
        "name": "Villejean-Université",
        "code": 1497
      },
      "arrival": 87300,
      "departure": 87300
    },
    {
      "stop": {
        "id": "2_1518",
        "lat": 48.12062672,
        "lon": -1.71046453,
        "name": "Bourbonnais",
        "code": 1518
      },
      "arrival": 87420,
      "departure": 87420
    },
    {
      "stop": {
        "id": "2_1521",
        "lat": 48.11845974,
        "lon": -1.71376004,
        "name": "Berry",
        "code": 1521
      },
      "arrival": 87480,
      "departure": 87480
    },
    {
      "stop": {
        "id": "2_3135",
        "lat": 48.14172254,
        "lon": -1.77090905,
        "name": "Nominoë",
        "code": 3135
      },
      "arrival": 87840,
      "departure": 87840
    },
    {
      "stop": {
        "id": "2_3105",
        "lat": 48.14754061,
        "lon": -1.78105296,
        "name": "Pinault",
        "code": 3105
      },
      "arrival": 87960,
      "departure": 87960
    },
    {
      "stop": {
        "id": "2_3120",
        "lat": 48.1485353,
        "lon": -1.78475327,
        "name": "Touche Milon",
        "code": 3120
      },
      "arrival": 88020,
      "departure": 88020
    },
    {
      "stop": {
        "id": "2_3121",
        "lat": 48.1492868,
        "lon": -1.78888968,
        "name": "Docteur Léon",
        "code": 3121
      },
      "arrival": 88020,
      "departure": 88020
    },
    {
      "stop": {
        "id": "2_3122",
        "lat": 48.15128452,
        "lon": -1.79230415,
        "name": "Pie Neuve",
        "code": 3122
      },
      "arrival": 88080,
      "departure": 88080
    },
    {
      "stop": {
        "id": "2_3710",
        "lat": 48.15356445,
        "lon": -1.81046986,
        "name": "Fouaye",
        "code": 3710
      },
      "arrival": 88200,
      "departure": 88200
    },
    {
      "stop": {
        "id": "2_3711",
        "lat": 48.15413317,
        "lon": -1.81993908,
        "name": "Vigne",
        "code": 3711
      },
      "arrival": 88260,
      "departure": 88260
    },
    {
      "stop": {
        "id": "2_3712",
        "lat": 48.15067998,
        "lon": -1.82479689,
        "name": "Pont aux Moines",
        "code": 3712
      },
      "arrival": 88380,
      "departure": 88380
    },
    {
      "stop": {
        "id": "2_3714",
        "lat": 48.15249376,
        "lon": -1.82982513,
        "name": "Saint-Gilles Centre",
        "code": 3714
      },
      "arrival": 88440,
      "departure": 88440
    },
    {
      "stop": {
        "id": "2_3724",
        "lat": 48.15384342,
        "lon": -1.83404162,
        "name": "Clos des Cerisiers",
        "code": 3724
      },
      "arrival": 88440,
      "departure": 88440
    },
    {
      "stop": {
        "id": "2_3723",
        "lat": 48.15406034,
        "lon": -1.83781467,
        "name": "Maison Neuve",
        "code": 3723
      },
      "arrival": 88500,
      "departure": 88500
    },
    {
      "stop": {
        "id": "2_3732",
        "lat": 48.1493297,
        "lon": -1.83902413,
        "name": "Ile des Bois",
        "code": 3732
      },
      "arrival": 88560,
      "departure": 88560
    },
    {
      "stop": {
        "id": "2_4457",
        "lat": 48.176174,
        "lon": -1.8525,
        "name": "Clayes Centre",
        "code": 4457
      },
      "arrival": 88920,
      "departure": 88920
    },
    {
      "stop": {
        "id": "2_4459",
        "lat": 48.178285,
        "lon": -1.85295,
        "name": "La Cour aux Pages",
        "code": 4459
      },
      "arrival": 88980,
      "departure": 88980
    },
    {
      "stop": {
        "id": "2_4458",
        "lat": 48.177136,
        "lon": -1.852934,
        "name": "Croix Simon",
        "code": 4458
      },
      "arrival": 89040,
      "departure": 89040
    },
    {
      "stop": {
        "id": "2_6005",
        "lat": 48.213221,
        "lon": -1.891408,
        "name": "Mettrie Templiers",
        "code": 6005
      },
      "arrival": 89340,
      "departure": 89340
    },
    {
      "stop": {
        "id": "2_6003",
        "lat": 48.214157,
        "lon": -1.892046,
        "name": "Romillé Mairie",
        "code": 6003
      },
      "arrival": 89400,
      "departure": 89400
    },
    {
      "stop": {
        "id": "2_6001",
        "lat": 48.215998,
        "lon": -1.891413,
        "name": "Frères Aubert",
        "code": 6001
      },
      "arrival": 89460,
      "departure": 89460
    },
    {
      "stop": {
        "id": "2_6000",
        "lat": 48.218908,
        "lon": -1.893833,
        "name": "Romillé Collège",
        "code": 6000
      },
      "arrival": 89580,
      "departure": 89580
    }
  ],
  "route": {
    "id": "2_0081",
    "textColor": "FFFFFF",
    "color": "0083CD",
    "description": "Métropolitaine",
    "longName": "Rennes (Villejean-Université) \u003c\u003e Clayes / Romillé",
    "shortName": "81",
    "type": 3,
    "agencyId": "2"
  }
}