{
  "headsign": "53 | Vezin Hermitage Chapelle-Th.",
  "stopTimes": [
    {
      "stop": {
        "id": "2_1167",
        "lat": 48.10936738,
        "lon": -1.678658,
        "name": "République Pré Botté",
        "code": 1167
      },
      "arrival": 48300,
      "departure": 48300
    },
    {
      "stop": {
        "id": "2_1540",
        "lat": 48.1099522,
        "lon": -1.68519001,
        "name": "Pont de Bretagne",
        "code": 1540
      },
      "arrival": 48420,
      "departure": 48420
    },
    {
      "stop": {
        "id": "2_1217",
        "lat": 48.10845176,
        "lon": -1.69364366,
        "name": "Chèques Postaux",
        "code": 1217
      },
      "arrival": 48540,
      "departure": 48540
    },
    {
      "stop": {
        "id": "2_1293",
        "lat": 48.10992139,
        "lon": -1.69863394,
        "name": "Guilloux",
        "code": 1293
      },
      "arrival": 48660,
      "departure": 48660
    },
    {
      "stop": {
        "id": "2_1310",
        "lat": 48.11122281,
        "lon": -1.70080917,
        "name": "Marbeuf",
        "code": 1310
      },
      "arrival": 48720,
      "departure": 48720
    },
    {
      "stop": {
        "id": "2_1502",
        "lat": 48.1132726,
        "lon": -1.7045588,
        "name": "Agrocampus",
        "code": 1502
      },
      "arrival": 48780,
      "departure": 48780
    },
    {
      "stop": {
        "id": "2_1414",
        "lat": 48.11638524,
        "lon": -1.71215936,
        "name": "Merlin",
        "code": 1414
      },
      "arrival": 48840,
      "departure": 48840
    },
    {
      "stop": {
        "id": "2_1499",
        "lat": 48.11626024,
        "lon": -1.71595794,
        "name": "Colin",
        "code": 1499
      },
      "arrival": 48840,
      "departure": 48840
    },
    {
      "stop": {
        "id": "2_1498",
        "lat": 48.11658191,
        "lon": -1.72390238,
        "name": "Petit Champeaux",
        "code": 1498
      },
      "arrival": 48900,
      "departure": 48900
    },
    {
      "stop": {
        "id": "2_3760",
        "lat": 48.11770317,
        "lon": -1.73100316,
        "name": "Champ Noël",
        "code": 3760
      },
      "arrival": 48960,
      "departure": 48960
    },
    {
      "stop": {
        "id": "2_3761",
        "lat": 48.11835117,
        "lon": -1.74111786,
        "name": "Tertre",
        "code": 3761
      },
      "arrival": 49020,
      "departure": 49020
    },
    {
      "stop": {
        "id": "2_3771",
        "lat": 48.11912564,
        "lon": -1.74955085,
        "name": "Champs Bleus",
        "code": 3771
      },
      "arrival": 49080,
      "departure": 49080
    },
    {
      "stop": {
        "id": "2_3762",
        "lat": 48.11918107,
        "lon": -1.75547076,
        "name": "Vezin Centre",
        "code": 3762
      },
      "arrival": 49140,
      "departure": 49140
    },
    {
      "stop": {
        "id": "2_3763",
        "lat": 48.11919235,
        "lon": -1.76128325,
        "name": "Lion d\u0027Or",
        "code": 3763
      },
      "arrival": 49200,
      "departure": 49200
    },
    {
      "stop": {
        "id": "2_3764",
        "lat": 48.12036615,
        "lon": -1.76557329,
        "name": "Vallée",
        "code": 3764
      },
      "arrival": 49260,
      "departure": 49260
    },
    {
      "stop": {
        "id": "2_3765",
        "lat": 48.12097559,
        "lon": -1.7716735,
        "name": "Haie de Terre",
        "code": 3765
      },
      "arrival": 49320,
      "departure": 49320
    },
    {
      "stop": {
        "id": "2_4315",
        "lat": 48.12294892,
        "lon": -1.80230832,
        "name": "Noë Biche",
        "code": 4315
      },
      "arrival": 49500,
      "departure": 49500
    },
    {
      "stop": {
        "id": "2_4307",
        "lat": 48.12346101,
        "lon": -1.80743913,
        "name": "Clairefontaine",
        "code": 4307
      },
      "arrival": 49560,
      "departure": 49560
    },
    {
      "stop": {
        "id": "2_4308",
        "lat": 48.12499565,
        "lon": -1.81290303,
        "name": "Village",
        "code": 4308
      },
      "arrival": 49620,
      "departure": 49620
    },
    {
      "stop": {
        "id": "2_4304",
        "lat": 48.12551567,
        "lon": -1.81606092,
        "name": "L\u0027Hermitage Centre",
        "code": 4304
      },
      "arrival": 49620,
      "departure": 49620
    },
    {
      "stop": {
        "id": "2_4310",
        "lat": 48.12373585,
        "lon": -1.81791833,
        "name": "L\u0027Hermitage Gare",
        "code": 4310
      },
      "arrival": 49620,
      "departure": 49620
    },
    {
      "stop": {
        "id": "2_4311",
        "lat": 48.12290006,
        "lon": -1.82093895,
        "name": "Hautière",
        "code": 4311
      },
      "arrival": 49680,
      "departure": 49680
    },
    {
      "stop": {
        "id": "2_4255",
        "lat": 48.12140881,
        "lon": -1.83774109,
        "name": "Grippière",
        "code": 4255
      },
      "arrival": 49800,
      "departure": 49800
    },
    {
      "stop": {
        "id": "2_4256",
        "lat": 48.1220314,
        "lon": -1.84628093,
        "name": "Piardière",
        "code": 4256
      },
      "arrival": 49860,
      "departure": 49860
    },
    {
      "stop": {
        "id": "2_4257",
        "lat": 48.1230881,
        "lon": -1.86080178,
        "name": "Rochers",
        "code": 4257
      },
      "arrival": 49920,
      "departure": 49920
    },
    {
      "stop": {
        "id": "2_4269",
        "lat": 48.12309875,
        "lon": -1.86605346,
        "name": "Place de la Mairie",
        "code": 4269
      },
      "arrival": 49980,
      "departure": 49980
    },
    {
      "stop": {
        "id": "2_4267",
        "lat": 48.12259474,
        "lon": -1.86836565,
        "name": "Ville aux Archers",
        "code": 4267
      },
      "arrival": 50040,
      "departure": 50040
    }
  ],
  "route": {
    "id": "2_0053",
    "textColor": "FFFFFF",
    "color": "D01733",
    "description": "Métropolitaine",
    "longName": "Rennes (République) \u003c\u003e Vezin-le-Coquet / L\u0027Hermitage / La Chapelle-Thouarault",
    "shortName": "53",
    "type": 3,
    "agencyId": "2"
  }
}