{
  "headsign": "50 | Thorigné via Placis Vert",
  "stopTimes": [
    {
      "stop": {
        "id": "2_1563",
        "lat": 48.10969683,
        "lon": -1.67818363,
        "name": "République",
        "code": 1563
      },
      "arrival": 27000,
      "departure": 27000
    },
    {
      "stop": {
        "id": "2_1169",
        "lat": 48.10985334,
        "lon": -1.67452094,
        "name": "Musée Beaux Arts",
        "code": 1169
      },
      "arrival": 27060,
      "departure": 27060
    },
    {
      "stop": {
        "id": "2_1172",
        "lat": 48.11007924,
        "lon": -1.65919453,
        "name": "Robidou",
        "code": 1172
      },
      "arrival": 27240,
      "departure": 27240
    },
    {
      "stop": {
        "id": "2_1515",
        "lat": 48.11350079,
        "lon": -1.64755396,
        "name": "Moulin de Joué",
        "code": 1515
      },
      "arrival": 27420,
      "departure": 27420
    },
    {
      "stop": {
        "id": "2_1516",
        "lat": 48.11595285,
        "lon": -1.64840733,
        "name": "Bois Perrin",
        "code": 1516
      },
      "arrival": 27480,
      "departure": 27480
    },
    {
      "stop": {
        "id": "2_1152",
        "lat": 48.12043354,
        "lon": -1.65067299,
        "name": "Docteur Quentin",
        "code": 1152
      },
      "arrival": 27540,
      "departure": 27540
    },
    {
      "stop": {
        "id": "2_1034",
        "lat": 48.12221902,
        "lon": -1.65061867,
        "name": "Turmel",
        "code": 1034
      },
      "arrival": 27600,
      "departure": 27600
    },
    {
      "stop": {
        "id": "2_1035",
        "lat": 48.12370157,
        "lon": -1.64529281,
        "name": "Mirabeau",
        "code": 1035
      },
      "arrival": 27660,
      "departure": 27660
    },
    {
      "stop": {
        "id": "2_1036",
        "lat": 48.12553894,
        "lon": -1.64212893,
        "name": "Donzelot",
        "code": 1036
      },
      "arrival": 27720,
      "departure": 27720
    },
    {
      "stop": {
        "id": "2_1481",
        "lat": 48.12981846,
        "lon": -1.64241093,
        "name": "Zac Saint-Sulpice",
        "code": 1481
      },
      "arrival": 27780,
      "departure": 27780
    },
    {
      "stop": {
        "id": "2_1480",
        "lat": 48.13202871,
        "lon": -1.63503782,
        "name": "Gaudinais",
        "code": 1480
      },
      "arrival": 27900,
      "departure": 27900
    },
    {
      "stop": {
        "id": "2_2077",
        "lat": 48.13420321,
        "lon": -1.62879212,
        "name": "Lande Bouhard",
        "code": 2077
      },
      "arrival": 27960,
      "departure": 27960
    },
    {
      "stop": {
        "id": "2_2115",
        "lat": 48.13735095,
        "lon": -1.62275039,
        "name": "Château de Vaux",
        "code": 2115
      },
      "arrival": 28080,
      "departure": 28080
    },
    {
      "stop": {
        "id": "2_2072",
        "lat": 48.14059929,
        "lon": -1.61647827,
        "name": "Calendrou",
        "code": 2072
      },
      "arrival": 28140,
      "departure": 28140
    },
    {
      "stop": {
        "id": "2_2073",
        "lat": 48.14510205,
        "lon": -1.60852174,
        "name": "Victoire",
        "code": 2073
      },
      "arrival": 28200,
      "departure": 28200
    },
    {
      "stop": {
        "id": "2_3310",
        "lat": 48.15630543,
        "lon": -1.59213593,
        "name": "Portail",
        "code": 3310
      },
      "arrival": 28380,
      "departure": 28380
    },
    {
      "stop": {
        "id": "2_3321",
        "lat": 48.16041469,
        "lon": -1.58706433,
        "name": "Fouillard",
        "code": 3321
      },
      "arrival": 28500,
      "departure": 28500
    },
    {
      "stop": {
        "id": "2_3308",
        "lat": 48.17437994,
        "lon": -1.60223928,
        "name": "Placis Vert",
        "code": 3308
      },
      "arrival": 28680,
      "departure": 28680
    },
    {
      "stop": {
        "id": "2_3311",
        "lat": 48.16050547,
        "lon": -1.58565766,
        "name": "Fouillard",
        "code": 3311
      },
      "arrival": 28860,
      "departure": 28860
    },
    {
      "stop": {
        "id": "2_3312",
        "lat": 48.16302115,
        "lon": -1.57914001,
        "name": "Juteauderies",
        "code": 3312
      },
      "arrival": 28980,
      "departure": 28980
    },
    {
      "stop": {
        "id": "2_3313",
        "lat": 48.15918482,
        "lon": -1.57975012,
        "name": "Bocage",
        "code": 3313
      },
      "arrival": 29040,
      "departure": 29040
    },
    {
      "stop": {
        "id": "2_3304",
        "lat": 48.15563877,
        "lon": -1.580776,
        "name": "Anne de Bretagne",
        "code": 3304
      },
      "arrival": 29100,
      "departure": 29100
    },
    {
      "stop": {
        "id": "2_3302",
        "lat": 48.1530775,
        "lon": -1.57942222,
        "name": "Thorigné Mairie",
        "code": 3302
      },
      "arrival": 29160,
      "departure": 29160
    },
    {
      "stop": {
        "id": "2_3323",
        "lat": 48.14928986,
        "lon": -1.57715406,
        "name": "Curien",
        "code": 3323
      },
      "arrival": 29280,
      "departure": 29280
    },
    {
      "stop": {
        "id": "2_3301",
        "lat": 48.15515021,
        "lon": -1.57316318,
        "name": "Landelles",
        "code": 3301
      },
      "arrival": 29400,
      "departure": 29400
    }
  ],
  "route": {
    "id": "2_0050",
    "textColor": "ffffff",
    "color": "8ea1cf",
    "description": "Métropolitaine",
    "longName": "Rennes (République) \u003c\u003e Thorigné-Fouillard",
    "shortName": "50",
    "type": 3,
    "agencyId": "2"
  }
}