{
  "headsign": "213 | Orgères Bourgbarré",
  "stopTimes": [
    {
      "stop": {
        "id": "2_1456",
        "lat": 48.08658018,
        "lon": -1.68739623,
        "name": "Coubertin",
        "code": 1456
      },
      "arrival": 44700,
      "departure": 44700
    },
    {
      "stop": {
        "id": "2_4357",
        "lat": 48.01706446,
        "lon": -1.66466568,
        "name": "Croix du Pigeonnet",
        "code": 4357
      },
      "arrival": 45480,
      "departure": 45480
    },
    {
      "stop": {
        "id": "2_3249",
        "lat": 48.01492989,
        "lon": -1.66394359,
        "name": "Orgerblon",
        "code": 3249
      },
      "arrival": 45540,
      "departure": 45540
    },
    {
      "stop": {
        "id": "2_3216",
        "lat": 48.00912373,
        "lon": -1.66637371,
        "name": "Plardière",
        "code": 3216
      },
      "arrival": 45600,
      "departure": 45600
    },
    {
      "stop": {
        "id": "2_3217",
        "lat": 48.00045137,
        "lon": -1.66706223,
        "name": "Levant",
        "code": 3217
      },
      "arrival": 45720,
      "departure": 45720
    },
    {
      "stop": {
        "id": "2_3218",
        "lat": 47.99689445,
        "lon": -1.66900508,
        "name": "Groupe Scolaire",
        "code": 3218
      },
      "arrival": 45780,
      "departure": 45780
    },
    {
      "stop": {
        "id": "2_3219",
        "lat": 47.99494129,
        "lon": -1.67090261,
        "name": "Coteau",
        "code": 3219
      },
      "arrival": 45840,
      "departure": 45840
    },
    {
      "stop": {
        "id": "2_3220",
        "lat": 47.99225073,
        "lon": -1.66789719,
        "name": "Surcouf",
        "code": 3220
      },
      "arrival": 45900,
      "departure": 45900
    },
    {
      "stop": {
        "id": "2_3221",
        "lat": 47.99372624,
        "lon": -1.6652472,
        "name": "Chateaubriand",
        "code": 3221
      },
      "arrival": 46020,
      "departure": 46020
    },
    {
      "stop": {
        "id": "2_3806",
        "lat": 47.99442685,
        "lon": -1.63135702,
        "name": "Perelle",
        "code": 3806
      },
      "arrival": 46320,
      "departure": 46320
    },
    {
      "stop": {
        "id": "2_3807",
        "lat": 47.99512363,
        "lon": -1.62373584,
        "name": "La Basse Erable",
        "code": 3807
      },
      "arrival": 46380,
      "departure": 46380
    },
    {
      "stop": {
        "id": "2_3808",
        "lat": 47.99590317,
        "lon": -1.61766621,
        "name": "La Motte",
        "code": 3808
      },
      "arrival": 46440,
      "departure": 46440
    },
    {
      "stop": {
        "id": "2_3809",
        "lat": 47.99476166,
        "lon": -1.61410331,
        "name": "Bourgbarré Mairie",
        "code": 3809
      },
      "arrival": 46500,
      "departure": 46500
    },
    {
      "stop": {
        "id": "2_3801",
        "lat": 47.99009528,
        "lon": -1.6138293,
        "name": "Centre de Loisirs",
        "code": 3801
      },
      "arrival": 46680,
      "departure": 46680
    },
    {
      "stop": {
        "id": "2_3810",
        "lat": 47.95999343,
        "lon": -1.63242683,
        "name": "Moc Souris",
        "code": 3810
      },
      "arrival": 46980,
      "departure": 46980
    },
    {
      "stop": {
        "id": "2_3812",
        "lat": 47.95956133,
        "lon": -1.63697915,
        "name": "Sept Fours",
        "code": 3812
      },
      "arrival": 47040,
      "departure": 47040
    },
    {
      "stop": {
        "id": "2_3201",
        "lat": 47.96978577,
        "lon": -1.64606293,
        "name": "Fort Joual",
        "code": 3201
      },
      "arrival": 47280,
      "departure": 47280
    },
    {
      "stop": {
        "id": "2_3202",
        "lat": 47.97535633,
        "lon": -1.65131769,
        "name": "Frogerais",
        "code": 3202
      },
      "arrival": 47340,
      "departure": 47340
    },
    {
      "stop": {
        "id": "2_3203",
        "lat": 47.97625763,
        "lon": -1.65746531,
        "name": "Petite Rochelle",
        "code": 3203
      },
      "arrival": 47400,
      "departure": 47400
    },
    {
      "stop": {
        "id": "2_3204",
        "lat": 47.98326978,
        "lon": -1.66000223,
        "name": "Télégraphe",
        "code": 3204
      },
      "arrival": 47460,
      "departure": 47460
    }
  ],
  "route": {
    "id": "2_0213",
    "textColor": "FFFFFF",
    "color": "94C11F",
    "description": "Complémentaire",
    "longName": "Bourgbarré (Moc Souris) \u003c\u003e Rennes (Lycée Bréquigny)",
    "shortName": "213",
    "type": 3,
    "agencyId": "2"
  }
}