{
  "headsign": "91 | Bruz Pont-Réan",
  "stopTimes": [
    {
      "stop": {
        "id": "2_2719",
        "lat": 48.047008,
        "lon": -1.661005,
        "name": "Petite Saudrais",
        "code": 2719
      },
      "arrival": 64440,
      "departure": 64440
    },
    {
      "stop": {
        "id": "2_2720",
        "lat": 48.044129,
        "lon": -1.661407,
        "name": "Salle Polyvalente",
        "code": 2720
      },
      "arrival": 64500,
      "departure": 64500
    },
    {
      "stop": {
        "id": "2_2721",
        "lat": 48.042439,
        "lon": -1.66572,
        "name": "Centre",
        "code": 2721
      },
      "arrival": 64560,
      "departure": 64560
    },
    {
      "stop": {
        "id": "2_2722",
        "lat": 48.040814,
        "lon": -1.672158,
        "name": "Potiers",
        "code": 2722
      },
      "arrival": 64680,
      "departure": 64680
    },
    {
      "stop": {
        "id": "2_2726",
        "lat": 48.039685,
        "lon": -1.676723,
        "name": "Guyomerais",
        "code": 2726
      },
      "arrival": 64740,
      "departure": 64740
    },
    {
      "stop": {
        "id": "2_2750",
        "lat": 48.039282,
        "lon": -1.680467,
        "name": "Monts Gaultier",
        "code": 2750
      },
      "arrival": 64800,
      "departure": 64800
    },
    {
      "stop": {
        "id": "2_2915",
        "lat": 48.041376,
        "lon": -1.698416,
        "name": "Collège Pôle Sud",
        "code": 2915
      },
      "arrival": 65040,
      "departure": 65040
    },
    {
      "stop": {
        "id": "2_2916",
        "lat": 48.04169,
        "lon": -1.702632,
        "name": "Auditoire",
        "code": 2916
      },
      "arrival": 65100,
      "departure": 65100
    },
    {
      "stop": {
        "id": "2_2917",
        "lat": 48.042349,
        "lon": -1.706501,
        "name": "Chartres Centre",
        "code": 2917
      },
      "arrival": 65160,
      "departure": 65160
    },
    {
      "stop": {
        "id": "2_2908",
        "lat": 48.041413,
        "lon": -1.712515,
        "name": "Callouët",
        "code": 2908
      },
      "arrival": 65220,
      "departure": 65220
    },
    {
      "stop": {
        "id": "2_2909",
        "lat": 48.036817,
        "lon": -1.712545,
        "name": "Taillebois",
        "code": 2909
      },
      "arrival": 65280,
      "departure": 65280
    },
    {
      "stop": {
        "id": "2_2925",
        "lat": 48.033066,
        "lon": -1.711703,
        "name": "Chaussairie",
        "code": 2925
      },
      "arrival": 65340,
      "departure": 65340
    },
    {
      "stop": {
        "id": "2_2351",
        "lat": 48.029242,
        "lon": -1.719642,
        "name": "Mare de la Salle",
        "code": 2351
      },
      "arrival": 65460,
      "departure": 65460
    },
    {
      "stop": {
        "id": "2_2328",
        "lat": 48.034888,
        "lon": -1.724811,
        "name": "Doublé",
        "code": 2328
      },
      "arrival": 65580,
      "departure": 65580
    },
    {
      "stop": {
        "id": "2_2338",
        "lat": 48.033269,
        "lon": -1.733105,
        "name": "Lavoisier",
        "code": 2338
      },
      "arrival": 65700,
      "departure": 65700
    },
    {
      "stop": {
        "id": "2_2339",
        "lat": 48.028337,
        "lon": -1.73564,
        "name": "Champ Niguel",
        "code": 2339
      },
      "arrival": 65820,
      "departure": 65820
    },
    {
      "stop": {
        "id": "2_2340",
        "lat": 48.025982,
        "lon": -1.734563,
        "name": "Bobinais",
        "code": 2340
      },
      "arrival": 65820,
      "departure": 65820
    },
    {
      "stop": {
        "id": "2_2341",
        "lat": 48.023636,
        "lon": -1.736267,
        "name": "Pasteur",
        "code": 2341
      },
      "arrival": 65880,
      "departure": 65880
    },
    {
      "stop": {
        "id": "2_2348",
        "lat": 48.023484,
        "lon": -1.743371,
        "name": "Bruz Centre",
        "code": 2348
      },
      "arrival": 66000,
      "departure": 66000
    },
    {
      "stop": {
        "id": "2_2375",
        "lat": 48.024186,
        "lon": -1.75284,
        "name": "Châteliers",
        "code": 2375
      },
      "arrival": 66180,
      "departure": 66180
    },
    {
      "stop": {
        "id": "2_2303",
        "lat": 48.02471,
        "lon": -1.757238,
        "name": "Haut Launay",
        "code": 2303
      },
      "arrival": 66240,
      "departure": 66240
    },
    {
      "stop": {
        "id": "2_2345",
        "lat": 48.023807,
        "lon": -1.761964,
        "name": "Rabine",
        "code": 2345
      },
      "arrival": 66300,
      "departure": 66300
    },
    {
      "stop": {
        "id": "2_2329",
        "lat": 48.009141,
        "lon": -1.773283,
        "name": "Croix Vaisserelle",
        "code": 2329
      },
      "arrival": 66540,
      "departure": 66540
    },
    {
      "stop": {
        "id": "2_2347",
        "lat": 48.004724,
        "lon": -1.775265,
        "name": "Pont-Réan",
        "code": 2347
      },
      "arrival": 66600,
      "departure": 66600
    }
  ],
  "route": {
    "id": "2_0091",
    "textColor": "1A171B",
    "color": "AECC52",
    "description": "Intercommunale",
    "longName": "Bruz / Chartres \u003c\u003e Noyal-Châtillon-sur-Seiche",
    "shortName": "91",
    "type": 3,
    "agencyId": "2"
  }
}