{
  "headsign": "220 | Cesson-Sévigné Lycée Sévigné",
  "stopTimes": [
    {
      "stop": {
        "id": "2_4002",
        "lat": 48.13696093,
        "lon": -1.53304901,
        "name": "Verdaudais",
        "code": 4002
      },
      "arrival": 28800,
      "departure": 28800
    },
    {
      "stop": {
        "id": "2_4003",
        "lat": 48.13419518,
        "lon": -1.53491257,
        "name": "Acigné Mairie",
        "code": 4003
      },
      "arrival": 28860,
      "departure": 28860
    },
    {
      "stop": {
        "id": "2_4004",
        "lat": 48.13391306,
        "lon": -1.53776926,
        "name": "Foyer",
        "code": 4004
      },
      "arrival": 28920,
      "departure": 28920
    },
    {
      "stop": {
        "id": "2_4018",
        "lat": 48.1339629,
        "lon": -1.540453,
        "name": "Lande",
        "code": 4018
      },
      "arrival": 28980,
      "departure": 28980
    },
    {
      "stop": {
        "id": "2_4006",
        "lat": 48.13719872,
        "lon": -1.54956474,
        "name": "Pont d\u0027Ohin",
        "code": 4006
      },
      "arrival": 29040,
      "departure": 29040
    },
    {
      "stop": {
        "id": "2_2051",
        "lat": 48.11583582,
        "lon": -1.60065105,
        "name": "Chalotais",
        "code": 2051
      },
      "arrival": 30000,
      "departure": 30000
    }
  ],
  "route": {
    "id": "2_0220",
    "textColor": "FFFFFF",
    "color": "009FE3",
    "description": "Complémentaire",
    "longName": "Acigné (Timonière) \u003c\u003e Cesson-Sévigné (Lycée Sévigné)",
    "shortName": "220",
    "type": 3,
    "agencyId": "2"
  }
}