{
  "headsign": "C4 | ZA Saint-Sulpice",
  "stopTimes": [
    {
      "stop": {
        "id": "2_1168",
        "lat": 48.10980866,
        "lon": -1.67882417,
        "name": "République",
        "code": 1168
      },
      "arrival": 89700,
      "departure": 89700
    },
    {
      "stop": {
        "id": "2_1169",
        "lat": 48.10985335,
        "lon": -1.67452094,
        "name": "Musée Beaux Arts",
        "code": 1169
      },
      "arrival": 89760,
      "departure": 89760
    },
    {
      "stop": {
        "id": "2_1170",
        "lat": 48.11003344,
        "lon": -1.66907214,
        "name": "Paul Bert",
        "code": 1170
      },
      "arrival": 89880,
      "departure": 89880
    },
    {
      "stop": {
        "id": "2_1171",
        "lat": 48.11006771,
        "lon": -1.66358483,
        "name": "Pont de Châteaudun",
        "code": 1171
      },
      "arrival": 89940,
      "departure": 89940
    },
    {
      "stop": {
        "id": "2_1172",
        "lat": 48.11007924,
        "lon": -1.65919453,
        "name": "Robidou",
        "code": 1172
      },
      "arrival": 90000,
      "departure": 90000
    },
    {
      "stop": {
        "id": "2_1173",
        "lat": 48.11008942,
        "lon": -1.65614253,
        "name": "Pont de Strasbourg",
        "code": 1173
      },
      "arrival": 90000,
      "departure": 90000
    },
    {
      "stop": {
        "id": "2_1174",
        "lat": 48.11246664,
        "lon": -1.64290057,
        "name": "Plaine de Baud",
        "code": 1174
      },
      "arrival": 90120,
      "departure": 90120
    },
    {
      "stop": {
        "id": "2_1604",
        "lat": 48.11354849,
        "lon": -1.64100035,
        "name": "Les Préales",
        "code": 1604
      },
      "arrival": 90180,
      "departure": 90180
    },
    {
      "stop": {
        "id": "2_1610",
        "lat": 48.11406057,
        "lon": -1.63602668,
        "name": "Tournebride",
        "code": 1610
      },
      "arrival": 90240,
      "departure": 90240
    },
    {
      "stop": {
        "id": "2_1175",
        "lat": 48.11698398,
        "lon": -1.63390592,
        "name": "Beaulieu Chimie",
        "code": 1175
      },
      "arrival": 90300,
      "departure": 90300
    },
    {
      "stop": {
        "id": "2_1204",
        "lat": 48.11947653,
        "lon": -1.63539005,
        "name": "Beaulieu INSA",
        "code": 1204
      },
      "arrival": 90360,
      "departure": 90360
    },
    {
      "stop": {
        "id": "2_1313",
        "lat": 48.12187502,
        "lon": -1.63834696,
        "name": "Beaulieu Restau U",
        "code": 1313
      },
      "arrival": 90420,
      "departure": 90420
    },
    {
      "stop": {
        "id": "2_1314",
        "lat": 48.1250923,
        "lon": -1.63309609,
        "name": "IUT",
        "code": 1314
      },
      "arrival": 90480,
      "departure": 90480
    },
    {
      "stop": {
        "id": "2_1475",
        "lat": 48.12695887,
        "lon": -1.62918033,
        "name": "Clos Courtel",
        "code": 1475
      },
      "arrival": 90540,
      "departure": 90540
    },
    {
      "stop": {
        "id": "2_2121",
        "lat": 48.13034917,
        "lon": -1.63135124,
        "name": "Longs Champs Est",
        "code": 2121
      },
      "arrival": 90600,
      "departure": 90600
    },
    {
      "stop": {
        "id": "2_1630",
        "lat": 48.13266219,
        "lon": -1.63618724,
        "name": "ZA Saint-Sulpice",
        "code": 1630
      },
      "arrival": 90720,
      "departure": 90720
    }
  ],
  "route": {
    "id": "2_0004",
    "textColor": "FFFFFF",
    "color": "6D1F80",
    "description": "Chronostar",
    "longName": "Beauregard \u003c\u003e ZA Saint-Sulpice",
    "shortName": "C4",
    "type": 3,
    "agencyId": "2"
  }
}