{
  "headsign": "91 | Noyal-Châtillon-sur-Seiche",
  "stopTimes": [
    {
      "stop": {
        "id": "2_2306",
        "lat": 48.033686,
        "lon": -1.765896,
        "name": "Cicé Blossac",
        "code": 2306
      },
      "arrival": 53100,
      "departure": 53100
    },
    {
      "stop": {
        "id": "2_2305",
        "lat": 48.029342,
        "lon": -1.758019,
        "name": "Vert Buisson",
        "code": 2305
      },
      "arrival": 53280,
      "departure": 53280
    },
    {
      "stop": {
        "id": "2_2323",
        "lat": 48.025619,
        "lon": -1.760676,
        "name": "Rabine",
        "code": 2323
      },
      "arrival": 53460,
      "departure": 53460
    },
    {
      "stop": {
        "id": "2_2324",
        "lat": 48.024584,
        "lon": -1.757229,
        "name": "Haut Launay",
        "code": 2324
      },
      "arrival": 53580,
      "departure": 53580
    },
    {
      "stop": {
        "id": "2_2374",
        "lat": 48.024146,
        "lon": -1.752978,
        "name": "Châteliers",
        "code": 2374
      },
      "arrival": 53640,
      "departure": 53640
    },
    {
      "stop": {
        "id": "2_2353",
        "lat": 48.023379,
        "lon": -1.742999,
        "name": "Bruz Centre",
        "code": 2353
      },
      "arrival": 53880,
      "departure": 53880
    },
    {
      "stop": {
        "id": "2_2334",
        "lat": 48.023814,
        "lon": -1.736056,
        "name": "Pasteur",
        "code": 2334
      },
      "arrival": 53940,
      "departure": 53940
    },
    {
      "stop": {
        "id": "2_2335",
        "lat": 48.02629,
        "lon": -1.734494,
        "name": "Bobinais",
        "code": 2335
      },
      "arrival": 54000,
      "departure": 54000
    },
    {
      "stop": {
        "id": "2_2336",
        "lat": 48.030226,
        "lon": -1.734384,
        "name": "Champ Niguel",
        "code": 2336
      },
      "arrival": 54060,
      "departure": 54060
    },
    {
      "stop": {
        "id": "2_2337",
        "lat": 48.032956,
        "lon": -1.733031,
        "name": "Lavoisier",
        "code": 2337
      },
      "arrival": 54120,
      "departure": 54120
    },
    {
      "stop": {
        "id": "2_2326",
        "lat": 48.034154,
        "lon": -1.723867,
        "name": "Doublé",
        "code": 2326
      },
      "arrival": 54240,
      "departure": 54240
    },
    {
      "stop": {
        "id": "2_2350",
        "lat": 48.029373,
        "lon": -1.719131,
        "name": "Mare de la Salle",
        "code": 2350
      },
      "arrival": 54420,
      "departure": 54420
    },
    {
      "stop": {
        "id": "2_2903",
        "lat": 48.033355,
        "lon": -1.71163,
        "name": "Chaussairie",
        "code": 2903
      },
      "arrival": 54540,
      "departure": 54540
    },
    {
      "stop": {
        "id": "2_2904",
        "lat": 48.037002,
        "lon": -1.712353,
        "name": "Taillebois",
        "code": 2904
      },
      "arrival": 54600,
      "departure": 54600
    },
    {
      "stop": {
        "id": "2_2918",
        "lat": 48.041976,
        "lon": -1.711045,
        "name": "Callouët",
        "code": 2918
      },
      "arrival": 54660,
      "departure": 54660
    },
    {
      "stop": {
        "id": "2_2919",
        "lat": 48.042323,
        "lon": -1.707466,
        "name": "Chartres Centre",
        "code": 2919
      },
      "arrival": 54720,
      "departure": 54720
    },
    {
      "stop": {
        "id": "2_2920",
        "lat": 48.041536,
        "lon": -1.702871,
        "name": "Auditoire",
        "code": 2920
      },
      "arrival": 54780,
      "departure": 54780
    },
    {
      "stop": {
        "id": "2_2926",
        "lat": 48.041691,
        "lon": -1.696068,
        "name": "Collège Pôle Sud",
        "code": 2926
      },
      "arrival": 54900,
      "departure": 54900
    },
    {
      "stop": {
        "id": "2_2751",
        "lat": 48.039386,
        "lon": -1.680127,
        "name": "Monts Gaultier",
        "code": 2751
      },
      "arrival": 55080,
      "departure": 55080
    },
    {
      "stop": {
        "id": "2_2725",
        "lat": 48.03955,
        "lon": -1.676476,
        "name": "Guyomerais",
        "code": 2725
      },
      "arrival": 55080,
      "departure": 55080
    },
    {
      "stop": {
        "id": "2_2707",
        "lat": 48.040768,
        "lon": -1.671907,
        "name": "Potiers",
        "code": 2707
      },
      "arrival": 55140,
      "departure": 55140
    },
    {
      "stop": {
        "id": "2_2708",
        "lat": 48.042386,
        "lon": -1.665537,
        "name": "Centre",
        "code": 2708
      },
      "arrival": 55260,
      "departure": 55260
    },
    {
      "stop": {
        "id": "2_2709",
        "lat": 48.044053,
        "lon": -1.661183,
        "name": "Salle Polyvalente",
        "code": 2709
      },
      "arrival": 55320,
      "departure": 55320
    },
    {
      "stop": {
        "id": "2_2710",
        "lat": 48.047169,
        "lon": -1.661203,
        "name": "Petite Saudrais",
        "code": 2710
      },
      "arrival": 55380,
      "departure": 55380
    }
  ],
  "route": {
    "id": "2_0091",
    "textColor": "1A171B",
    "color": "AECC52",
    "description": "Intercommunale",
    "longName": "Bruz / Chartres \u003c\u003e Noyal-Châtillon-sur-Seiche",
    "shortName": "91",
    "type": 3,
    "agencyId": "2"
  }
}