{
  "headsign": "2 | Grand Quartier",
  "stopTimes": [
    {
      "stop": {
        "id": "2_1071",
        "lat": 48.096225,
        "lon": -1.636899,
        "name": "Haut Sancé",
        "code": 1071
      },
      "arrival": 29820,
      "departure": 29820
    },
    {
      "stop": {
        "id": "2_1072",
        "lat": 48.094922,
        "lon": -1.638,
        "name": "CARSAT",
        "code": 1072
      },
      "arrival": 29880,
      "departure": 29880
    },
    {
      "stop": {
        "id": "2_1073",
        "lat": 48.092528,
        "lon": -1.639658,
        "name": "Ronceray",
        "code": 1073
      },
      "arrival": 29940,
      "departure": 29940
    },
    {
      "stop": {
        "id": "2_1074",
        "lat": 48.091827,
        "lon": -1.636274,
        "name": "Gohier",
        "code": 1074
      },
      "arrival": 30000,
      "departure": 30000
    },
    {
      "stop": {
        "id": "2_1075",
        "lat": 48.089486,
        "lon": -1.635568,
        "name": "Bourgueil",
        "code": 1075
      },
      "arrival": 30060,
      "departure": 30060
    },
    {
      "stop": {
        "id": "2_1076",
        "lat": 48.087986,
        "lon": -1.638421,
        "name": "Monnet",
        "code": 1076
      },
      "arrival": 30120,
      "departure": 30120
    },
    {
      "stop": {
        "id": "2_1065",
        "lat": 48.087621,
        "lon": -1.64393,
        "name": "La Poterie",
        "code": 1065
      },
      "arrival": 30240,
      "departure": 30240
    },
    {
      "stop": {
        "id": "2_1078",
        "lat": 48.089972,
        "lon": -1.64466,
        "name": "Lycée Descartes",
        "code": 1078
      },
      "arrival": 30300,
      "departure": 30300
    },
    {
      "stop": {
        "id": "2_1079",
        "lat": 48.092772,
        "lon": -1.647205,
        "name": "Monsieur Vincent",
        "code": 1079
      },
      "arrival": 30420,
      "departure": 30420
    },
    {
      "stop": {
        "id": "2_1080",
        "lat": 48.095953,
        "lon": -1.651543,
        "name": "Calmette",
        "code": 1080
      },
      "arrival": 30540,
      "departure": 30540
    },
    {
      "stop": {
        "id": "2_1081",
        "lat": 48.09806,
        "lon": -1.655275,
        "name": "Bourgeois",
        "code": 1081
      },
      "arrival": 30660,
      "departure": 30660
    },
    {
      "stop": {
        "id": "2_1082",
        "lat": 48.099871,
        "lon": -1.657775,
        "name": "Piré",
        "code": 1082
      },
      "arrival": 30780,
      "departure": 30780
    },
    {
      "stop": {
        "id": "2_1213",
        "lat": 48.102902,
        "lon": -1.661403,
        "name": "Croix Saint-Hélier",
        "code": 1213
      },
      "arrival": 30840,
      "departure": 30840
    },
    {
      "stop": {
        "id": "2_1057",
        "lat": 48.104747,
        "lon": -1.667176,
        "name": "Laënnec",
        "code": 1057
      },
      "arrival": 30960,
      "departure": 30960
    },
    {
      "stop": {
        "id": "2_1056",
        "lat": 48.103956,
        "lon": -1.673185,
        "name": "Gares",
        "code": 1056
      },
      "arrival": 31140,
      "departure": 31140
    },
    {
      "stop": {
        "id": "2_1055",
        "lat": 48.106057,
        "lon": -1.67401,
        "name": "Champs Libres",
        "code": 1055
      },
      "arrival": 31260,
      "departure": 31260
    },
    {
      "stop": {
        "id": "2_1054",
        "lat": 48.107564,
        "lon": -1.675176,
        "name": "Liberté TNB",
        "code": 1054
      },
      "arrival": 31320,
      "departure": 31320
    },
    {
      "stop": {
        "id": "2_1315",
        "lat": 48.109698,
        "lon": -1.678048,
        "name": "République",
        "code": 1315
      },
      "arrival": 31500,
      "departure": 31500
    },
    {
      "stop": {
        "id": "2_1051",
        "lat": 48.109888,
        "lon": -1.68328,
        "name": "Place de Bretagne",
        "code": 1051
      },
      "arrival": 31620,
      "departure": 31620
    },
    {
      "stop": {
        "id": "2_1092",
        "lat": 48.111759,
        "lon": -1.686216,
        "name": "Les Lices",
        "code": 1092
      },
      "arrival": 31680,
      "departure": 31680
    },
    {
      "stop": {
        "id": "2_1093",
        "lat": 48.111757,
        "lon": -1.689653,
        "name": "Horizons",
        "code": 1093
      },
      "arrival": 31800,
      "departure": 31800
    },
    {
      "stop": {
        "id": "2_1094",
        "lat": 48.113208,
        "lon": -1.69329,
        "name": "Brest Verdun",
        "code": 1094
      },
      "arrival": 31860,
      "departure": 31860
    },
    {
      "stop": {
        "id": "2_1095",
        "lat": 48.116505,
        "lon": -1.690744,
        "name": "La Touche",
        "code": 1095
      },
      "arrival": 31920,
      "departure": 31920
    },
    {
      "stop": {
        "id": "2_1096",
        "lat": 48.118193,
        "lon": -1.689248,
        "name": "Anatole France",
        "code": 1096
      },
      "arrival": 31980,
      "departure": 31980
    },
    {
      "stop": {
        "id": "2_1097",
        "lat": 48.121017,
        "lon": -1.686759,
        "name": "ESPE",
        "code": 1097
      },
      "arrival": 32100,
      "departure": 32100
    },
    {
      "stop": {
        "id": "2_1099",
        "lat": 48.123587,
        "lon": -1.683606,
        "name": "Saint-Martin",
        "code": 1099
      },
      "arrival": 32160,
      "departure": 32160
    },
    {
      "stop": {
        "id": "2_1100",
        "lat": 48.12503,
        "lon": -1.681973,
        "name": "Cimetière Nord",
        "code": 1100
      },
      "arrival": 32220,
      "departure": 32220
    },
    {
      "stop": {
        "id": "2_1041",
        "lat": 48.128749,
        "lon": -1.6836,
        "name": "Trois Croix",
        "code": 1041
      },
      "arrival": 32340,
      "departure": 32340
    },
    {
      "stop": {
        "id": "2_1102",
        "lat": 48.131357,
        "lon": -1.684599,
        "name": "Donelière",
        "code": 1102
      },
      "arrival": 32400,
      "departure": 32400
    },
    {
      "stop": {
        "id": "2_1371",
        "lat": 48.133171,
        "lon": -1.68511,
        "name": "Lycée Mendès France",
        "code": 1371
      },
      "arrival": 32460,
      "departure": 32460
    },
    {
      "stop": {
        "id": "2_2803",
        "lat": 48.137419,
        "lon": -1.68861,
        "name": "La Plesse",
        "code": 2803
      },
      "arrival": 32580,
      "departure": 32580
    },
    {
      "stop": {
        "id": "2_2801",
        "lat": 48.135818,
        "lon": -1.693158,
        "name": "Grand Quartier",
        "code": 2801
      },
      "arrival": 32640,
      "departure": 32640
    }
  ],
  "route": {
    "id": "2_0002",
    "textColor": "FFFFFF",
    "color": "008BCF",
    "description": "Majeure",
    "longName": "Grand Quartier \u003c\u003e La Poterie / Haut Sancé",
    "shortName": "2",
    "type": 3,
    "agencyId": "2"
  }
}