{
  "headsign": "240 | Le Rheu Lycée Théodore Monod",
  "stopTimes": [
    {
      "stop": {
        "id": "2_3732",
        "lat": 48.14932288,
        "lon": -1.83903709,
        "name": "Ile des Bois",
        "code": 3732
      },
      "arrival": 28440,
      "departure": 28440
    },
    {
      "stop": {
        "id": "2_3717",
        "lat": 48.15401352,
        "lon": -1.83761056,
        "name": "Maison Neuve",
        "code": 3717
      },
      "arrival": 28560,
      "departure": 28560
    },
    {
      "stop": {
        "id": "2_3715",
        "lat": 48.15376806,
        "lon": -1.83402942,
        "name": "Clos des Cerisiers",
        "code": 3715
      },
      "arrival": 28620,
      "departure": 28620
    },
    {
      "stop": {
        "id": "2_3705",
        "lat": 48.15297271,
        "lon": -1.82975865,
        "name": "Saint-Gilles Centre",
        "code": 3705
      },
      "arrival": 28800,
      "departure": 28800
    },
    {
      "stop": {
        "id": "2_2517",
        "lat": 48.0993953,
        "lon": -1.79670831,
        "name": "Brassens",
        "code": 2517
      },
      "arrival": 29580,
      "departure": 29580
    },
    {
      "stop": {
        "id": "2_2502",
        "lat": 48.1005527,
        "lon": -1.80657108,
        "name": "Lycée Monod",
        "code": 2502
      },
      "arrival": 29700,
      "departure": 29700
    }
  ],
  "route": {
    "id": "2_0240",
    "textColor": "FFFFFF",
    "color": "005BAB",
    "description": "Complémentaire",
    "longName": "Saint-Gilles (Île des Bois) \u003c\u003e Le Rheu (Lycée Théodore Monod)",
    "shortName": "240",
    "type": 3,
    "agencyId": "2"
  }
}