{
  "headsign": "52 | Montgermont Chapelle Gévezé",
  "stopTimes": [
    {
      "stop": {
        "id": "2_1567",
        "lat": 48.1062288,
        "lon": -1.67750174,
        "name": "Charles de Gaulle",
        "code": 1567
      },
      "arrival": 92400,
      "departure": 92400
    },
    {
      "stop": {
        "id": "2_1494",
        "lat": 48.12125283,
        "lon": -1.70296746,
        "name": "Villejean-Université",
        "code": 1494
      },
      "arrival": 93000,
      "departure": 93000
    },
    {
      "stop": {
        "id": "2_1495",
        "lat": 48.12663856,
        "lon": -1.69309309,
        "name": "Lycée Basch",
        "code": 1495
      },
      "arrival": 93180,
      "departure": 93180
    },
    {
      "stop": {
        "id": "2_1543",
        "lat": 48.13134643,
        "lon": -1.69183512,
        "name": "Léonard",
        "code": 1543
      },
      "arrival": 93240,
      "departure": 93240
    },
    {
      "stop": {
        "id": "2_2830",
        "lat": 48.13432722,
        "lon": -1.69446334,
        "name": "Grand Quartier",
        "code": 2830
      },
      "arrival": 93300,
      "departure": 93300
    },
    {
      "stop": {
        "id": "2_3508",
        "lat": 48.14826699,
        "lon": -1.70363701,
        "name": "Vizeule",
        "code": 3508
      },
      "arrival": 93420,
      "departure": 93420
    },
    {
      "stop": {
        "id": "2_3509",
        "lat": 48.15288114,
        "lon": -1.70885747,
        "name": "Métrie",
        "code": 3509
      },
      "arrival": 93540,
      "departure": 93540
    },
    {
      "stop": {
        "id": "2_3510",
        "lat": 48.15558798,
        "lon": -1.71082246,
        "name": "Belle Epine",
        "code": 3510
      },
      "arrival": 93540,
      "departure": 93540
    },
    {
      "stop": {
        "id": "2_3511",
        "lat": 48.15733411,
        "lon": -1.71460655,
        "name": "Courtines",
        "code": 3511
      },
      "arrival": 93600,
      "departure": 93600
    },
    {
      "stop": {
        "id": "2_3512",
        "lat": 48.15567996,
        "lon": -1.71663805,
        "name": "Montgermont Mairie",
        "code": 3512
      },
      "arrival": 93660,
      "departure": 93660
    },
    {
      "stop": {
        "id": "2_3513",
        "lat": 48.15568596,
        "lon": -1.72068225,
        "name": "Pierre Texier",
        "code": 3513
      },
      "arrival": 93660,
      "departure": 93660
    },
    {
      "stop": {
        "id": "2_3501",
        "lat": 48.15713428,
        "lon": -1.72329993,
        "name": "Fougerolle",
        "code": 3501
      },
      "arrival": 93720,
      "departure": 93720
    },
    {
      "stop": {
        "id": "2_3515",
        "lat": 48.16271981,
        "lon": -1.73059303,
        "name": "Silandière",
        "code": 3515
      },
      "arrival": 93780,
      "departure": 93780
    },
    {
      "stop": {
        "id": "2_4057",
        "lat": 48.17039595,
        "lon": -1.73622985,
        "name": "Sénestrais",
        "code": 4057
      },
      "arrival": 93900,
      "departure": 93900
    },
    {
      "stop": {
        "id": "2_4058",
        "lat": 48.17395236,
        "lon": -1.73523531,
        "name": "Viennais",
        "code": 4058
      },
      "arrival": 93960,
      "departure": 93960
    },
    {
      "stop": {
        "id": "2_4059",
        "lat": 48.17663681,
        "lon": -1.7328654,
        "name": "Mairie",
        "code": 4059
      },
      "arrival": 93960,
      "departure": 93960
    },
    {
      "stop": {
        "id": "2_4060",
        "lat": 48.1794217,
        "lon": -1.72905833,
        "name": "Métairie",
        "code": 4060
      },
      "arrival": 94020,
      "departure": 94020
    },
    {
      "stop": {
        "id": "2_4069",
        "lat": 48.18312865,
        "lon": -1.72600138,
        "name": "Besneraie",
        "code": 4069
      },
      "arrival": 94140,
      "departure": 94140
    },
    {
      "stop": {
        "id": "2_4503",
        "lat": 48.21863623,
        "lon": -1.78399508,
        "name": "Flume",
        "code": 4503
      },
      "arrival": 94620,
      "departure": 94620
    },
    {
      "stop": {
        "id": "2_4505",
        "lat": 48.22096598,
        "lon": -1.78811849,
        "name": "Gévezé Mairie",
        "code": 4505
      },
      "arrival": 94620,
      "departure": 94620
    },
    {
      "stop": {
        "id": "2_4511",
        "lat": 48.22397777,
        "lon": -1.79377074,
        "name": "Prés Verts",
        "code": 4511
      },
      "arrival": 94740,
      "departure": 94740
    },
    {
      "stop": {
        "id": "2_4509",
        "lat": 48.2246446,
        "lon": -1.80044931,
        "name": "Coualeuc",
        "code": 4509
      },
      "arrival": 94800,
      "departure": 94800
    },
    {
      "stop": {
        "id": "2_4507",
        "lat": 48.22178273,
        "lon": -1.80232719,
        "name": "Cheval Blanc",
        "code": 4507
      },
      "arrival": 94920,
      "departure": 94920
    }
  ],
  "route": {
    "id": "2_0052",
    "textColor": "ffffff",
    "color": "007a76",
    "description": "Métropolitaine",
    "longName": "Saint-Gilles / Pacé \u003c\u003e Rennes (Villejean-Université) \u003c\u003e Montgermont / La Chapelle-des-Fougeretz",
    "shortName": "52",
    "type": 3,
    "agencyId": "2"
  }
}