{
  "headsign": "52 | Montgermont La Chapelle",
  "stopTimes": [
    {
      "stop": {
        "id": "2_3732",
        "lat": 48.1493297,
        "lon": -1.83902413,
        "name": "Ile des Bois",
        "code": 3732
      },
      "arrival": 42300,
      "departure": 42300
    },
    {
      "stop": {
        "id": "2_3717",
        "lat": 48.15398549,
        "lon": -1.83760002,
        "name": "Maison Neuve",
        "code": 3717
      },
      "arrival": 42360,
      "departure": 42360
    },
    {
      "stop": {
        "id": "2_3715",
        "lat": 48.15374478,
        "lon": -1.83403418,
        "name": "Clos des Cerisiers",
        "code": 3715
      },
      "arrival": 42420,
      "departure": 42420
    },
    {
      "stop": {
        "id": "2_3705",
        "lat": 48.15297271,
        "lon": -1.82975865,
        "name": "Saint-Gilles Centre",
        "code": 3705
      },
      "arrival": 42420,
      "departure": 42420
    },
    {
      "stop": {
        "id": "2_3707",
        "lat": 48.15070786,
        "lon": -1.82521706,
        "name": "Pont aux Moines",
        "code": 3707
      },
      "arrival": 42480,
      "departure": 42480
    },
    {
      "stop": {
        "id": "2_3708",
        "lat": 48.15283954,
        "lon": -1.82071011,
        "name": "Vigne",
        "code": 3708
      },
      "arrival": 42540,
      "departure": 42540
    },
    {
      "stop": {
        "id": "2_3709",
        "lat": 48.15291812,
        "lon": -1.80907719,
        "name": "Fouaye",
        "code": 3709
      },
      "arrival": 42660,
      "departure": 42660
    },
    {
      "stop": {
        "id": "2_3102",
        "lat": 48.15130193,
        "lon": -1.79231921,
        "name": "Pie Neuve",
        "code": 3102
      },
      "arrival": 42780,
      "departure": 42780
    },
    {
      "stop": {
        "id": "2_3103",
        "lat": 48.14925877,
        "lon": -1.78891407,
        "name": "Docteur Léon",
        "code": 3103
      },
      "arrival": 42840,
      "departure": 42840
    },
    {
      "stop": {
        "id": "2_3104",
        "lat": 48.14851135,
        "lon": -1.78489927,
        "name": "Touche Milon",
        "code": 3104
      },
      "arrival": 42900,
      "departure": 42900
    },
    {
      "stop": {
        "id": "2_3119",
        "lat": 48.14754795,
        "lon": -1.78109404,
        "name": "Pinault",
        "code": 3119
      },
      "arrival": 42960,
      "departure": 42960
    },
    {
      "stop": {
        "id": "2_3134",
        "lat": 48.14165528,
        "lon": -1.77056625,
        "name": "Nominoë",
        "code": 3134
      },
      "arrival": 43080,
      "departure": 43080
    },
    {
      "stop": {
        "id": "2_1517",
        "lat": 48.11854026,
        "lon": -1.71363649,
        "name": "Berry",
        "code": 1517
      },
      "arrival": 43440,
      "departure": 43440
    },
    {
      "stop": {
        "id": "2_1520",
        "lat": 48.12050245,
        "lon": -1.70973991,
        "name": "Bourbonnais",
        "code": 1520
      },
      "arrival": 43500,
      "departure": 43500
    },
    {
      "stop": {
        "id": "2_1494",
        "lat": 48.12125283,
        "lon": -1.70296746,
        "name": "Villejean-Université",
        "code": 1494
      },
      "arrival": 43740,
      "departure": 43740
    },
    {
      "stop": {
        "id": "2_1495",
        "lat": 48.12663856,
        "lon": -1.69309309,
        "name": "Lycée Basch",
        "code": 1495
      },
      "arrival": 43980,
      "departure": 43980
    },
    {
      "stop": {
        "id": "2_1543",
        "lat": 48.13134643,
        "lon": -1.69183512,
        "name": "Léonard",
        "code": 1543
      },
      "arrival": 44100,
      "departure": 44100
    },
    {
      "stop": {
        "id": "2_2830",
        "lat": 48.13432722,
        "lon": -1.69446334,
        "name": "Grand Quartier",
        "code": 2830
      },
      "arrival": 44160,
      "departure": 44160
    },
    {
      "stop": {
        "id": "2_3508",
        "lat": 48.14826699,
        "lon": -1.70363701,
        "name": "Vizeule",
        "code": 3508
      },
      "arrival": 44280,
      "departure": 44280
    },
    {
      "stop": {
        "id": "2_3509",
        "lat": 48.15288114,
        "lon": -1.70885747,
        "name": "Métrie",
        "code": 3509
      },
      "arrival": 44400,
      "departure": 44400
    },
    {
      "stop": {
        "id": "2_3510",
        "lat": 48.15558798,
        "lon": -1.71082246,
        "name": "Belle Epine",
        "code": 3510
      },
      "arrival": 44400,
      "departure": 44400
    },
    {
      "stop": {
        "id": "2_3511",
        "lat": 48.15733411,
        "lon": -1.71460655,
        "name": "Courtines",
        "code": 3511
      },
      "arrival": 44460,
      "departure": 44460
    },
    {
      "stop": {
        "id": "2_3512",
        "lat": 48.15567996,
        "lon": -1.71663805,
        "name": "Montgermont Mairie",
        "code": 3512
      },
      "arrival": 44520,
      "departure": 44520
    },
    {
      "stop": {
        "id": "2_3513",
        "lat": 48.15568596,
        "lon": -1.72068225,
        "name": "Pierre Texier",
        "code": 3513
      },
      "arrival": 44580,
      "departure": 44580
    },
    {
      "stop": {
        "id": "2_3501",
        "lat": 48.15713428,
        "lon": -1.72329993,
        "name": "Fougerolle",
        "code": 3501
      },
      "arrival": 44640,
      "departure": 44640
    },
    {
      "stop": {
        "id": "2_3515",
        "lat": 48.16271981,
        "lon": -1.73059303,
        "name": "Silandière",
        "code": 3515
      },
      "arrival": 44760,
      "departure": 44760
    },
    {
      "stop": {
        "id": "2_4057",
        "lat": 48.17039595,
        "lon": -1.73622985,
        "name": "Sénestrais",
        "code": 4057
      },
      "arrival": 44820,
      "departure": 44820
    },
    {
      "stop": {
        "id": "2_4058",
        "lat": 48.17395236,
        "lon": -1.73523531,
        "name": "Viennais",
        "code": 4058
      },
      "arrival": 44880,
      "departure": 44880
    },
    {
      "stop": {
        "id": "2_4059",
        "lat": 48.17663681,
        "lon": -1.7328654,
        "name": "Mairie",
        "code": 4059
      },
      "arrival": 44940,
      "departure": 44940
    },
    {
      "stop": {
        "id": "2_4060",
        "lat": 48.1794217,
        "lon": -1.72905833,
        "name": "Métairie",
        "code": 4060
      },
      "arrival": 45000,
      "departure": 45000
    },
    {
      "stop": {
        "id": "2_4069",
        "lat": 48.18312865,
        "lon": -1.72600138,
        "name": "Besneraie",
        "code": 4069
      },
      "arrival": 45060,
      "departure": 45060
    }
  ],
  "route": {
    "id": "2_0052",
    "textColor": "ffffff",
    "color": "007a76",
    "description": "Métropolitaine",
    "longName": "Saint-Gilles / Pacé \u003c\u003e Rennes (Villejean-Université) \u003c\u003e Montgermont / La Chapelle-des-Fougeretz",
    "shortName": "52",
    "type": 3,
    "agencyId": "2"
  }
}