{
  "headsign": "91 | Bruz Centre",
  "stopTimes": [
    {
      "stop": {
        "id": "2_2327",
        "lat": 48.005026,
        "lon": -1.77502,
        "name": "Pont-Réan",
        "code": 2327
      },
      "arrival": 37200,
      "departure": 37200
    },
    {
      "stop": {
        "id": "2_2346",
        "lat": 48.008586,
        "lon": -1.773845,
        "name": "Croix Vaisserelle",
        "code": 2346
      },
      "arrival": 37260,
      "departure": 37260
    },
    {
      "stop": {
        "id": "2_2330",
        "lat": 48.024043,
        "lon": -1.761602,
        "name": "Rabine",
        "code": 2330
      },
      "arrival": 37560,
      "departure": 37560
    },
    {
      "stop": {
        "id": "2_2324",
        "lat": 48.024584,
        "lon": -1.757229,
        "name": "Haut Launay",
        "code": 2324
      },
      "arrival": 37620,
      "departure": 37620
    },
    {
      "stop": {
        "id": "2_2374",
        "lat": 48.024146,
        "lon": -1.752978,
        "name": "Châteliers",
        "code": 2374
      },
      "arrival": 37680,
      "departure": 37680
    },
    {
      "stop": {
        "id": "2_2353",
        "lat": 48.023379,
        "lon": -1.742999,
        "name": "Bruz Centre",
        "code": 2353
      },
      "arrival": 37920,
      "departure": 37920
    }
  ],
  "route": {
    "id": "2_0091",
    "textColor": "1A171B",
    "color": "AECC52",
    "description": "Intercommunale",
    "longName": "Bruz / Chartres \u003c\u003e Noyal-Châtillon-sur-Seiche",
    "shortName": "91",
    "type": 3,
    "agencyId": "2"
  }
}