{
  "headsign": "41 | Gares",
  "stopTimes": [
    {
      "stop": {
        "id": "2_1481",
        "lat": 48.12981846,
        "lon": -1.64241093,
        "name": "Pâtis Tatelin",
        "code": 1481
      },
      "arrival": 62400,
      "departure": 62400
    },
    {
      "stop": {
        "id": "2_1480",
        "lat": 48.13202872,
        "lon": -1.63503782,
        "name": "ZA Saint-Sulpice",
        "code": 1480
      },
      "arrival": 62520,
      "departure": 62520
    },
    {
      "stop": {
        "id": "2_1617",
        "lat": 48.12914499,
        "lon": -1.63014755,
        "name": "Longs Champs Est",
        "code": 1617
      },
      "arrival": 62700,
      "departure": 62700
    },
    {
      "stop": {
        "id": "2_1536",
        "lat": 48.12680571,
        "lon": -1.6300959,
        "name": "Clos Courtel",
        "code": 1536
      },
      "arrival": 62760,
      "departure": 62760
    },
    {
      "stop": {
        "id": "2_1291",
        "lat": 48.12475494,
        "lon": -1.63388413,
        "name": "IUT",
        "code": 1291
      },
      "arrival": 62820,
      "departure": 62820
    },
    {
      "stop": {
        "id": "2_1292",
        "lat": 48.12145018,
        "lon": -1.63814809,
        "name": "Beaulieu Restau U",
        "code": 1292
      },
      "arrival": 62940,
      "departure": 62940
    },
    {
      "stop": {
        "id": "2_1176",
        "lat": 48.11901733,
        "lon": -1.63514782,
        "name": "Beaulieu INSA",
        "code": 1176
      },
      "arrival": 63000,
      "departure": 63000
    },
    {
      "stop": {
        "id": "2_1312",
        "lat": 48.1166495,
        "lon": -1.63393042,
        "name": "Beaulieu Chimie",
        "code": 1312
      },
      "arrival": 63060,
      "departure": 63060
    },
    {
      "stop": {
        "id": "2_1160",
        "lat": 48.11406413,
        "lon": -1.63761839,
        "name": "Tournebride",
        "code": 1160
      },
      "arrival": 63120,
      "departure": 63120
    },
    {
      "stop": {
        "id": "2_1161",
        "lat": 48.11219183,
        "lon": -1.64423633,
        "name": "Plaine de Baud",
        "code": 1161
      },
      "arrival": 63240,
      "departure": 63240
    },
    {
      "stop": {
        "id": "2_1164",
        "lat": 48.11009515,
        "lon": -1.66397755,
        "name": "Pont de Châteaudun",
        "code": 1164
      },
      "arrival": 63480,
      "departure": 63480
    },
    {
      "stop": {
        "id": "2_1056",
        "lat": 48.10391821,
        "lon": -1.67317044,
        "name": "Gares",
        "code": 1056
      },
      "arrival": 63900,
      "departure": 63900
    }
  ],
  "route": {
    "id": "2_0041",
    "textColor": "3D3C3F",
    "color": "FFDD00",
    "description": "Express urbaine",
    "longName": "Gares \u003c\u003e Pâtis Tatelin",
    "shortName": "41",
    "type": 3,
    "agencyId": "2"
  }
}