{
  "headsign": "1 | Cesson-Sévigné Champs Blancs",
  "stopTimes": [
    {
      "stop": {
        "id": "2_3028",
        "lat": 48.08547293,
        "lon": -1.60397916,
        "name": "Rosa Parks",
        "code": 3028
      },
      "arrival": 56880,
      "departure": 56880
    },
    {
      "stop": {
        "id": "2_3027",
        "lat": 48.08576141,
        "lon": -1.60813614,
        "name": "Touche Annette",
        "code": 3027
      },
      "arrival": 56940,
      "departure": 56940
    },
    {
      "stop": {
        "id": "2_3032",
        "lat": 48.08517236,
        "lon": -1.61074847,
        "name": "Gériatrie",
        "code": 3032
      },
      "arrival": 57000,
      "departure": 57000
    },
    {
      "stop": {
        "id": "2_3002",
        "lat": 48.08572691,
        "lon": -1.61407942,
        "name": "Deux Ruisseaux",
        "code": 3002
      },
      "arrival": 57060,
      "departure": 57060
    },
    {
      "stop": {
        "id": "2_3003",
        "lat": 48.08911849,
        "lon": -1.61263999,
        "name": "Bourgogne",
        "code": 3003
      },
      "arrival": 57120,
      "departure": 57120
    },
    {
      "stop": {
        "id": "2_3004",
        "lat": 48.09034405,
        "lon": -1.61586838,
        "name": "Hallouvry",
        "code": 3004
      },
      "arrival": 57180,
      "departure": 57180
    },
    {
      "stop": {
        "id": "2_3005",
        "lat": 48.08816241,
        "lon": -1.61696467,
        "name": "Chantepie Eglise",
        "code": 3005
      },
      "arrival": 57240,
      "departure": 57240
    },
    {
      "stop": {
        "id": "2_3006",
        "lat": 48.08845908,
        "lon": -1.61922326,
        "name": "Chantepie Mairie",
        "code": 3006
      },
      "arrival": 57300,
      "departure": 57300
    },
    {
      "stop": {
        "id": "2_3007",
        "lat": 48.09040827,
        "lon": -1.62387938,
        "name": "Loges",
        "code": 3007
      },
      "arrival": 57360,
      "departure": 57360
    },
    {
      "stop": {
        "id": "2_1322",
        "lat": 48.09430785,
        "lon": -1.63474285,
        "name": "Sauvaie",
        "code": 1322
      },
      "arrival": 57600,
      "departure": 57600
    },
    {
      "stop": {
        "id": "2_1323",
        "lat": 48.09543821,
        "lon": -1.63808487,
        "name": "CARSAT",
        "code": 1323
      },
      "arrival": 57660,
      "departure": 57660
    },
    {
      "stop": {
        "id": "2_1324",
        "lat": 48.09761101,
        "lon": -1.6424202,
        "name": "Domaine",
        "code": 1324
      },
      "arrival": 57720,
      "departure": 57720
    },
    {
      "stop": {
        "id": "2_1325",
        "lat": 48.09943332,
        "lon": -1.64672508,
        "name": "Landry",
        "code": 1325
      },
      "arrival": 57780,
      "departure": 57780
    },
    {
      "stop": {
        "id": "2_1470",
        "lat": 48.10058076,
        "lon": -1.65031144,
        "name": "Villebois-Mareuil",
        "code": 1470
      },
      "arrival": 57840,
      "departure": 57840
    },
    {
      "stop": {
        "id": "2_1327",
        "lat": 48.10137672,
        "lon": -1.65366515,
        "name": "Raison",
        "code": 1327
      },
      "arrival": 57900,
      "departure": 57900
    },
    {
      "stop": {
        "id": "2_1212",
        "lat": 48.10191268,
        "lon": -1.65652502,
        "name": "Mouézy",
        "code": 1212
      },
      "arrival": 57960,
      "departure": 57960
    },
    {
      "stop": {
        "id": "2_1213",
        "lat": 48.10287126,
        "lon": -1.66143906,
        "name": "Croix Saint-Hélier",
        "code": 1213
      },
      "arrival": 58020,
      "departure": 58020
    },
    {
      "stop": {
        "id": "2_1057",
        "lat": 48.10469525,
        "lon": -1.66716416,
        "name": "Laënnec",
        "code": 1057
      },
      "arrival": 58140,
      "departure": 58140
    },
    {
      "stop": {
        "id": "2_1056",
        "lat": 48.10391821,
        "lon": -1.67317044,
        "name": "Gares",
        "code": 1056
      },
      "arrival": 58320,
      "departure": 58320
    },
    {
      "stop": {
        "id": "2_1055",
        "lat": 48.1053351,
        "lon": -1.67389232,
        "name": "Champs Libres",
        "code": 1055
      },
      "arrival": 58440,
      "departure": 58440
    },
    {
      "stop": {
        "id": "2_1054",
        "lat": 48.10755037,
        "lon": -1.67508432,
        "name": "Liberté TNB",
        "code": 1054
      },
      "arrival": 58500,
      "departure": 58500
    },
    {
      "stop": {
        "id": "2_1023",
        "lat": 48.10798151,
        "lon": -1.68011595,
        "name": "Les Halles",
        "code": 1023
      },
      "arrival": 58620,
      "departure": 58620
    },
    {
      "stop": {
        "id": "2_1016",
        "lat": 48.11007256,
        "lon": -1.6801671,
        "name": "République Nemours",
        "code": 1016
      },
      "arrival": 58800,
      "departure": 58800
    },
    {
      "stop": {
        "id": "2_1025",
        "lat": 48.11273566,
        "lon": -1.68025817,
        "name": "Champ Jacquet",
        "code": 1025
      },
      "arrival": 58920,
      "departure": 58920
    },
    {
      "stop": {
        "id": "2_1026",
        "lat": 48.11478452,
        "lon": -1.67927843,
        "name": "Sainte-Anne",
        "code": 1026
      },
      "arrival": 59040,
      "departure": 59040
    },
    {
      "stop": {
        "id": "2_1027",
        "lat": 48.11723114,
        "lon": -1.67736823,
        "name": "Hôtel Dieu",
        "code": 1027
      },
      "arrival": 59160,
      "departure": 59160
    },
    {
      "stop": {
        "id": "2_1028",
        "lat": 48.11750653,
        "lon": -1.67360984,
        "name": "Sévigné",
        "code": 1028
      },
      "arrival": 59280,
      "departure": 59280
    },
    {
      "stop": {
        "id": "2_1029",
        "lat": 48.11831975,
        "lon": -1.66969704,
        "name": "Fac de Droit",
        "code": 1029
      },
      "arrival": 59340,
      "departure": 59340
    },
    {
      "stop": {
        "id": "2_1030",
        "lat": 48.11947818,
        "lon": -1.66685122,
        "name": "Guéhenno",
        "code": 1030
      },
      "arrival": 59400,
      "departure": 59400
    },
    {
      "stop": {
        "id": "2_1031",
        "lat": 48.12200441,
        "lon": -1.66224129,
        "name": "Metz Volney",
        "code": 1031
      },
      "arrival": 59520,
      "departure": 59520
    },
    {
      "stop": {
        "id": "2_1032",
        "lat": 48.12331854,
        "lon": -1.65932809,
        "name": "Painlevé",
        "code": 1032
      },
      "arrival": 59580,
      "departure": 59580
    },
    {
      "stop": {
        "id": "2_1033",
        "lat": 48.1213237,
        "lon": -1.65499372,
        "name": "Assomption",
        "code": 1033
      },
      "arrival": 59700,
      "departure": 59700
    },
    {
      "stop": {
        "id": "2_1034",
        "lat": 48.12221902,
        "lon": -1.65061867,
        "name": "Turmel",
        "code": 1034
      },
      "arrival": 59760,
      "departure": 59760
    },
    {
      "stop": {
        "id": "2_1035",
        "lat": 48.12370158,
        "lon": -1.64529281,
        "name": "Mirabeau",
        "code": 1035
      },
      "arrival": 59880,
      "departure": 59880
    },
    {
      "stop": {
        "id": "2_1036",
        "lat": 48.12553895,
        "lon": -1.64212893,
        "name": "Donzelot",
        "code": 1036
      },
      "arrival": 59940,
      "departure": 59940
    },
    {
      "stop": {
        "id": "2_1037",
        "lat": 48.1277403,
        "lon": -1.6400201,
        "name": "Gallets",
        "code": 1037
      },
      "arrival": 60000,
      "departure": 60000
    },
    {
      "stop": {
        "id": "2_1038",
        "lat": 48.12826339,
        "lon": -1.6372655,
        "name": "Bouzat",
        "code": 1038
      },
      "arrival": 60060,
      "departure": 60060
    },
    {
      "stop": {
        "id": "2_1039",
        "lat": 48.12901691,
        "lon": -1.63243041,
        "name": "Longs Champs",
        "code": 1039
      },
      "arrival": 60120,
      "departure": 60120
    },
    {
      "stop": {
        "id": "2_2003",
        "lat": 48.13011199,
        "lon": -1.62787161,
        "name": "Cesson Hôpital Privé",
        "code": 2003
      },
      "arrival": 60240,
      "departure": 60240
    },
    {
      "stop": {
        "id": "2_2125",
        "lat": 48.13189176,
        "lon": -1.62441699,
        "name": "Chêne Germain",
        "code": 2125
      },
      "arrival": 60300,
      "departure": 60300
    },
    {
      "stop": {
        "id": "2_2126",
        "lat": 48.13476313,
        "lon": -1.62183196,
        "name": "Champs Blancs",
        "code": 2126
      },
      "arrival": 60420,
      "departure": 60420
    }
  ],
  "route": {
    "id": "2_0001",
    "textColor": "1A171B",
    "color": "97BF0D",
    "description": "Majeure",
    "longName": "Cesson-Sévigné (Champs Blancs) \u003c\u003e Chantepie (Rosa Parks)",
    "shortName": "1",
    "type": 3,
    "agencyId": "2"
  }
}