{
  "headsign": "94 | Saint-Sulpice-la-Forêt",
  "stopTimes": [
    {
      "stop": {
        "id": "2_2417",
        "lat": 48.18170386,
        "lon": -1.63855109,
        "name": "Betton Centre",
        "code": 2417
      },
      "arrival": 40680,
      "departure": 40680
    },
    {
      "stop": {
        "id": "2_3959",
        "lat": 48.21179703,
        "lon": -1.59059123,
        "name": "Tronchay",
        "code": 3959
      },
      "arrival": 41460,
      "departure": 41460
    },
    {
      "stop": {
        "id": "2_3954",
        "lat": 48.21479222,
        "lon": -1.58657706,
        "name": "Terrain des Sports",
        "code": 3954
      },
      "arrival": 41520,
      "departure": 41520
    },
    {
      "stop": {
        "id": "2_3961",
        "lat": 48.2177321,
        "lon": -1.58139746,
        "name": "Bourg",
        "code": 3961
      },
      "arrival": 41580,
      "departure": 41580
    },
    {
      "stop": {
        "id": "2_3962",
        "lat": 48.22315212,
        "lon": -1.57693236,
        "name": "Chesnais",
        "code": 3962
      },
      "arrival": 41640,
      "departure": 41640
    },
    {
      "stop": {
        "id": "2_3951",
        "lat": 48.22528095,
        "lon": -1.57037306,
        "name": "Cropy",
        "code": 3951
      },
      "arrival": 41700,
      "departure": 41700
    }
  ],
  "route": {
    "id": "2_0094",
    "textColor": "1A171B",
    "color": "AECC52",
    "description": "Intercommunale",
    "longName": "Saint-Sulpice-la-Forêt / Chevaigné \u003c\u003e Betton (Centre)",
    "shortName": "94",
    "type": 3,
    "agencyId": "2"
  }
}