{
  "headsign": "91 | Noyal-Châtillon-sur-Seiche",
  "stopTimes": [
    {
      "stop": {
        "id": "2_2301",
        "lat": 48.02452888,
        "lon": -1.74523499,
        "name": "Bruz Centre",
        "code": 2301
      },
      "arrival": 57000,
      "departure": 57000
    },
    {
      "stop": {
        "id": "2_2353",
        "lat": 48.02341051,
        "lon": -1.74310902,
        "name": "Victor Hugo",
        "code": 2353
      },
      "arrival": 57060,
      "departure": 57060
    },
    {
      "stop": {
        "id": "2_2334",
        "lat": 48.02378686,
        "lon": -1.73611312,
        "name": "Pasteur",
        "code": 2334
      },
      "arrival": 57120,
      "departure": 57120
    },
    {
      "stop": {
        "id": "2_2335",
        "lat": 48.02625491,
        "lon": -1.73452897,
        "name": "Bobinais",
        "code": 2335
      },
      "arrival": 57180,
      "departure": 57180
    },
    {
      "stop": {
        "id": "2_2336",
        "lat": 48.03021172,
        "lon": -1.73446075,
        "name": "Champ Niguel",
        "code": 2336
      },
      "arrival": 57240,
      "departure": 57240
    },
    {
      "stop": {
        "id": "2_2337",
        "lat": 48.03296043,
        "lon": -1.73309587,
        "name": "Lavoisier",
        "code": 2337
      },
      "arrival": 57300,
      "departure": 57300
    },
    {
      "stop": {
        "id": "2_2326",
        "lat": 48.03414629,
        "lon": -1.72378519,
        "name": "Doublé",
        "code": 2326
      },
      "arrival": 57420,
      "departure": 57420
    },
    {
      "stop": {
        "id": "2_2350",
        "lat": 48.02934871,
        "lon": -1.71910978,
        "name": "Mare de la Salle",
        "code": 2350
      },
      "arrival": 57600,
      "departure": 57600
    },
    {
      "stop": {
        "id": "2_2903",
        "lat": 48.0332539,
        "lon": -1.71164902,
        "name": "Chaussairie",
        "code": 2903
      },
      "arrival": 57720,
      "departure": 57720
    },
    {
      "stop": {
        "id": "2_2904",
        "lat": 48.03694559,
        "lon": -1.71243488,
        "name": "Taillebois",
        "code": 2904
      },
      "arrival": 57780,
      "departure": 57780
    },
    {
      "stop": {
        "id": "2_2918",
        "lat": 48.04201305,
        "lon": -1.71105813,
        "name": "Callouët",
        "code": 2918
      },
      "arrival": 57840,
      "departure": 57840
    },
    {
      "stop": {
        "id": "2_2919",
        "lat": 48.04229207,
        "lon": -1.70746679,
        "name": "Chartres Centre",
        "code": 2919
      },
      "arrival": 57900,
      "departure": 57900
    },
    {
      "stop": {
        "id": "2_2920",
        "lat": 48.04158293,
        "lon": -1.70288204,
        "name": "Auditoire",
        "code": 2920
      },
      "arrival": 57960,
      "departure": 57960
    },
    {
      "stop": {
        "id": "2_2926",
        "lat": 48.04167241,
        "lon": -1.69613307,
        "name": "Collège Pôle Sud",
        "code": 2926
      },
      "arrival": 58080,
      "departure": 58080
    },
    {
      "stop": {
        "id": "2_2751",
        "lat": 48.03935445,
        "lon": -1.68010587,
        "name": "Monts Gaultier",
        "code": 2751
      },
      "arrival": 58260,
      "departure": 58260
    },
    {
      "stop": {
        "id": "2_2725",
        "lat": 48.03959475,
        "lon": -1.67647149,
        "name": "Guyomerais",
        "code": 2725
      },
      "arrival": 58320,
      "departure": 58320
    },
    {
      "stop": {
        "id": "2_2707",
        "lat": 48.04080291,
        "lon": -1.6719381,
        "name": "Potiers",
        "code": 2707
      },
      "arrival": 58380,
      "departure": 58380
    },
    {
      "stop": {
        "id": "2_2708",
        "lat": 48.04239862,
        "lon": -1.66565541,
        "name": "Centre",
        "code": 2708
      },
      "arrival": 58500,
      "departure": 58500
    },
    {
      "stop": {
        "id": "2_2709",
        "lat": 48.0440963,
        "lon": -1.66126141,
        "name": "Salle Polyvalente",
        "code": 2709
      },
      "arrival": 58560,
      "departure": 58560
    },
    {
      "stop": {
        "id": "2_2710",
        "lat": 48.0471142,
        "lon": -1.66108375,
        "name": "Petite Saudrais",
        "code": 2710
      },
      "arrival": 58620,
      "departure": 58620
    }
  ],
  "route": {
    "id": "2_0091",
    "textColor": "1A171B",
    "color": "AECC52",
    "description": "Intercommunale",
    "longName": "Bruz / Chartres \u003c\u003e Noyal-Châtillon-sur-Seiche",
    "shortName": "91",
    "type": 3,
    "agencyId": "2"
  }
}