{
  "headsign": "235 | Pont-Péan Mouton Blanc",
  "stopTimes": [
    {
      "stop": {
        "id": "2_3245",
        "lat": 47.96434879,
        "lon": -1.68171763,
        "name": "L\u0027hermitière Village",
        "code": 3245
      },
      "arrival": 59100,
      "departure": 59100
    },
    {
      "stop": {
        "id": "2_3225",
        "lat": 47.96260831,
        "lon": -1.68489353,
        "name": "ZA L\u0027Hermitière",
        "code": 3225
      },
      "arrival": 59160,
      "departure": 59160
    },
    {
      "stop": {
        "id": "2_4711",
        "lat": 47.97539368,
        "lon": -1.69140322,
        "name": "Estuaires",
        "code": 4711
      },
      "arrival": 59280,
      "departure": 59280
    },
    {
      "stop": {
        "id": "2_4709",
        "lat": 47.97992591,
        "lon": -1.6930728,
        "name": "Bout de Lande",
        "code": 4709
      },
      "arrival": 59340,
      "departure": 59340
    },
    {
      "stop": {
        "id": "2_3903",
        "lat": 48.01062005,
        "lon": -1.70099518,
        "name": "Mouton Blanc",
        "code": 3903
      },
      "arrival": 59640,
      "departure": 59640
    }
  ],
  "route": {
    "id": "2_0235",
    "textColor": "000000",
    "color": "FECC00",
    "description": "Complémentaire",
    "longName": "Pont-Péan (Mouton Blanc) \u003c\u003e Orgères (L\u0027Hermitière Village)",
    "shortName": "235",
    "type": 3,
    "agencyId": "2"
  }
}