{
  "headsign": "51 | Betton Champ Devant",
  "stopTimes": [
    {
      "stop": {
        "id": "2_1606",
        "lat": 48.115697,
        "lon": -1.676699,
        "name": "Hoche",
        "code": 1606
      },
      "arrival": 67200,
      "departure": 67200
    },
    {
      "stop": {
        "id": "2_1279",
        "lat": 48.119451,
        "lon": -1.674371,
        "name": "Rectorat",
        "code": 1279
      },
      "arrival": 67320,
      "departure": 67320
    },
    {
      "stop": {
        "id": "2_1280",
        "lat": 48.121404,
        "lon": -1.670825,
        "name": "Jules Ferry",
        "code": 1280
      },
      "arrival": 67440,
      "departure": 67440
    },
    {
      "stop": {
        "id": "2_1281",
        "lat": 48.125362,
        "lon": -1.66626,
        "name": "Volney",
        "code": 1281
      },
      "arrival": 67560,
      "departure": 67560
    },
    {
      "stop": {
        "id": "2_1282",
        "lat": 48.126594,
        "lon": -1.665268,
        "name": "Gros Chêne",
        "code": 1282
      },
      "arrival": 67620,
      "departure": 67620
    },
    {
      "stop": {
        "id": "2_1489",
        "lat": 48.132299,
        "lon": -1.661521,
        "name": "Patton Gast",
        "code": 1489
      },
      "arrival": 67740,
      "departure": 67740
    },
    {
      "stop": {
        "id": "2_1490",
        "lat": 48.136021,
        "lon": -1.659114,
        "name": "Hôtel de Région",
        "code": 1490
      },
      "arrival": 67800,
      "departure": 67800
    },
    {
      "stop": {
        "id": "2_1491",
        "lat": 48.13892,
        "lon": -1.658273,
        "name": "Saint-Laurent",
        "code": 1491
      },
      "arrival": 67860,
      "departure": 67860
    },
    {
      "stop": {
        "id": "2_2829",
        "lat": 48.149378,
        "lon": -1.656411,
        "name": "Maison Blanche",
        "code": 2829
      },
      "arrival": 67980,
      "departure": 67980
    },
    {
      "stop": {
        "id": "2_2412",
        "lat": 48.162059,
        "lon": -1.647356,
        "name": "Betton Vallée",
        "code": 2412
      },
      "arrival": 68100,
      "departure": 68100
    },
    {
      "stop": {
        "id": "2_2413",
        "lat": 48.171155,
        "lon": -1.641673,
        "name": "Enseigne Abbaye",
        "code": 2413
      },
      "arrival": 68220,
      "departure": 68220
    },
    {
      "stop": {
        "id": "2_2414",
        "lat": 48.172685,
        "lon": -1.637284,
        "name": "Housset",
        "code": 2414
      },
      "arrival": 68280,
      "departure": 68280
    },
    {
      "stop": {
        "id": "2_2415",
        "lat": 48.176867,
        "lon": -1.637055,
        "name": "Marronniers",
        "code": 2415
      },
      "arrival": 68400,
      "departure": 68400
    },
    {
      "stop": {
        "id": "2_2416",
        "lat": 48.180198,
        "lon": -1.634708,
        "name": "Haye Renaud Gare",
        "code": 2416
      },
      "arrival": 68460,
      "departure": 68460
    },
    {
      "stop": {
        "id": "2_2437",
        "lat": 48.181703,
        "lon": -1.639251,
        "name": "Betton Centre",
        "code": 2437
      },
      "arrival": 68580,
      "departure": 68580
    },
    {
      "stop": {
        "id": "2_2418",
        "lat": 48.181986,
        "lon": -1.641399,
        "name": "Betton Mairie",
        "code": 2418
      },
      "arrival": 68580,
      "departure": 68580
    },
    {
      "stop": {
        "id": "2_2419",
        "lat": 48.183195,
        "lon": -1.646546,
        "name": "Trégor",
        "code": 2419
      },
      "arrival": 68700,
      "departure": 68700
    },
    {
      "stop": {
        "id": "2_2420",
        "lat": 48.180579,
        "lon": -1.652229,
        "name": "Brocéliande",
        "code": 2420
      },
      "arrival": 68760,
      "departure": 68760
    },
    {
      "stop": {
        "id": "2_2421",
        "lat": 48.179175,
        "lon": -1.65123,
        "name": "Omblais",
        "code": 2421
      },
      "arrival": 68820,
      "departure": 68820
    },
    {
      "stop": {
        "id": "2_2401",
        "lat": 48.177029,
        "lon": -1.651134,
        "name": "Champ Devant",
        "code": 2401
      },
      "arrival": 68880,
      "departure": 68880
    }
  ],
  "route": {
    "id": "2_0051",
    "textColor": "FFFFFF",
    "color": "93117E",
    "description": "Métropolitaine",
    "longName": "Rennes (Hoche) \u003c\u003e Betton (Champ Devant)",
    "shortName": "51",
    "type": 3,
    "agencyId": "2"
  }
}