{
  "headsign": "11 | Saint-Saëns",
  "stopTimes": [
    {
      "stop": {
        "id": "2_3751",
        "lat": 48.10740153,
        "lon": -1.73924668,
        "name": "ZI Ouest",
        "code": 3751
      },
      "arrival": 38700,
      "departure": 38700
    },
    {
      "stop": {
        "id": "2_3752",
        "lat": 48.10474061,
        "lon": -1.73906178,
        "name": "Trois Marches",
        "code": 3752
      },
      "arrival": 38760,
      "departure": 38760
    },
    {
      "stop": {
        "id": "2_3769",
        "lat": 48.10421313,
        "lon": -1.73603999,
        "name": "Marais",
        "code": 3769
      },
      "arrival": 38760,
      "departure": 38760
    },
    {
      "stop": {
        "id": "2_1229",
        "lat": 48.10118185,
        "lon": -1.73162775,
        "name": "Servigné",
        "code": 1229
      },
      "arrival": 38880,
      "departure": 38880
    },
    {
      "stop": {
        "id": "2_1230",
        "lat": 48.10210977,
        "lon": -1.72691496,
        "name": "Jardin Moderne",
        "code": 1230
      },
      "arrival": 38940,
      "departure": 38940
    },
    {
      "stop": {
        "id": "2_1231",
        "lat": 48.10328122,
        "lon": -1.72333208,
        "name": "Robinot de St-Cyr",
        "code": 1231
      },
      "arrival": 39000,
      "departure": 39000
    },
    {
      "stop": {
        "id": "2_1232",
        "lat": 48.10625606,
        "lon": -1.72374575,
        "name": "Le Hô",
        "code": 1232
      },
      "arrival": 39060,
      "departure": 39060
    },
    {
      "stop": {
        "id": "2_1233",
        "lat": 48.10704453,
        "lon": -1.72187845,
        "name": "Lemaistre",
        "code": 1233
      },
      "arrival": 39120,
      "departure": 39120
    },
    {
      "stop": {
        "id": "2_1234",
        "lat": 48.10775888,
        "lon": -1.71484897,
        "name": "Stade Rennais",
        "code": 1234
      },
      "arrival": 39180,
      "departure": 39180
    },
    {
      "stop": {
        "id": "2_1235",
        "lat": 48.10892663,
        "lon": -1.70977108,
        "name": "Géniaux",
        "code": 1235
      },
      "arrival": 39240,
      "departure": 39240
    },
    {
      "stop": {
        "id": "2_1236",
        "lat": 48.10881331,
        "lon": -1.7056153,
        "name": "Kerviler",
        "code": 1236
      },
      "arrival": 39300,
      "departure": 39300
    },
    {
      "stop": {
        "id": "2_1237",
        "lat": 48.10773621,
        "lon": -1.70211405,
        "name": "Papeteries",
        "code": 1237
      },
      "arrival": 39360,
      "departure": 39360
    },
    {
      "stop": {
        "id": "2_1238",
        "lat": 48.10869591,
        "lon": -1.69884796,
        "name": "Guilloux Lorient",
        "code": 1238
      },
      "arrival": 39420,
      "departure": 39420
    },
    {
      "stop": {
        "id": "2_1239",
        "lat": 48.10827073,
        "lon": -1.6941653,
        "name": "Chèques Postaux",
        "code": 1239
      },
      "arrival": 39480,
      "departure": 39480
    },
    {
      "stop": {
        "id": "2_1240",
        "lat": 48.10927186,
        "lon": -1.68970708,
        "name": "Le Mail",
        "code": 1240
      },
      "arrival": 39600,
      "departure": 39600
    },
    {
      "stop": {
        "id": "2_1091",
        "lat": 48.10977886,
        "lon": -1.68388248,
        "name": "Place de Bretagne",
        "code": 1091
      },
      "arrival": 39720,
      "departure": 39720
    },
    {
      "stop": {
        "id": "2_1242",
        "lat": 48.10980333,
        "lon": -1.6795219,
        "name": "République",
        "code": 1242
      },
      "arrival": 39900,
      "departure": 39900
    },
    {
      "stop": {
        "id": "2_1088",
        "lat": 48.10744897,
        "lon": -1.67491383,
        "name": "Liberté TNB",
        "code": 1088
      },
      "arrival": 40080,
      "departure": 40080
    },
    {
      "stop": {
        "id": "2_1087",
        "lat": 48.1060299,
        "lon": -1.67410184,
        "name": "Champs Libres",
        "code": 1087
      },
      "arrival": 40140,
      "departure": 40140
    },
    {
      "stop": {
        "id": "2_1477",
        "lat": 48.10388016,
        "lon": -1.67284842,
        "name": "Gares",
        "code": 1477
      },
      "arrival": 40200,
      "departure": 40200
    },
    {
      "stop": {
        "id": "2_1085",
        "lat": 48.10476768,
        "lon": -1.66658594,
        "name": "Laënnec",
        "code": 1085
      },
      "arrival": 40320,
      "departure": 40320
    },
    {
      "stop": {
        "id": "2_1243",
        "lat": 48.10254897,
        "lon": -1.66111869,
        "name": "Croix Saint-Hélier",
        "code": 1243
      },
      "arrival": 40380,
      "departure": 40380
    },
    {
      "stop": {
        "id": "2_1244",
        "lat": 48.10229227,
        "lon": -1.65513195,
        "name": "Mouézy",
        "code": 1244
      },
      "arrival": 40440,
      "departure": 40440
    },
    {
      "stop": {
        "id": "2_1211",
        "lat": 48.10317679,
        "lon": -1.65251241,
        "name": "Serpette",
        "code": 1211
      },
      "arrival": 40500,
      "departure": 40500
    },
    {
      "stop": {
        "id": "2_1246",
        "lat": 48.10439597,
        "lon": -1.64934184,
        "name": "Cimetière de l\u0027Est",
        "code": 1246
      },
      "arrival": 40560,
      "departure": 40560
    },
    {
      "stop": {
        "id": "2_1247",
        "lat": 48.10491097,
        "lon": -1.64382886,
        "name": "Pavie",
        "code": 1247
      },
      "arrival": 40620,
      "departure": 40620
    },
    {
      "stop": {
        "id": "2_1208",
        "lat": 48.10412827,
        "lon": -1.63784292,
        "name": "Saint-Saëns",
        "code": 1208
      },
      "arrival": 40680,
      "departure": 40680
    }
  ],
  "route": {
    "id": "2_0011",
    "textColor": "FFFFFF",
    "color": "DD84B1",
    "description": "Urbaine",
    "longName": "ZI Ouest / Stade Rennais \u003c\u003e Saint-Saëns / La Poterie",
    "shortName": "11",
    "type": 3,
    "agencyId": "2"
  }
}