{
  "headsign": "201 | Rennes Lycée Assomption",
  "stopTimes": [
    {
      "stop": {
        "id": "2_3301",
        "lat": 48.15515021,
        "lon": -1.57316318,
        "name": "Landelles",
        "code": 3301
      },
      "arrival": 30120,
      "departure": 30120
    },
    {
      "stop": {
        "id": "2_3322",
        "lat": 48.1492763,
        "lon": -1.57750308,
        "name": "Curien",
        "code": 3322
      },
      "arrival": 30240,
      "departure": 30240
    },
    {
      "stop": {
        "id": "2_3315",
        "lat": 48.15354798,
        "lon": -1.5798402,
        "name": "Thorigné Mairie",
        "code": 3315
      },
      "arrival": 30360,
      "departure": 30360
    },
    {
      "stop": {
        "id": "2_3314",
        "lat": 48.15594837,
        "lon": -1.58069511,
        "name": "Anne de Bretagne",
        "code": 3314
      },
      "arrival": 30420,
      "departure": 30420
    },
    {
      "stop": {
        "id": "2_3305",
        "lat": 48.15897926,
        "lon": -1.57970534,
        "name": "Bocage",
        "code": 3305
      },
      "arrival": 30480,
      "departure": 30480
    },
    {
      "stop": {
        "id": "2_3306",
        "lat": 48.16417683,
        "lon": -1.57932113,
        "name": "Juteauderies",
        "code": 3306
      },
      "arrival": 30600,
      "departure": 30600
    },
    {
      "stop": {
        "id": "2_3307",
        "lat": 48.16041313,
        "lon": -1.58594602,
        "name": "Fouillard",
        "code": 3307
      },
      "arrival": 30720,
      "departure": 30720
    },
    {
      "stop": {
        "id": "2_3309",
        "lat": 48.15626165,
        "lon": -1.59233418,
        "name": "Portail",
        "code": 3309
      },
      "arrival": 30780,
      "departure": 30780
    },
    {
      "stop": {
        "id": "2_2070",
        "lat": 48.14510684,
        "lon": -1.6086299,
        "name": "Victoire",
        "code": 2070
      },
      "arrival": 30960,
      "departure": 30960
    },
    {
      "stop": {
        "id": "2_2071",
        "lat": 48.14041547,
        "lon": -1.61679887,
        "name": "Calendrou",
        "code": 2071
      },
      "arrival": 31020,
      "departure": 31020
    },
    {
      "stop": {
        "id": "2_2076",
        "lat": 48.13406637,
        "lon": -1.6290629,
        "name": "Lande Bouhard",
        "code": 2076
      },
      "arrival": 31200,
      "departure": 31200
    },
    {
      "stop": {
        "id": "2_1409",
        "lat": 48.12687028,
        "lon": -1.65316527,
        "name": "Joliot-Curie",
        "code": 1409
      },
      "arrival": 31500,
      "departure": 31500
    },
    {
      "stop": {
        "id": "2_1614",
        "lat": 48.12197155,
        "lon": -1.65648873,
        "name": "Assomption",
        "code": 1614
      },
      "arrival": 31800,
      "departure": 31800
    }
  ],
  "route": {
    "id": "2_0201",
    "textColor": "FFFFFF",
    "color": "E30613",
    "description": "Complémentaire",
    "longName": "Thorigné-Fouillard (Landelles) \u003c\u003e Rennes (Lycée Assomption)",
    "shortName": "201",
    "type": 3,
    "agencyId": "2"
  }
}