{
  "headsign": "94 | Betton Centre",
  "stopTimes": [
    {
      "stop": {
        "id": "2_3951",
        "lat": 48.22528095,
        "lon": -1.57037306,
        "name": "Cropy",
        "code": 3951
      },
      "arrival": 34680,
      "departure": 34680
    },
    {
      "stop": {
        "id": "2_3952",
        "lat": 48.223221,
        "lon": -1.5763179,
        "name": "Chesnais",
        "code": 3952
      },
      "arrival": 34740,
      "departure": 34740
    },
    {
      "stop": {
        "id": "2_3953",
        "lat": 48.21792113,
        "lon": -1.58142255,
        "name": "Bourg",
        "code": 3953
      },
      "arrival": 34800,
      "departure": 34800
    },
    {
      "stop": {
        "id": "2_3960",
        "lat": 48.2146956,
        "lon": -1.58674396,
        "name": "Terrain des Sports",
        "code": 3960
      },
      "arrival": 34860,
      "departure": 34860
    },
    {
      "stop": {
        "id": "2_3955",
        "lat": 48.21169143,
        "lon": -1.59075734,
        "name": "Tronchay",
        "code": 3955
      },
      "arrival": 34920,
      "departure": 34920
    },
    {
      "stop": {
        "id": "2_2406",
        "lat": 48.18119826,
        "lon": -1.6380241,
        "name": "Betton Centre",
        "code": 2406
      },
      "arrival": 35520,
      "departure": 35520
    }
  ],
  "route": {
    "id": "2_0094",
    "textColor": "1A171B",
    "color": "AECC52",
    "description": "Intercommunale",
    "longName": "Saint-Sulpice-la-Forêt / Chevaigné \u003c\u003e Betton (Centre)",
    "shortName": "94",
    "type": 3,
    "agencyId": "2"
  }
}