{
  "headsign": "50 | Thorigné-Fouillard",
  "stopTimes": [
    {
      "stop": {
        "id": "2_1563",
        "lat": 48.10969683,
        "lon": -1.67818363,
        "name": "République",
        "code": 1563
      },
      "arrival": 64800,
      "departure": 64800
    },
    {
      "stop": {
        "id": "2_1169",
        "lat": 48.10985334,
        "lon": -1.67452094,
        "name": "Musée Beaux Arts",
        "code": 1169
      },
      "arrival": 64860,
      "departure": 64860
    },
    {
      "stop": {
        "id": "2_1172",
        "lat": 48.11007924,
        "lon": -1.65919453,
        "name": "Robidou",
        "code": 1172
      },
      "arrival": 65040,
      "departure": 65040
    },
    {
      "stop": {
        "id": "2_1515",
        "lat": 48.11350079,
        "lon": -1.64755396,
        "name": "Moulin de Joué",
        "code": 1515
      },
      "arrival": 65220,
      "departure": 65220
    },
    {
      "stop": {
        "id": "2_1516",
        "lat": 48.11595285,
        "lon": -1.64840733,
        "name": "Bois Perrin",
        "code": 1516
      },
      "arrival": 65280,
      "departure": 65280
    },
    {
      "stop": {
        "id": "2_1152",
        "lat": 48.12043354,
        "lon": -1.65067299,
        "name": "Docteur Quentin",
        "code": 1152
      },
      "arrival": 65340,
      "departure": 65340
    },
    {
      "stop": {
        "id": "2_1034",
        "lat": 48.12221902,
        "lon": -1.65061867,
        "name": "Turmel",
        "code": 1034
      },
      "arrival": 65400,
      "departure": 65400
    },
    {
      "stop": {
        "id": "2_1035",
        "lat": 48.12370157,
        "lon": -1.64529281,
        "name": "Mirabeau",
        "code": 1035
      },
      "arrival": 65460,
      "departure": 65460
    },
    {
      "stop": {
        "id": "2_1036",
        "lat": 48.12553894,
        "lon": -1.64212893,
        "name": "Donzelot",
        "code": 1036
      },
      "arrival": 65520,
      "departure": 65520
    },
    {
      "stop": {
        "id": "2_1481",
        "lat": 48.12981846,
        "lon": -1.64241093,
        "name": "Zac Saint-Sulpice",
        "code": 1481
      },
      "arrival": 65640,
      "departure": 65640
    },
    {
      "stop": {
        "id": "2_1480",
        "lat": 48.13202871,
        "lon": -1.63503782,
        "name": "Gaudinais",
        "code": 1480
      },
      "arrival": 65760,
      "departure": 65760
    },
    {
      "stop": {
        "id": "2_2077",
        "lat": 48.13420321,
        "lon": -1.62879212,
        "name": "Lande Bouhard",
        "code": 2077
      },
      "arrival": 65820,
      "departure": 65820
    },
    {
      "stop": {
        "id": "2_2115",
        "lat": 48.13735095,
        "lon": -1.62275039,
        "name": "Château de Vaux",
        "code": 2115
      },
      "arrival": 66000,
      "departure": 66000
    },
    {
      "stop": {
        "id": "2_2072",
        "lat": 48.14059929,
        "lon": -1.61647827,
        "name": "Calendrou",
        "code": 2072
      },
      "arrival": 66060,
      "departure": 66060
    },
    {
      "stop": {
        "id": "2_2073",
        "lat": 48.14510205,
        "lon": -1.60852174,
        "name": "Victoire",
        "code": 2073
      },
      "arrival": 66120,
      "departure": 66120
    },
    {
      "stop": {
        "id": "2_3310",
        "lat": 48.15630543,
        "lon": -1.59213593,
        "name": "Portail",
        "code": 3310
      },
      "arrival": 66360,
      "departure": 66360
    },
    {
      "stop": {
        "id": "2_3311",
        "lat": 48.16050547,
        "lon": -1.58565766,
        "name": "Fouillard",
        "code": 3311
      },
      "arrival": 66420,
      "departure": 66420
    },
    {
      "stop": {
        "id": "2_3312",
        "lat": 48.16302115,
        "lon": -1.57914001,
        "name": "Juteauderies",
        "code": 3312
      },
      "arrival": 66600,
      "departure": 66600
    },
    {
      "stop": {
        "id": "2_3313",
        "lat": 48.15918482,
        "lon": -1.57975012,
        "name": "Bocage",
        "code": 3313
      },
      "arrival": 66660,
      "departure": 66660
    },
    {
      "stop": {
        "id": "2_3304",
        "lat": 48.15563877,
        "lon": -1.580776,
        "name": "Anne de Bretagne",
        "code": 3304
      },
      "arrival": 66720,
      "departure": 66720
    },
    {
      "stop": {
        "id": "2_3302",
        "lat": 48.1530775,
        "lon": -1.57942222,
        "name": "Thorigné Mairie",
        "code": 3302
      },
      "arrival": 66780,
      "departure": 66780
    },
    {
      "stop": {
        "id": "2_3323",
        "lat": 48.14928986,
        "lon": -1.57715406,
        "name": "Curien",
        "code": 3323
      },
      "arrival": 66900,
      "departure": 66900
    },
    {
      "stop": {
        "id": "2_3301",
        "lat": 48.15515021,
        "lon": -1.57316318,
        "name": "Landelles",
        "code": 3301
      },
      "arrival": 67020,
      "departure": 67020
    }
  ],
  "route": {
    "id": "2_0050",
    "textColor": "ffffff",
    "color": "8ea1cf",
    "description": "Métropolitaine",
    "longName": "Rennes (République) \u003c\u003e Thorigné-Fouillard",
    "shortName": "50",
    "type": 3,
    "agencyId": "2"
  }
}