{
  "headsign": "4 | République",
  "stopTimes": [
    {
      "stop": {
        "id": "2_1475",
        "lat": 48.12695887,
        "lon": -1.62918033,
        "name": "Clos Courtel",
        "code": 1475
      },
      "arrival": 72180,
      "departure": 72180
    },
    {
      "stop": {
        "id": "2_1291",
        "lat": 48.12475494,
        "lon": -1.63388412,
        "name": "IUT",
        "code": 1291
      },
      "arrival": 72240,
      "departure": 72240
    },
    {
      "stop": {
        "id": "2_1292",
        "lat": 48.12145018,
        "lon": -1.63814809,
        "name": "Beaulieu Restau. U.",
        "code": 1292
      },
      "arrival": 72360,
      "departure": 72360
    },
    {
      "stop": {
        "id": "2_1176",
        "lat": 48.11901733,
        "lon": -1.63514782,
        "name": "Beaulieu INSA",
        "code": 1176
      },
      "arrival": 72420,
      "departure": 72420
    },
    {
      "stop": {
        "id": "2_1312",
        "lat": 48.1166495,
        "lon": -1.63393042,
        "name": "Beaulieu Chimie",
        "code": 1312
      },
      "arrival": 72480,
      "departure": 72480
    },
    {
      "stop": {
        "id": "2_1160",
        "lat": 48.11406412,
        "lon": -1.63761839,
        "name": "Tournebride",
        "code": 1160
      },
      "arrival": 72540,
      "departure": 72540
    },
    {
      "stop": {
        "id": "2_1603",
        "lat": 48.11319466,
        "lon": -1.64121462,
        "name": "Préales",
        "code": 1603
      },
      "arrival": 72600,
      "departure": 72600
    },
    {
      "stop": {
        "id": "2_1161",
        "lat": 48.11219183,
        "lon": -1.64423633,
        "name": "Plaine de Baud",
        "code": 1161
      },
      "arrival": 72660,
      "departure": 72660
    },
    {
      "stop": {
        "id": "2_1162",
        "lat": 48.1103356,
        "lon": -1.6559754,
        "name": "Pont de Strasbourg",
        "code": 1162
      },
      "arrival": 72780,
      "departure": 72780
    },
    {
      "stop": {
        "id": "2_1163",
        "lat": 48.1101066,
        "lon": -1.66054614,
        "name": "Robidou",
        "code": 1163
      },
      "arrival": 72840,
      "departure": 72840
    },
    {
      "stop": {
        "id": "2_1164",
        "lat": 48.11009515,
        "lon": -1.66397755,
        "name": "Pont de Châteaudun",
        "code": 1164
      },
      "arrival": 72900,
      "departure": 72900
    },
    {
      "stop": {
        "id": "2_1165",
        "lat": 48.11006169,
        "lon": -1.67017835,
        "name": "Paul Bert",
        "code": 1165
      },
      "arrival": 72960,
      "departure": 72960
    },
    {
      "stop": {
        "id": "2_1166",
        "lat": 48.10988328,
        "lon": -1.67512929,
        "name": "Musée Beaux Arts",
        "code": 1166
      },
      "arrival": 73020,
      "departure": 73020
    },
    {
      "stop": {
        "id": "2_1168",
        "lat": 48.10980866,
        "lon": -1.67882417,
        "name": "République",
        "code": 1168
      },
      "arrival": 73140,
      "departure": 73140
    }
  ],
  "route": {
    "id": "2_0004",
    "textColor": "FFFFFF",
    "color": "6F177E",
    "description": "Majeure",
    "longName": "Beauregard \u003c\u003e Beaulieu Atalante",
    "shortName": "4",
    "type": 3,
    "agencyId": "2"
  }
}