{
  "headsign": "210 | L\u0027Hermitage Mordelles",
  "stopTimes": [
    {
      "stop": {
        "id": "2_1566",
        "lat": 48.12537009,
        "lon": -1.69257643,
        "name": "Lycée Basch",
        "code": 1566
      },
      "arrival": 65400,
      "departure": 65400
    },
    {
      "stop": {
        "id": "2_1307",
        "lat": 48.12192614,
        "lon": -1.70388916,
        "name": "Villejean-Université",
        "code": 1307
      },
      "arrival": 65700,
      "departure": 65700
    },
    {
      "stop": {
        "id": "2_1499",
        "lat": 48.11626024,
        "lon": -1.71595794,
        "name": "Colin",
        "code": 1499
      },
      "arrival": 66060,
      "departure": 66060
    },
    {
      "stop": {
        "id": "2_1498",
        "lat": 48.11658191,
        "lon": -1.72390238,
        "name": "Petit Champeaux",
        "code": 1498
      },
      "arrival": 66120,
      "departure": 66120
    },
    {
      "stop": {
        "id": "2_3760",
        "lat": 48.11770317,
        "lon": -1.73100316,
        "name": "Champ Noël",
        "code": 3760
      },
      "arrival": 66180,
      "departure": 66180
    },
    {
      "stop": {
        "id": "2_3761",
        "lat": 48.11835117,
        "lon": -1.74111786,
        "name": "Tertre",
        "code": 3761
      },
      "arrival": 66240,
      "departure": 66240
    },
    {
      "stop": {
        "id": "2_3764",
        "lat": 48.12036615,
        "lon": -1.76557329,
        "name": "Vallée",
        "code": 3764
      },
      "arrival": 66420,
      "departure": 66420
    },
    {
      "stop": {
        "id": "2_3765",
        "lat": 48.12097559,
        "lon": -1.7716735,
        "name": "Haie de Terre",
        "code": 3765
      },
      "arrival": 66480,
      "departure": 66480
    },
    {
      "stop": {
        "id": "2_4315",
        "lat": 48.12294892,
        "lon": -1.80230832,
        "name": "Noë Biche",
        "code": 4315
      },
      "arrival": 66660,
      "departure": 66660
    },
    {
      "stop": {
        "id": "2_4307",
        "lat": 48.12346101,
        "lon": -1.80743913,
        "name": "Clairefontaine",
        "code": 4307
      },
      "arrival": 66720,
      "departure": 66720
    },
    {
      "stop": {
        "id": "2_4308",
        "lat": 48.12499565,
        "lon": -1.81290303,
        "name": "Village",
        "code": 4308
      },
      "arrival": 66780,
      "departure": 66780
    },
    {
      "stop": {
        "id": "2_4304",
        "lat": 48.12551567,
        "lon": -1.81606092,
        "name": "L\u0027Hermitage Centre",
        "code": 4304
      },
      "arrival": 66840,
      "departure": 66840
    },
    {
      "stop": {
        "id": "2_3862",
        "lat": 48.07780007,
        "lon": -1.83732775,
        "name": "Gretay",
        "code": 3862
      },
      "arrival": 67500,
      "departure": 67500
    },
    {
      "stop": {
        "id": "2_3863",
        "lat": 48.0755735,
        "lon": -1.84280109,
        "name": "Mordelles Lilas",
        "code": 3863
      },
      "arrival": 67560,
      "departure": 67560
    },
    {
      "stop": {
        "id": "2_3864",
        "lat": 48.07357073,
        "lon": -1.84677438,
        "name": "Mordelles Mairie",
        "code": 3864
      },
      "arrival": 67680,
      "departure": 67680
    },
    {
      "stop": {
        "id": "2_3865",
        "lat": 48.07185149,
        "lon": -1.85020843,
        "name": "Mordelles Eglise",
        "code": 3865
      },
      "arrival": 67680,
      "departure": 67680
    },
    {
      "stop": {
        "id": "2_3851",
        "lat": 48.07460255,
        "lon": -1.85367611,
        "name": "Mordelles Pâtis",
        "code": 3851
      },
      "arrival": 67800,
      "departure": 67800
    }
  ],
  "route": {
    "id": "2_0210",
    "textColor": "FFFFFF",
    "color": "E30613",
    "description": "Complémentaire",
    "longName": "Mordelles (Pâtis) \u003c\u003e Rennes (Lycée V.H. Basch)",
    "shortName": "210",
    "type": 3,
    "agencyId": "2"
  }
}