{
  "headsign": "1 | Rennes République",
  "stopTimes": [
    {
      "stop": {
        "id": "2_2116",
        "lat": 48.13488248,
        "lon": -1.62068447,
        "name": "Champs Blancs",
        "code": 2116
      },
      "arrival": 74100,
      "departure": 74100
    },
    {
      "stop": {
        "id": "2_2105",
        "lat": 48.13105331,
        "lon": -1.62462479,
        "name": "Chêne Germain",
        "code": 2105
      },
      "arrival": 74220,
      "departure": 74220
    },
    {
      "stop": {
        "id": "2_2002",
        "lat": 48.13023268,
        "lon": -1.62752844,
        "name": "Cesson Hôpital Privé",
        "code": 2002
      },
      "arrival": 74280,
      "departure": 74280
    },
    {
      "stop": {
        "id": "2_1001",
        "lat": 48.12903716,
        "lon": -1.6325079,
        "name": "Longs Champs",
        "code": 1001
      },
      "arrival": 74340,
      "departure": 74340
    },
    {
      "stop": {
        "id": "2_1002",
        "lat": 48.12826604,
        "lon": -1.63765619,
        "name": "Bouzat",
        "code": 1002
      },
      "arrival": 74460,
      "departure": 74460
    },
    {
      "stop": {
        "id": "2_1003",
        "lat": 48.12744122,
        "lon": -1.64029002,
        "name": "Gallets",
        "code": 1003
      },
      "arrival": 74460,
      "departure": 74460
    },
    {
      "stop": {
        "id": "2_1004",
        "lat": 48.12528847,
        "lon": -1.64253775,
        "name": "Donzelot",
        "code": 1004
      },
      "arrival": 74580,
      "departure": 74580
    },
    {
      "stop": {
        "id": "2_1005",
        "lat": 48.1233588,
        "lon": -1.64623199,
        "name": "Mirabeau",
        "code": 1005
      },
      "arrival": 74640,
      "departure": 74640
    },
    {
      "stop": {
        "id": "2_1006",
        "lat": 48.12226258,
        "lon": -1.65069568,
        "name": "Turmel",
        "code": 1006
      },
      "arrival": 74700,
      "departure": 74700
    },
    {
      "stop": {
        "id": "2_1007",
        "lat": 48.12141888,
        "lon": -1.65505801,
        "name": "Assomption",
        "code": 1007
      },
      "arrival": 74760,
      "departure": 74760
    },
    {
      "stop": {
        "id": "2_1008",
        "lat": 48.12317413,
        "lon": -1.6602443,
        "name": "Painlevé",
        "code": 1008
      },
      "arrival": 74880,
      "departure": 74880
    },
    {
      "stop": {
        "id": "2_1009",
        "lat": 48.12162483,
        "lon": -1.6631771,
        "name": "Metz Volney",
        "code": 1009
      },
      "arrival": 74940,
      "departure": 74940
    },
    {
      "stop": {
        "id": "2_1010",
        "lat": 48.11917574,
        "lon": -1.66765915,
        "name": "Guéhenno",
        "code": 1010
      },
      "arrival": 75000,
      "departure": 75000
    },
    {
      "stop": {
        "id": "2_1011",
        "lat": 48.11830509,
        "lon": -1.67120349,
        "name": "Fac de Droit",
        "code": 1011
      },
      "arrival": 75060,
      "departure": 75060
    },
    {
      "stop": {
        "id": "2_1012",
        "lat": 48.11618009,
        "lon": -1.67409822,
        "name": "Sévigné",
        "code": 1012
      },
      "arrival": 75120,
      "departure": 75120
    },
    {
      "stop": {
        "id": "2_1014",
        "lat": 48.11371103,
        "lon": -1.67903599,
        "name": "Sainte-Anne",
        "code": 1014
      },
      "arrival": 75300,
      "departure": 75300
    },
    {
      "stop": {
        "id": "2_1015",
        "lat": 48.11252173,
        "lon": -1.68031651,
        "name": "Champ Jacquet",
        "code": 1015
      },
      "arrival": 75360,
      "departure": 75360
    },
    {
      "stop": {
        "id": "2_1024",
        "lat": 48.10997886,
        "lon": -1.68021216,
        "name": "République Nemours",
        "code": 1024
      },
      "arrival": 75480,
      "departure": 75480
    }
  ],
  "route": {
    "id": "2_0001",
    "textColor": "FFFFFF",
    "color": "90C01B",
    "description": "Majeure",
    "longName": "Cesson-Sévigné (Champs Blancs) \u003c\u003e Chantepie (Rosa Parks)",
    "shortName": "1",
    "type": 3,
    "agencyId": "2"
  }
}