{
  "headsign": "77 | Pacé Parthenay",
  "stopTimes": [
    {
      "stop": {
        "id": "2_1567",
        "lat": 48.1062288,
        "lon": -1.67750174,
        "name": "Charles de Gaulle",
        "code": 1567
      },
      "arrival": 6300,
      "departure": 6300
    },
    {
      "stop": {
        "id": "2_1519",
        "lat": 48.12110069,
        "lon": -1.70297631,
        "name": "Villejean-Université",
        "code": 1519
      },
      "arrival": 6900,
      "departure": 6900
    },
    {
      "stop": {
        "id": "2_1518",
        "lat": 48.12062672,
        "lon": -1.71046453,
        "name": "Bourbonnais",
        "code": 1518
      },
      "arrival": 7080,
      "departure": 7080
    },
    {
      "stop": {
        "id": "2_1521",
        "lat": 48.11845974,
        "lon": -1.71376004,
        "name": "Berry",
        "code": 1521
      },
      "arrival": 7140,
      "departure": 7140
    },
    {
      "stop": {
        "id": "2_3113",
        "lat": 48.14335637,
        "lon": -1.7704102,
        "name": "Le Ponant",
        "code": 3113
      },
      "arrival": 7500,
      "departure": 7500
    },
    {
      "stop": {
        "id": "2_3114",
        "lat": 48.14572649,
        "lon": -1.77065135,
        "name": "Carré Dumaine",
        "code": 3114
      },
      "arrival": 7560,
      "departure": 7560
    },
    {
      "stop": {
        "id": "2_3115",
        "lat": 48.1479969,
        "lon": -1.7697924,
        "name": "Pacé Cimetière",
        "code": 3115
      },
      "arrival": 7620,
      "departure": 7620
    },
    {
      "stop": {
        "id": "2_3130",
        "lat": 48.15155536,
        "lon": -1.77051816,
        "name": "Le Brix",
        "code": 3130
      },
      "arrival": 7740,
      "departure": 7740
    },
    {
      "stop": {
        "id": "2_3131",
        "lat": 48.15444094,
        "lon": -1.7704961,
        "name": "Pacé Collèges",
        "code": 3131
      },
      "arrival": 7800,
      "departure": 7800
    },
    {
      "stop": {
        "id": "2_3132",
        "lat": 48.15542425,
        "lon": -1.76468404,
        "name": "Champalaune",
        "code": 3132
      },
      "arrival": 7860,
      "departure": 7860
    },
    {
      "stop": {
        "id": "2_3133",
        "lat": 48.15728468,
        "lon": -1.76571429,
        "name": "Ouessant",
        "code": 3133
      },
      "arrival": 7920,
      "departure": 7920
    },
    {
      "stop": {
        "id": "2_3125",
        "lat": 48.16046526,
        "lon": -1.7679822,
        "name": "Pâtis Roussel",
        "code": 3125
      },
      "arrival": 7980,
      "departure": 7980
    },
    {
      "stop": {
        "id": "2_3116",
        "lat": 48.15088755,
        "lon": -1.77187229,
        "name": "Duchesse Anne",
        "code": 3116
      },
      "arrival": 8220,
      "departure": 8220
    },
    {
      "stop": {
        "id": "2_3117",
        "lat": 48.15123454,
        "lon": -1.77754822,
        "name": "Renan",
        "code": 3117
      },
      "arrival": 8280,
      "departure": 8280
    },
    {
      "stop": {
        "id": "2_3141",
        "lat": 48.15471747,
        "lon": -1.78435726,
        "name": "Pont Amelin",
        "code": 3141
      },
      "arrival": 8340,
      "departure": 8340
    },
    {
      "stop": {
        "id": "2_3143",
        "lat": 48.16992161,
        "lon": -1.78800014,
        "name": "Haute Rabine",
        "code": 3143
      },
      "arrival": 8520,
      "departure": 8520
    },
    {
      "stop": {
        "id": "2_3124",
        "lat": 48.17528483,
        "lon": -1.79000995,
        "name": "Chapitre",
        "code": 3124
      },
      "arrival": 8580,
      "departure": 8580
    },
    {
      "stop": {
        "id": "2_3146",
        "lat": 48.18007473,
        "lon": -1.80190215,
        "name": "Touche Champagne",
        "code": 3146
      },
      "arrival": 8700,
      "departure": 8700
    },
    {
      "stop": {
        "id": "2_3611",
        "lat": 48.18636688,
        "lon": -1.81649511,
        "name": "Le Reuvre",
        "code": 3611
      },
      "arrival": 8820,
      "departure": 8820
    },
    {
      "stop": {
        "id": "2_3612",
        "lat": 48.18991366,
        "lon": -1.82014907,
        "name": "Placis de la Touche",
        "code": 3612
      },
      "arrival": 8880,
      "departure": 8880
    },
    {
      "stop": {
        "id": "2_3613",
        "lat": 48.19124712,
        "lon": -1.82435607,
        "name": "La Noë",
        "code": 3613
      },
      "arrival": 8880,
      "departure": 8880
    },
    {
      "stop": {
        "id": "2_3614",
        "lat": 48.19177543,
        "lon": -1.82774803,
        "name": "Clos des Tilleuls",
        "code": 3614
      },
      "arrival": 8940,
      "departure": 8940
    },
    {
      "stop": {
        "id": "2_3615",
        "lat": 48.19212549,
        "lon": -1.83142977,
        "name": "Parthenay Mairie",
        "code": 3615
      },
      "arrival": 8940,
      "departure": 8940
    },
    {
      "stop": {
        "id": "2_3617",
        "lat": 48.194415,
        "lon": -1.832078,
        "name": "Parthenay Fontaine",
        "code": 3617
      },
      "arrival": 9000,
      "departure": 9000
    }
  ],
  "route": {
    "id": "2_0077",
    "textColor": "201d21",
    "color": "f6c200",
    "description": "Métropolitaine",
    "longName": "Rennes (Villejean-Université) \u003c\u003e Pacé",
    "shortName": "77",
    "type": 3,
    "agencyId": "2"
  }
}