{
  "headsign": "94 | Chevaigné",
  "stopTimes": [
    {
      "stop": {
        "id": "2_2417",
        "lat": 48.18170386,
        "lon": -1.63855109,
        "name": "Betton Centre",
        "code": 2417
      },
      "arrival": 62820,
      "departure": 62820
    },
    {
      "stop": {
        "id": "2_2435",
        "lat": 48.18305974,
        "lon": -1.63721735,
        "name": "Mozart",
        "code": 2435
      },
      "arrival": 62880,
      "departure": 62880
    },
    {
      "stop": {
        "id": "2_2434",
        "lat": 48.18635458,
        "lon": -1.63319375,
        "name": "J. Sébastien Bach",
        "code": 2434
      },
      "arrival": 62940,
      "departure": 62940
    },
    {
      "stop": {
        "id": "2_2458",
        "lat": 48.19099575,
        "lon": -1.6289883,
        "name": "Gentilhommière",
        "code": 2458
      },
      "arrival": 63060,
      "departure": 63060
    },
    {
      "stop": {
        "id": "2_4610",
        "lat": 48.19918213,
        "lon": -1.62764716,
        "name": "Chopinais",
        "code": 4610
      },
      "arrival": 63180,
      "departure": 63180
    },
    {
      "stop": {
        "id": "2_4608",
        "lat": 48.20787045,
        "lon": -1.63064822,
        "name": "Chevaigné Gare",
        "code": 4608
      },
      "arrival": 63300,
      "departure": 63300
    },
    {
      "stop": {
        "id": "2_4601",
        "lat": 48.21171751,
        "lon": -1.63046022,
        "name": "Chevaigné Mairie",
        "code": 4601
      },
      "arrival": 63360,
      "departure": 63360
    },
    {
      "stop": {
        "id": "2_4602",
        "lat": 48.21431434,
        "lon": -1.62905651,
        "name": "Fonderies",
        "code": 4602
      },
      "arrival": 63420,
      "departure": 63420
    },
    {
      "stop": {
        "id": "2_4603",
        "lat": 48.21095412,
        "lon": -1.62602395,
        "name": "Pommiers",
        "code": 4603
      },
      "arrival": 63480,
      "departure": 63480
    }
  ],
  "route": {
    "id": "2_0094",
    "textColor": "1A171B",
    "color": "AECC52",
    "description": "Intercommunale",
    "longName": "Saint-Sulpice-la-Forêt / Chevaigné \u003c\u003e Betton (Centre)",
    "shortName": "94",
    "type": 3,
    "agencyId": "2"
  }
}