{
  "headsign": "94 | Betton Centre",
  "stopTimes": [
    {
      "stop": {
        "id": "2_3951",
        "lat": 48.225212,
        "lon": -1.570409,
        "name": "Cropy",
        "code": 3951
      },
      "arrival": 30720,
      "departure": 30720
    },
    {
      "stop": {
        "id": "2_3952",
        "lat": 48.223261,
        "lon": -1.576352,
        "name": "Chesnais",
        "code": 3952
      },
      "arrival": 30780,
      "departure": 30780
    },
    {
      "stop": {
        "id": "2_3953",
        "lat": 48.217907,
        "lon": -1.581457,
        "name": "Bourg",
        "code": 3953
      },
      "arrival": 30840,
      "departure": 30840
    },
    {
      "stop": {
        "id": "2_3960",
        "lat": 48.214637,
        "lon": -1.586893,
        "name": "Terrain des Sports",
        "code": 3960
      },
      "arrival": 30900,
      "departure": 30900
    },
    {
      "stop": {
        "id": "2_3955",
        "lat": 48.211688,
        "lon": -1.590809,
        "name": "Tronchay",
        "code": 3955
      },
      "arrival": 30960,
      "departure": 30960
    },
    {
      "stop": {
        "id": "2_4604",
        "lat": 48.209944,
        "lon": -1.625841,
        "name": "Pommiers",
        "code": 4604
      },
      "arrival": 31260,
      "departure": 31260
    },
    {
      "stop": {
        "id": "2_4605",
        "lat": 48.214395,
        "lon": -1.628958,
        "name": "Fonderies",
        "code": 4605
      },
      "arrival": 31320,
      "departure": 31320
    },
    {
      "stop": {
        "id": "2_4606",
        "lat": 48.211961,
        "lon": -1.630307,
        "name": "Chevaigné Mairie",
        "code": 4606
      },
      "arrival": 31380,
      "departure": 31380
    },
    {
      "stop": {
        "id": "2_4607",
        "lat": 48.207641,
        "lon": -1.630846,
        "name": "Chevaigné Gare",
        "code": 4607
      },
      "arrival": 31440,
      "departure": 31440
    },
    {
      "stop": {
        "id": "2_4609",
        "lat": 48.199145,
        "lon": -1.627451,
        "name": "Chopinais",
        "code": 4609
      },
      "arrival": 31560,
      "departure": 31560
    },
    {
      "stop": {
        "id": "2_2451",
        "lat": 48.19085,
        "lon": -1.629331,
        "name": "Gentilhommière",
        "code": 2451
      },
      "arrival": 31680,
      "departure": 31680
    },
    {
      "stop": {
        "id": "2_2432",
        "lat": 48.186271,
        "lon": -1.633356,
        "name": "J. Sébastien Bach",
        "code": 2432
      },
      "arrival": 31800,
      "departure": 31800
    },
    {
      "stop": {
        "id": "2_2431",
        "lat": 48.182984,
        "lon": -1.637374,
        "name": "Mozart",
        "code": 2431
      },
      "arrival": 31860,
      "departure": 31860
    },
    {
      "stop": {
        "id": "2_2406",
        "lat": 48.181123,
        "lon": -1.637898,
        "name": "Betton Centre",
        "code": 2406
      },
      "arrival": 31920,
      "departure": 31920
    }
  ],
  "route": {
    "id": "2_0094",
    "textColor": "1A171B",
    "color": "AECC52",
    "description": "Intercommunale",
    "longName": "Saint-Sulpice-la-Forêt / Chevaigné \u003c\u003e Betton (Centre)",
    "shortName": "94",
    "type": 3,
    "agencyId": "2"
  }
}