{
  "headsign": "1 | Cesson-Sévigné Champs Blancs",
  "stopTimes": [
    {
      "stop": {
        "id": "2_3028",
        "lat": 48.0857666,
        "lon": -1.6040872,
        "name": "Rosa Parks",
        "code": 3028
      },
      "arrival": 31740,
      "departure": 31740
    },
    {
      "stop": {
        "id": "2_3027",
        "lat": 48.08576141,
        "lon": -1.60813614,
        "name": "Touche Annette",
        "code": 3027
      },
      "arrival": 31800,
      "departure": 31800
    },
    {
      "stop": {
        "id": "2_3032",
        "lat": 48.08517236,
        "lon": -1.61074847,
        "name": "Gériatrie",
        "code": 3032
      },
      "arrival": 31860,
      "departure": 31860
    },
    {
      "stop": {
        "id": "2_3002",
        "lat": 48.0857269,
        "lon": -1.61407942,
        "name": "Deux Ruisseaux",
        "code": 3002
      },
      "arrival": 31920,
      "departure": 31920
    },
    {
      "stop": {
        "id": "2_3003",
        "lat": 48.08911849,
        "lon": -1.61263999,
        "name": "Bourgogne",
        "code": 3003
      },
      "arrival": 32040,
      "departure": 32040
    },
    {
      "stop": {
        "id": "2_3004",
        "lat": 48.09034405,
        "lon": -1.61586838,
        "name": "Hallouvry",
        "code": 3004
      },
      "arrival": 32100,
      "departure": 32100
    },
    {
      "stop": {
        "id": "2_3005",
        "lat": 48.08822108,
        "lon": -1.61690724,
        "name": "Chantepie Eglise",
        "code": 3005
      },
      "arrival": 32160,
      "departure": 32160
    },
    {
      "stop": {
        "id": "2_3006",
        "lat": 48.08879928,
        "lon": -1.62054998,
        "name": "Chantepie Mairie",
        "code": 3006
      },
      "arrival": 32220,
      "departure": 32220
    },
    {
      "stop": {
        "id": "2_3007",
        "lat": 48.09040826,
        "lon": -1.62387938,
        "name": "Loges",
        "code": 3007
      },
      "arrival": 32280,
      "departure": 32280
    },
    {
      "stop": {
        "id": "2_1322",
        "lat": 48.09430784,
        "lon": -1.63474285,
        "name": "Sauvaie",
        "code": 1322
      },
      "arrival": 32580,
      "departure": 32580
    },
    {
      "stop": {
        "id": "2_1323",
        "lat": 48.09543821,
        "lon": -1.63808487,
        "name": "CARSAT",
        "code": 1323
      },
      "arrival": 32640,
      "departure": 32640
    },
    {
      "stop": {
        "id": "2_1324",
        "lat": 48.09761101,
        "lon": -1.6424202,
        "name": "Domaine",
        "code": 1324
      },
      "arrival": 32700,
      "departure": 32700
    },
    {
      "stop": {
        "id": "2_1325",
        "lat": 48.09943332,
        "lon": -1.64672508,
        "name": "Landry",
        "code": 1325
      },
      "arrival": 32760,
      "departure": 32760
    },
    {
      "stop": {
        "id": "2_1470",
        "lat": 48.10058076,
        "lon": -1.65031144,
        "name": "Villebois-Mareuil",
        "code": 1470
      },
      "arrival": 32820,
      "departure": 32820
    },
    {
      "stop": {
        "id": "2_1327",
        "lat": 48.10137672,
        "lon": -1.65366515,
        "name": "Raison",
        "code": 1327
      },
      "arrival": 32880,
      "departure": 32880
    },
    {
      "stop": {
        "id": "2_1212",
        "lat": 48.10191268,
        "lon": -1.65652502,
        "name": "Mouézy",
        "code": 1212
      },
      "arrival": 32940,
      "departure": 32940
    },
    {
      "stop": {
        "id": "2_1213",
        "lat": 48.10287126,
        "lon": -1.66143906,
        "name": "Croix Saint-Hélier",
        "code": 1213
      },
      "arrival": 33000,
      "departure": 33000
    },
    {
      "stop": {
        "id": "2_1057",
        "lat": 48.10521928,
        "lon": -1.66612986,
        "name": "Laënnec",
        "code": 1057
      },
      "arrival": 33120,
      "departure": 33120
    },
    {
      "stop": {
        "id": "2_1056",
        "lat": 48.10398974,
        "lon": -1.67213136,
        "name": "Gares",
        "code": 1056
      },
      "arrival": 33300,
      "departure": 33300
    },
    {
      "stop": {
        "id": "2_1055",
        "lat": 48.1053351,
        "lon": -1.67389232,
        "name": "Champs Libres",
        "code": 1055
      },
      "arrival": 33420,
      "departure": 33420
    },
    {
      "stop": {
        "id": "2_1054",
        "lat": 48.10755037,
        "lon": -1.67508432,
        "name": "Liberté TNB",
        "code": 1054
      },
      "arrival": 33480,
      "departure": 33480
    },
    {
      "stop": {
        "id": "2_1023",
        "lat": 48.10798151,
        "lon": -1.68011595,
        "name": "Les Halles",
        "code": 1023
      },
      "arrival": 33600,
      "departure": 33600
    },
    {
      "stop": {
        "id": "2_1016",
        "lat": 48.11007256,
        "lon": -1.6801671,
        "name": "République Nemours",
        "code": 1016
      },
      "arrival": 33780,
      "departure": 33780
    },
    {
      "stop": {
        "id": "2_1025",
        "lat": 48.11273566,
        "lon": -1.68025817,
        "name": "Champ Jacquet",
        "code": 1025
      },
      "arrival": 33900,
      "departure": 33900
    },
    {
      "stop": {
        "id": "2_1026",
        "lat": 48.11478452,
        "lon": -1.67927843,
        "name": "Sainte-Anne",
        "code": 1026
      },
      "arrival": 33960,
      "departure": 33960
    },
    {
      "stop": {
        "id": "2_1027",
        "lat": 48.11723114,
        "lon": -1.67736823,
        "name": "Hôtel Dieu",
        "code": 1027
      },
      "arrival": 34080,
      "departure": 34080
    },
    {
      "stop": {
        "id": "2_1028",
        "lat": 48.11750653,
        "lon": -1.67360984,
        "name": "Sévigné",
        "code": 1028
      },
      "arrival": 34140,
      "departure": 34140
    },
    {
      "stop": {
        "id": "2_1029",
        "lat": 48.11831975,
        "lon": -1.66969704,
        "name": "Fac de Droit",
        "code": 1029
      },
      "arrival": 34200,
      "departure": 34200
    },
    {
      "stop": {
        "id": "2_1030",
        "lat": 48.11947818,
        "lon": -1.66685122,
        "name": "Guéhenno",
        "code": 1030
      },
      "arrival": 34260,
      "departure": 34260
    },
    {
      "stop": {
        "id": "2_1031",
        "lat": 48.1220044,
        "lon": -1.66224129,
        "name": "Metz Volney",
        "code": 1031
      },
      "arrival": 34380,
      "departure": 34380
    },
    {
      "stop": {
        "id": "2_1032",
        "lat": 48.12331854,
        "lon": -1.65932809,
        "name": "Painlevé",
        "code": 1032
      },
      "arrival": 34440,
      "departure": 34440
    },
    {
      "stop": {
        "id": "2_1033",
        "lat": 48.12132369,
        "lon": -1.65499372,
        "name": "Assomption",
        "code": 1033
      },
      "arrival": 34500,
      "departure": 34500
    },
    {
      "stop": {
        "id": "2_1034",
        "lat": 48.12221902,
        "lon": -1.65061867,
        "name": "Turmel",
        "code": 1034
      },
      "arrival": 34620,
      "departure": 34620
    },
    {
      "stop": {
        "id": "2_1035",
        "lat": 48.12370157,
        "lon": -1.64529281,
        "name": "Mirabeau",
        "code": 1035
      },
      "arrival": 34680,
      "departure": 34680
    },
    {
      "stop": {
        "id": "2_1036",
        "lat": 48.12553894,
        "lon": -1.64212893,
        "name": "Donzelot",
        "code": 1036
      },
      "arrival": 34740,
      "departure": 34740
    },
    {
      "stop": {
        "id": "2_1037",
        "lat": 48.12774029,
        "lon": -1.6400201,
        "name": "Gallets",
        "code": 1037
      },
      "arrival": 34800,
      "departure": 34800
    },
    {
      "stop": {
        "id": "2_1038",
        "lat": 48.12826339,
        "lon": -1.6372655,
        "name": "Bouzat",
        "code": 1038
      },
      "arrival": 34860,
      "departure": 34860
    },
    {
      "stop": {
        "id": "2_1039",
        "lat": 48.12901691,
        "lon": -1.63243041,
        "name": "Longs Champs",
        "code": 1039
      },
      "arrival": 34920,
      "departure": 34920
    },
    {
      "stop": {
        "id": "2_2003",
        "lat": 48.13011384,
        "lon": -1.62802968,
        "name": "Cesson Hôpital Privé",
        "code": 2003
      },
      "arrival": 35040,
      "departure": 35040
    },
    {
      "stop": {
        "id": "2_2112",
        "lat": 48.13075338,
        "lon": -1.62292888,
        "name": "Chêne Germain",
        "code": 2112
      },
      "arrival": 35100,
      "departure": 35100
    },
    {
      "stop": {
        "id": "2_2116",
        "lat": 48.13488248,
        "lon": -1.62068447,
        "name": "Champs Blancs",
        "code": 2116
      },
      "arrival": 35220,
      "departure": 35220
    }
  ],
  "route": {
    "id": "2_0001",
    "textColor": "FFFFFF",
    "color": "90C01B",
    "description": "Majeure",
    "longName": "Cesson-Sévigné (Champs Blancs) \u003c\u003e Chantepie (Rosa Parks)",
    "shortName": "1",
    "type": 3,
    "agencyId": "2"
  }
}