{
  "headsign": "4 | République",
  "stopTimes": [
    {
      "stop": {
        "id": "2_1475",
        "lat": 48.12695887,
        "lon": -1.62918033,
        "name": "Clos Courtel",
        "code": 1475
      },
      "arrival": 82380,
      "departure": 82380
    },
    {
      "stop": {
        "id": "2_1291",
        "lat": 48.12475494,
        "lon": -1.63388412,
        "name": "IUT",
        "code": 1291
      },
      "arrival": 82440,
      "departure": 82440
    },
    {
      "stop": {
        "id": "2_1292",
        "lat": 48.12145018,
        "lon": -1.63814809,
        "name": "Beaulieu Restau. U.",
        "code": 1292
      },
      "arrival": 82500,
      "departure": 82500
    },
    {
      "stop": {
        "id": "2_1176",
        "lat": 48.11901733,
        "lon": -1.63514782,
        "name": "Beaulieu INSA",
        "code": 1176
      },
      "arrival": 82560,
      "departure": 82560
    },
    {
      "stop": {
        "id": "2_1312",
        "lat": 48.1166495,
        "lon": -1.63393042,
        "name": "Beaulieu Chimie",
        "code": 1312
      },
      "arrival": 82620,
      "departure": 82620
    },
    {
      "stop": {
        "id": "2_1160",
        "lat": 48.11406412,
        "lon": -1.63761839,
        "name": "Tournebride",
        "code": 1160
      },
      "arrival": 82680,
      "departure": 82680
    },
    {
      "stop": {
        "id": "2_1603",
        "lat": 48.11319466,
        "lon": -1.64121462,
        "name": "Préales",
        "code": 1603
      },
      "arrival": 82740,
      "departure": 82740
    },
    {
      "stop": {
        "id": "2_1161",
        "lat": 48.11219183,
        "lon": -1.64423633,
        "name": "Plaine de Baud",
        "code": 1161
      },
      "arrival": 82800,
      "departure": 82800
    },
    {
      "stop": {
        "id": "2_1162",
        "lat": 48.1103356,
        "lon": -1.6559754,
        "name": "Pont de Strasbourg",
        "code": 1162
      },
      "arrival": 82920,
      "departure": 82920
    },
    {
      "stop": {
        "id": "2_1163",
        "lat": 48.1101066,
        "lon": -1.66054614,
        "name": "Robidou",
        "code": 1163
      },
      "arrival": 82980,
      "departure": 82980
    },
    {
      "stop": {
        "id": "2_1164",
        "lat": 48.11009515,
        "lon": -1.66397755,
        "name": "Pont de Châteaudun",
        "code": 1164
      },
      "arrival": 83040,
      "departure": 83040
    },
    {
      "stop": {
        "id": "2_1165",
        "lat": 48.11006169,
        "lon": -1.67017835,
        "name": "Paul Bert",
        "code": 1165
      },
      "arrival": 83100,
      "departure": 83100
    },
    {
      "stop": {
        "id": "2_1166",
        "lat": 48.10988328,
        "lon": -1.67512929,
        "name": "Musée Beaux Arts",
        "code": 1166
      },
      "arrival": 83160,
      "departure": 83160
    },
    {
      "stop": {
        "id": "2_1168",
        "lat": 48.10980866,
        "lon": -1.67882417,
        "name": "République",
        "code": 1168
      },
      "arrival": 83280,
      "departure": 83280
    }
  ],
  "route": {
    "id": "2_0004",
    "textColor": "FFFFFF",
    "color": "6F177E",
    "description": "Majeure",
    "longName": "Beauregard \u003c\u003e Beaulieu Atalante",
    "shortName": "4",
    "type": 3,
    "agencyId": "2"
  }
}