{
  "headsign": "220 | Acigné Timonière",
  "stopTimes": [
    {
      "stop": {
        "id": "2_2040",
        "lat": 48.11617658,
        "lon": -1.60046536,
        "name": "Chalotais",
        "code": 2040
      },
      "arrival": 45600,
      "departure": 45600
    },
    {
      "stop": {
        "id": "2_3318",
        "lat": 48.14093339,
        "lon": -1.57346681,
        "name": "Pâtis du Moulinet",
        "code": 3318
      },
      "arrival": 46020,
      "departure": 46020
    },
    {
      "stop": {
        "id": "2_4008",
        "lat": 48.13908696,
        "lon": -1.55947698,
        "name": "Boulais",
        "code": 4008
      },
      "arrival": 46080,
      "departure": 46080
    },
    {
      "stop": {
        "id": "2_4009",
        "lat": 48.13686615,
        "lon": -1.54860696,
        "name": "Pont d\u0027Ohin",
        "code": 4009
      },
      "arrival": 46140,
      "departure": 46140
    },
    {
      "stop": {
        "id": "2_4010",
        "lat": 48.13448301,
        "lon": -1.54192503,
        "name": "Lande",
        "code": 4010
      },
      "arrival": 46320,
      "departure": 46320
    },
    {
      "stop": {
        "id": "2_4011",
        "lat": 48.13388288,
        "lon": -1.53762999,
        "name": "Foyer",
        "code": 4011
      },
      "arrival": 46380,
      "departure": 46380
    },
    {
      "stop": {
        "id": "2_4012",
        "lat": 48.13417021,
        "lon": -1.5347181,
        "name": "Acigné Mairie",
        "code": 4012
      },
      "arrival": 46440,
      "departure": 46440
    },
    {
      "stop": {
        "id": "2_4013",
        "lat": 48.13716321,
        "lon": -1.53294519,
        "name": "Verdaudais",
        "code": 4013
      },
      "arrival": 46500,
      "departure": 46500
    },
    {
      "stop": {
        "id": "2_4001",
        "lat": 48.13701918,
        "lon": -1.52637517,
        "name": "Timonière",
        "code": 4001
      },
      "arrival": 46680,
      "departure": 46680
    }
  ],
  "route": {
    "id": "2_0220",
    "textColor": "FFFFFF",
    "color": "009FE3",
    "description": "Complémentaire",
    "longName": "Acigné (Timonière) \u003c\u003e Cesson-Sévigné (Lycée Sévigné)",
    "shortName": "220",
    "type": 3,
    "agencyId": "2"
  }
}