{
  "headsign": "51 | Rennes Hoche",
  "stopTimes": [
    {
      "stop": {
        "id": "2_2401",
        "lat": 48.177029,
        "lon": -1.651134,
        "name": "Champ Devant",
        "code": 2401
      },
      "arrival": 41400,
      "departure": 41400
    },
    {
      "stop": {
        "id": "2_2402",
        "lat": 48.179301,
        "lon": -1.651047,
        "name": "Omblais",
        "code": 2402
      },
      "arrival": 41460,
      "departure": 41460
    },
    {
      "stop": {
        "id": "2_2403",
        "lat": 48.180722,
        "lon": -1.651937,
        "name": "Brocéliande",
        "code": 2403
      },
      "arrival": 41520,
      "departure": 41520
    },
    {
      "stop": {
        "id": "2_2404",
        "lat": 48.183007,
        "lon": -1.646075,
        "name": "Trégor",
        "code": 2404
      },
      "arrival": 41640,
      "departure": 41640
    },
    {
      "stop": {
        "id": "2_2405",
        "lat": 48.181894,
        "lon": -1.641783,
        "name": "Betton Mairie",
        "code": 2405
      },
      "arrival": 41700,
      "departure": 41700
    },
    {
      "stop": {
        "id": "2_2406",
        "lat": 48.181123,
        "lon": -1.637898,
        "name": "Betton Centre",
        "code": 2406
      },
      "arrival": 41760,
      "departure": 41760
    },
    {
      "stop": {
        "id": "2_2407",
        "lat": 48.18021,
        "lon": -1.634936,
        "name": "Haye Renaud Gare",
        "code": 2407
      },
      "arrival": 41820,
      "departure": 41820
    },
    {
      "stop": {
        "id": "2_2408",
        "lat": 48.176154,
        "lon": -1.637359,
        "name": "Marronniers",
        "code": 2408
      },
      "arrival": 41880,
      "departure": 41880
    },
    {
      "stop": {
        "id": "2_2409",
        "lat": 48.172332,
        "lon": -1.637445,
        "name": "Housset",
        "code": 2409
      },
      "arrival": 41940,
      "departure": 41940
    },
    {
      "stop": {
        "id": "2_2410",
        "lat": 48.17135,
        "lon": -1.642053,
        "name": "Enseigne Abbaye",
        "code": 2410
      },
      "arrival": 42000,
      "departure": 42000
    },
    {
      "stop": {
        "id": "2_2411",
        "lat": 48.161724,
        "lon": -1.647868,
        "name": "Betton Vallée",
        "code": 2411
      },
      "arrival": 42120,
      "departure": 42120
    },
    {
      "stop": {
        "id": "2_2827",
        "lat": 48.148996,
        "lon": -1.656601,
        "name": "Maison Blanche",
        "code": 2827
      },
      "arrival": 42240,
      "departure": 42240
    },
    {
      "stop": {
        "id": "2_1485",
        "lat": 48.137957,
        "lon": -1.658769,
        "name": "Saint-Laurent",
        "code": 1485
      },
      "arrival": 42360,
      "departure": 42360
    },
    {
      "stop": {
        "id": "2_1486",
        "lat": 48.134801,
        "lon": -1.659901,
        "name": "Hôtel de Région",
        "code": 1486
      },
      "arrival": 42420,
      "departure": 42420
    },
    {
      "stop": {
        "id": "2_1487",
        "lat": 48.131345,
        "lon": -1.662406,
        "name": "Patton Gast",
        "code": 1487
      },
      "arrival": 42540,
      "departure": 42540
    },
    {
      "stop": {
        "id": "2_1260",
        "lat": 48.126715,
        "lon": -1.665432,
        "name": "Gros Chêne",
        "code": 1260
      },
      "arrival": 42600,
      "departure": 42600
    },
    {
      "stop": {
        "id": "2_1261",
        "lat": 48.125322,
        "lon": -1.666645,
        "name": "Volney",
        "code": 1261
      },
      "arrival": 42660,
      "departure": 42660
    },
    {
      "stop": {
        "id": "2_1011",
        "lat": 48.118312,
        "lon": -1.671315,
        "name": "Fac de Droit",
        "code": 1011
      },
      "arrival": 42960,
      "departure": 42960
    },
    {
      "stop": {
        "id": "2_1606",
        "lat": 48.115697,
        "lon": -1.676699,
        "name": "Hoche",
        "code": 1606
      },
      "arrival": 43080,
      "departure": 43080
    }
  ],
  "route": {
    "id": "2_0051",
    "textColor": "FFFFFF",
    "color": "93117E",
    "description": "Métropolitaine",
    "longName": "Rennes (Hoche) \u003c\u003e Betton (Champ Devant)",
    "shortName": "51",
    "type": 3,
    "agencyId": "2"
  }
}