{
  "headsign": "237 | Rennes Villejean-Université",
  "stopTimes": [
    {
      "stop": {
        "id": "2_4801",
        "lat": 48.296249,
        "lon": -1.945149,
        "name": "Bécherel Centre",
        "code": 4801
      },
      "arrival": 24600,
      "departure": 24600
    },
    {
      "stop": {
        "id": "2_4803",
        "lat": 48.299554,
        "lon": -1.93943,
        "name": "Sévignière",
        "code": 4803
      },
      "arrival": 24720,
      "departure": 24720
    },
    {
      "stop": {
        "id": "2_4950",
        "lat": 48.28476,
        "lon": -1.931062,
        "name": "Miniac Eglise",
        "code": 4950
      },
      "arrival": 25080,
      "departure": 25080
    },
    {
      "stop": {
        "id": "2_4850",
        "lat": 48.273268,
        "lon": -1.861002,
        "name": "Chapelle-Chaussée",
        "code": 4850
      },
      "arrival": 25500,
      "departure": 25500
    },
    {
      "stop": {
        "id": "2_4901",
        "lat": 48.245147,
        "lon": -1.853626,
        "name": "Langan Bourg",
        "code": 4901
      },
      "arrival": 25800,
      "departure": 25800
    },
    {
      "stop": {
        "id": "2_1553",
        "lat": 48.12134409,
        "lon": -1.70243715,
        "name": "Villejean-Université",
        "code": 1553
      },
      "arrival": 27300,
      "departure": 27300
    }
  ],
  "route": {
    "id": "2_0237",
    "textColor": "000000",
    "color": "94C11F",
    "description": "Complémentaire",
    "longName": "Bécherel (Centre) \u003c\u003e Villejean-Université",
    "shortName": "237",
    "type": 3,
    "agencyId": "2"
  }
}