{
  "headsign": "94 | Saint-Sulpice-la-Forêt",
  "stopTimes": [
    {
      "stop": {
        "id": "2_2417",
        "lat": 48.18170386,
        "lon": -1.63855109,
        "name": "Betton Centre",
        "code": 2417
      },
      "arrival": 44580,
      "departure": 44580
    },
    {
      "stop": {
        "id": "2_3959",
        "lat": 48.21179703,
        "lon": -1.59059123,
        "name": "Tronchay",
        "code": 3959
      },
      "arrival": 45360,
      "departure": 45360
    },
    {
      "stop": {
        "id": "2_3954",
        "lat": 48.21479222,
        "lon": -1.58657706,
        "name": "Terrain des Sports",
        "code": 3954
      },
      "arrival": 45420,
      "departure": 45420
    },
    {
      "stop": {
        "id": "2_3961",
        "lat": 48.2177321,
        "lon": -1.58139746,
        "name": "Bourg",
        "code": 3961
      },
      "arrival": 45480,
      "departure": 45480
    },
    {
      "stop": {
        "id": "2_3962",
        "lat": 48.22315212,
        "lon": -1.57693236,
        "name": "Chesnais",
        "code": 3962
      },
      "arrival": 45540,
      "departure": 45540
    },
    {
      "stop": {
        "id": "2_3951",
        "lat": 48.22528095,
        "lon": -1.57037306,
        "name": "Cropy",
        "code": 3951
      },
      "arrival": 45600,
      "departure": 45600
    }
  ],
  "route": {
    "id": "2_0094",
    "textColor": "1A171B",
    "color": "AECC52",
    "description": "Intercommunale",
    "longName": "Saint-Sulpice-la-Forêt / Chevaigné \u003c\u003e Betton (Centre)",
    "shortName": "94",
    "type": 3,
    "agencyId": "2"
  }
}