{
  "headsign": "94 | Betton Centre",
  "stopTimes": [
    {
      "stop": {
        "id": "2_4604",
        "lat": 48.21008789,
        "lon": -1.62587418,
        "name": "Pommiers",
        "code": 4604
      },
      "arrival": 47520,
      "departure": 47520
    },
    {
      "stop": {
        "id": "2_4605",
        "lat": 48.21442422,
        "lon": -1.62878295,
        "name": "Fonderies",
        "code": 4605
      },
      "arrival": 47580,
      "departure": 47580
    },
    {
      "stop": {
        "id": "2_4606",
        "lat": 48.21193255,
        "lon": -1.63026334,
        "name": "Chevaigné Mairie",
        "code": 4606
      },
      "arrival": 47640,
      "departure": 47640
    },
    {
      "stop": {
        "id": "2_4607",
        "lat": 48.20764802,
        "lon": -1.63080398,
        "name": "Chevaigné Gare",
        "code": 4607
      },
      "arrival": 47700,
      "departure": 47700
    },
    {
      "stop": {
        "id": "2_4609",
        "lat": 48.19917578,
        "lon": -1.62757919,
        "name": "Chopinais",
        "code": 4609
      },
      "arrival": 47820,
      "departure": 47820
    },
    {
      "stop": {
        "id": "2_2451",
        "lat": 48.19085557,
        "lon": -1.62920813,
        "name": "Gentilhommière",
        "code": 2451
      },
      "arrival": 47940,
      "departure": 47940
    },
    {
      "stop": {
        "id": "2_2432",
        "lat": 48.18633047,
        "lon": -1.63325395,
        "name": "J. Sébastien Bach",
        "code": 2432
      },
      "arrival": 48000,
      "departure": 48000
    },
    {
      "stop": {
        "id": "2_2431",
        "lat": 48.18305974,
        "lon": -1.63721735,
        "name": "Mozart",
        "code": 2431
      },
      "arrival": 48060,
      "departure": 48060
    },
    {
      "stop": {
        "id": "2_2406",
        "lat": 48.18119826,
        "lon": -1.6380241,
        "name": "Betton Centre",
        "code": 2406
      },
      "arrival": 48120,
      "departure": 48120
    }
  ],
  "route": {
    "id": "2_0094",
    "textColor": "1A171B",
    "color": "AECC52",
    "description": "Intercommunale",
    "longName": "Saint-Sulpice-la-Forêt / Chevaigné \u003c\u003e Betton (Centre)",
    "shortName": "94",
    "type": 3,
    "agencyId": "2"
  }
}