{
  "headsign": "71 | Rennes Hoche",
  "stopTimes": [
    {
      "stop": {
        "id": "2_4604",
        "lat": 48.209944,
        "lon": -1.625841,
        "name": "Pommiers",
        "code": 4604
      },
      "arrival": 63600,
      "departure": 63600
    },
    {
      "stop": {
        "id": "2_4605",
        "lat": 48.214395,
        "lon": -1.628958,
        "name": "Fonderies",
        "code": 4605
      },
      "arrival": 63720,
      "departure": 63720
    },
    {
      "stop": {
        "id": "2_4606",
        "lat": 48.211961,
        "lon": -1.630307,
        "name": "Chevaigné Mairie",
        "code": 4606
      },
      "arrival": 63780,
      "departure": 63780
    },
    {
      "stop": {
        "id": "2_4607",
        "lat": 48.207641,
        "lon": -1.630846,
        "name": "Chevaigné Gare",
        "code": 4607
      },
      "arrival": 63840,
      "departure": 63840
    },
    {
      "stop": {
        "id": "2_4609",
        "lat": 48.199145,
        "lon": -1.627451,
        "name": "Chopinais",
        "code": 4609
      },
      "arrival": 64020,
      "departure": 64020
    },
    {
      "stop": {
        "id": "2_2451",
        "lat": 48.19085,
        "lon": -1.629331,
        "name": "Gentilhommière",
        "code": 2451
      },
      "arrival": 64140,
      "departure": 64140
    },
    {
      "stop": {
        "id": "2_2432",
        "lat": 48.186271,
        "lon": -1.633356,
        "name": "J. Sébastien Bach",
        "code": 2432
      },
      "arrival": 64200,
      "departure": 64200
    },
    {
      "stop": {
        "id": "2_2431",
        "lat": 48.182984,
        "lon": -1.637374,
        "name": "Mozart",
        "code": 2431
      },
      "arrival": 64320,
      "departure": 64320
    },
    {
      "stop": {
        "id": "2_2406",
        "lat": 48.181123,
        "lon": -1.637898,
        "name": "Betton Centre",
        "code": 2406
      },
      "arrival": 64320,
      "departure": 64320
    },
    {
      "stop": {
        "id": "2_2430",
        "lat": 48.175999,
        "lon": -1.639619,
        "name": "Betton Rue de Rennes",
        "code": 2430
      },
      "arrival": 64440,
      "departure": 64440
    },
    {
      "stop": {
        "id": "2_2410",
        "lat": 48.17135,
        "lon": -1.642053,
        "name": "Enseigne Abbaye",
        "code": 2410
      },
      "arrival": 64500,
      "departure": 64500
    },
    {
      "stop": {
        "id": "2_2411",
        "lat": 48.161724,
        "lon": -1.647868,
        "name": "Betton Vallée",
        "code": 2411
      },
      "arrival": 64560,
      "departure": 64560
    },
    {
      "stop": {
        "id": "2_2827",
        "lat": 48.148996,
        "lon": -1.656601,
        "name": "Maison Blanche",
        "code": 2827
      },
      "arrival": 64680,
      "departure": 64680
    },
    {
      "stop": {
        "id": "2_1485",
        "lat": 48.137957,
        "lon": -1.658769,
        "name": "Saint-Laurent",
        "code": 1485
      },
      "arrival": 64800,
      "departure": 64800
    },
    {
      "stop": {
        "id": "2_1486",
        "lat": 48.134801,
        "lon": -1.659901,
        "name": "Hôtel de Région",
        "code": 1486
      },
      "arrival": 64860,
      "departure": 64860
    },
    {
      "stop": {
        "id": "2_1261",
        "lat": 48.125322,
        "lon": -1.666645,
        "name": "Volney",
        "code": 1261
      },
      "arrival": 65100,
      "departure": 65100
    },
    {
      "stop": {
        "id": "2_1011",
        "lat": 48.118312,
        "lon": -1.671315,
        "name": "Fac de Droit",
        "code": 1011
      },
      "arrival": 65520,
      "departure": 65520
    },
    {
      "stop": {
        "id": "2_1606",
        "lat": 48.115697,
        "lon": -1.676699,
        "name": "Hoche",
        "code": 1606
      },
      "arrival": 65640,
      "departure": 65640
    }
  ],
  "route": {
    "id": "2_0071",
    "textColor": "FFFFFF",
    "color": "A9701E",
    "description": "Métropolitaine",
    "longName": "Rennes (Hoche) \u003c\u003e Betton / Chevaigné",
    "shortName": "71",
    "type": 3,
    "agencyId": "2"
  }
}