{
  "headsign": "77 | Pacé Pâtis Roussel",
  "stopTimes": [
    {
      "stop": {
        "id": "2_1519",
        "lat": 48.12110069,
        "lon": -1.70297631,
        "name": "Villejean-Université",
        "code": 1519
      },
      "arrival": 33600,
      "departure": 33600
    },
    {
      "stop": {
        "id": "2_1518",
        "lat": 48.12062672,
        "lon": -1.71046453,
        "name": "Bourbonnais",
        "code": 1518
      },
      "arrival": 33780,
      "departure": 33780
    },
    {
      "stop": {
        "id": "2_1521",
        "lat": 48.11845974,
        "lon": -1.71376004,
        "name": "Berry",
        "code": 1521
      },
      "arrival": 33840,
      "departure": 33840
    },
    {
      "stop": {
        "id": "2_3112",
        "lat": 48.14112507,
        "lon": -1.76740703,
        "name": "Opéra",
        "code": 3112
      },
      "arrival": 34260,
      "departure": 34260
    },
    {
      "stop": {
        "id": "2_3137",
        "lat": 48.14024412,
        "lon": -1.76355626,
        "name": "Rive Ouest",
        "code": 3137
      },
      "arrival": 34320,
      "departure": 34320
    },
    {
      "stop": {
        "id": "2_3144",
        "lat": 48.14098531,
        "lon": -1.76618221,
        "name": "Opéra",
        "code": 3144
      },
      "arrival": 34320,
      "departure": 34320
    },
    {
      "stop": {
        "id": "2_3113",
        "lat": 48.14335637,
        "lon": -1.7704102,
        "name": "Le Ponant",
        "code": 3113
      },
      "arrival": 34380,
      "departure": 34380
    },
    {
      "stop": {
        "id": "2_3114",
        "lat": 48.14572649,
        "lon": -1.77065135,
        "name": "Carré Dumaine",
        "code": 3114
      },
      "arrival": 34440,
      "departure": 34440
    },
    {
      "stop": {
        "id": "2_3115",
        "lat": 48.1479969,
        "lon": -1.7697924,
        "name": "Pacé Cimetière",
        "code": 3115
      },
      "arrival": 34500,
      "departure": 34500
    },
    {
      "stop": {
        "id": "2_3130",
        "lat": 48.15155536,
        "lon": -1.77051816,
        "name": "Le Brix",
        "code": 3130
      },
      "arrival": 34560,
      "departure": 34560
    },
    {
      "stop": {
        "id": "2_3131",
        "lat": 48.15444094,
        "lon": -1.7704961,
        "name": "Pacé Collèges",
        "code": 3131
      },
      "arrival": 34620,
      "departure": 34620
    },
    {
      "stop": {
        "id": "2_3132",
        "lat": 48.15542425,
        "lon": -1.76468404,
        "name": "Champalaune",
        "code": 3132
      },
      "arrival": 34680,
      "departure": 34680
    },
    {
      "stop": {
        "id": "2_3133",
        "lat": 48.15728468,
        "lon": -1.76571429,
        "name": "Ouessant",
        "code": 3133
      },
      "arrival": 34740,
      "departure": 34740
    },
    {
      "stop": {
        "id": "2_3125",
        "lat": 48.16046526,
        "lon": -1.7679822,
        "name": "Pâtis Roussel",
        "code": 3125
      },
      "arrival": 34800,
      "departure": 34800
    }
  ],
  "route": {
    "id": "2_0077",
    "textColor": "201d21",
    "color": "f6c200",
    "description": "Métropolitaine",
    "longName": "Rennes (Villejean-Université) \u003c\u003e Pacé",
    "shortName": "77",
    "type": 3,
    "agencyId": "2"
  }
}