{
  "headsign": "a | J.F. Kennedy",
  "stopTimes": [
    {
      "stop": {
        "id": "2_5030",
        "lat": 48.087531,
        "lon": -1.644633,
        "name": "La Poterie",
        "code": 5030
      },
      "arrival": 35880,
      "departure": 35880
    },
    {
      "stop": {
        "id": "2_5029",
        "lat": 48.087765,
        "lon": -1.654439,
        "name": "Le Blosne",
        "code": 5029
      },
      "arrival": 35961,
      "departure": 35961
    },
    {
      "stop": {
        "id": "2_5028",
        "lat": 48.086477,
        "lon": -1.660654,
        "name": "Triangle",
        "code": 5028
      },
      "arrival": 36016,
      "departure": 36016
    },
    {
      "stop": {
        "id": "2_5027",
        "lat": 48.086598,
        "lon": -1.667741,
        "name": "Italie",
        "code": 5027
      },
      "arrival": 36079,
      "departure": 36079
    },
    {
      "stop": {
        "id": "2_5026",
        "lat": 48.087673,
        "lon": -1.674777,
        "name": "Henri Fréville",
        "code": 5026
      },
      "arrival": 36146,
      "departure": 36146
    },
    {
      "stop": {
        "id": "2_5025",
        "lat": 48.093653,
        "lon": -1.674394,
        "name": "Clemenceau",
        "code": 5025
      },
      "arrival": 36219,
      "departure": 36219
    },
    {
      "stop": {
        "id": "2_5024",
        "lat": 48.097605,
        "lon": -1.675419,
        "name": "Jacques Cartier",
        "code": 5024
      },
      "arrival": 36270,
      "departure": 36270
    },
    {
      "stop": {
        "id": "2_5023",
        "lat": 48.103875,
        "lon": -1.672183,
        "name": "Gares",
        "code": 5023
      },
      "arrival": 36372,
      "departure": 36372
    },
    {
      "stop": {
        "id": "2_5022",
        "lat": 48.105541,
        "lon": -1.677023,
        "name": "Charles de Gaulle",
        "code": 5022
      },
      "arrival": 36415,
      "departure": 36415
    },
    {
      "stop": {
        "id": "2_5021",
        "lat": 48.109712,
        "lon": -1.679138,
        "name": "République",
        "code": 5021
      },
      "arrival": 36480,
      "departure": 36480
    },
    {
      "stop": {
        "id": "2_5020",
        "lat": 48.114501,
        "lon": -1.680398,
        "name": "Sainte-Anne",
        "code": 5020
      },
      "arrival": 36544,
      "departure": 36544
    },
    {
      "stop": {
        "id": "2_5019",
        "lat": 48.118119,
        "lon": -1.687454,
        "name": "Anatole France",
        "code": 5019
      },
      "arrival": 36619,
      "departure": 36619
    },
    {
      "stop": {
        "id": "2_5018",
        "lat": 48.121578,
        "lon": -1.693461,
        "name": "Pontchaillou",
        "code": 5018
      },
      "arrival": 36690,
      "departure": 36690
    },
    {
      "stop": {
        "id": "2_5017",
        "lat": 48.121283,
        "lon": -1.703879,
        "name": "Villejean-Université",
        "code": 5017
      },
      "arrival": 36780,
      "departure": 36780
    },
    {
      "stop": {
        "id": "2_5001",
        "lat": 48.121295,
        "lon": -1.710943,
        "name": "J.F. Kennedy",
        "code": 5001
      },
      "arrival": 36840,
      "departure": 36840
    }
  ],
  "route": {
    "id": "2_1001",
    "textColor": "EE1D23",
    "color": "FFFFFF",
    "description": "Métro",
    "longName": "La Poterie \u003c\u003e J.F. Kennedy",
    "shortName": "a",
    "type": 1,
    "agencyId": "2"
  }
}