{
  "headsign": "41 | Gares",
  "stopTimes": [
    {
      "stop": {
        "id": "2_1481",
        "lat": 48.129789,
        "lon": -1.642252,
        "name": "Pâtis Tatelin",
        "code": 1481
      },
      "arrival": 62400,
      "departure": 62400
    },
    {
      "stop": {
        "id": "2_1480",
        "lat": 48.131978,
        "lon": -1.634928,
        "name": "ZA Saint-Sulpice",
        "code": 1480
      },
      "arrival": 62520,
      "departure": 62520
    },
    {
      "stop": {
        "id": "2_1617",
        "lat": 48.129137,
        "lon": -1.630168,
        "name": "Longs Champs Est",
        "code": 1617
      },
      "arrival": 62700,
      "departure": 62700
    },
    {
      "stop": {
        "id": "2_1536",
        "lat": 48.12678,
        "lon": -1.630245,
        "name": "Clos Courtel",
        "code": 1536
      },
      "arrival": 62760,
      "departure": 62760
    },
    {
      "stop": {
        "id": "2_1291",
        "lat": 48.124789,
        "lon": -1.633892,
        "name": "IUT",
        "code": 1291
      },
      "arrival": 62820,
      "departure": 62820
    },
    {
      "stop": {
        "id": "2_1292",
        "lat": 48.121437,
        "lon": -1.638194,
        "name": "Beaulieu Restau U",
        "code": 1292
      },
      "arrival": 62940,
      "departure": 62940
    },
    {
      "stop": {
        "id": "2_1176",
        "lat": 48.119028,
        "lon": -1.63521,
        "name": "Beaulieu INSA",
        "code": 1176
      },
      "arrival": 63000,
      "departure": 63000
    },
    {
      "stop": {
        "id": "2_1312",
        "lat": 48.116581,
        "lon": -1.633944,
        "name": "Beaulieu Chimie",
        "code": 1312
      },
      "arrival": 63060,
      "departure": 63060
    },
    {
      "stop": {
        "id": "2_1160",
        "lat": 48.114099,
        "lon": -1.637565,
        "name": "Tournebride",
        "code": 1160
      },
      "arrival": 63120,
      "departure": 63120
    },
    {
      "stop": {
        "id": "2_1161",
        "lat": 48.112232,
        "lon": -1.644227,
        "name": "Plaine de Baud",
        "code": 1161
      },
      "arrival": 63240,
      "departure": 63240
    },
    {
      "stop": {
        "id": "2_1164",
        "lat": 48.110145,
        "lon": -1.663921,
        "name": "Pont de Châteaudun",
        "code": 1164
      },
      "arrival": 63480,
      "departure": 63480
    },
    {
      "stop": {
        "id": "2_1056",
        "lat": 48.103956,
        "lon": -1.673185,
        "name": "Gares",
        "code": 1056
      },
      "arrival": 63900,
      "departure": 63900
    }
  ],
  "route": {
    "id": "2_0041",
    "textColor": "3D3C3F",
    "color": "FFDD00",
    "description": "Express urbaine",
    "longName": "Gares \u003c\u003e Pâtis Tatelin",
    "shortName": "41",
    "type": 3,
    "agencyId": "2"
  }
}