{
  "headsign": "52 | Rennes Villejean-Université",
  "stopTimes": [
    {
      "stop": {
        "id": "2_4507",
        "lat": 48.22178273,
        "lon": -1.80232719,
        "name": "Cheval Blanc",
        "code": 4507
      },
      "arrival": 61200,
      "departure": 61200
    },
    {
      "stop": {
        "id": "2_4508",
        "lat": 48.22448225,
        "lon": -1.80078454,
        "name": "Coualeuc",
        "code": 4508
      },
      "arrival": 61260,
      "departure": 61260
    },
    {
      "stop": {
        "id": "2_4510",
        "lat": 48.22361535,
        "lon": -1.79362989,
        "name": "Prés Verts",
        "code": 4510
      },
      "arrival": 61380,
      "departure": 61380
    },
    {
      "stop": {
        "id": "2_4502",
        "lat": 48.22104867,
        "lon": -1.78874652,
        "name": "Gévezé Mairie",
        "code": 4502
      },
      "arrival": 61440,
      "departure": 61440
    },
    {
      "stop": {
        "id": "2_4504",
        "lat": 48.21830476,
        "lon": -1.78327707,
        "name": "Flume",
        "code": 4504
      },
      "arrival": 61500,
      "departure": 61500
    },
    {
      "stop": {
        "id": "2_4070",
        "lat": 48.18301608,
        "lon": -1.72638573,
        "name": "Besneraie",
        "code": 4070
      },
      "arrival": 61980,
      "departure": 61980
    },
    {
      "stop": {
        "id": "2_4053",
        "lat": 48.17949446,
        "lon": -1.72926703,
        "name": "Métairie",
        "code": 4053
      },
      "arrival": 62040,
      "departure": 62040
    },
    {
      "stop": {
        "id": "2_4054",
        "lat": 48.17710926,
        "lon": -1.73209913,
        "name": "Mairie",
        "code": 4054
      },
      "arrival": 62100,
      "departure": 62100
    },
    {
      "stop": {
        "id": "2_4055",
        "lat": 48.17409345,
        "lon": -1.73514392,
        "name": "Viennais",
        "code": 4055
      },
      "arrival": 62160,
      "departure": 62160
    },
    {
      "stop": {
        "id": "2_4056",
        "lat": 48.17016448,
        "lon": -1.73615498,
        "name": "Sénestrais",
        "code": 4056
      },
      "arrival": 62160,
      "departure": 62160
    },
    {
      "stop": {
        "id": "2_3500",
        "lat": 48.16399131,
        "lon": -1.73170413,
        "name": "Silandière",
        "code": 3500
      },
      "arrival": 62220,
      "departure": 62220
    },
    {
      "stop": {
        "id": "2_3514",
        "lat": 48.15717857,
        "lon": -1.7233011,
        "name": "Fougerolle",
        "code": 3514
      },
      "arrival": 62340,
      "departure": 62340
    },
    {
      "stop": {
        "id": "2_3502",
        "lat": 48.15565719,
        "lon": -1.72061072,
        "name": "Pierre Texier",
        "code": 3502
      },
      "arrival": 62400,
      "departure": 62400
    },
    {
      "stop": {
        "id": "2_3503",
        "lat": 48.15574059,
        "lon": -1.71658864,
        "name": "Montgermont Mairie",
        "code": 3503
      },
      "arrival": 62460,
      "departure": 62460
    },
    {
      "stop": {
        "id": "2_3504",
        "lat": 48.15726126,
        "lon": -1.71446656,
        "name": "Courtines",
        "code": 3504
      },
      "arrival": 62520,
      "departure": 62520
    },
    {
      "stop": {
        "id": "2_3505",
        "lat": 48.15531129,
        "lon": -1.7108321,
        "name": "Belle Epine",
        "code": 3505
      },
      "arrival": 62580,
      "departure": 62580
    },
    {
      "stop": {
        "id": "2_3506",
        "lat": 48.15311386,
        "lon": -1.706642,
        "name": "Décoparc",
        "code": 3506
      },
      "arrival": 62640,
      "departure": 62640
    },
    {
      "stop": {
        "id": "2_3507",
        "lat": 48.14897164,
        "lon": -1.70405003,
        "name": "Vizeule",
        "code": 3507
      },
      "arrival": 62640,
      "departure": 62640
    },
    {
      "stop": {
        "id": "2_1492",
        "lat": 48.13384612,
        "lon": -1.69386845,
        "name": "Grand Quartier",
        "code": 1492
      },
      "arrival": 62820,
      "departure": 62820
    },
    {
      "stop": {
        "id": "2_1537",
        "lat": 48.13157495,
        "lon": -1.69170144,
        "name": "Léonard",
        "code": 1537
      },
      "arrival": 62880,
      "departure": 62880
    },
    {
      "stop": {
        "id": "2_1493",
        "lat": 48.12716785,
        "lon": -1.69331906,
        "name": "Lycée Basch",
        "code": 1493
      },
      "arrival": 62940,
      "departure": 62940
    },
    {
      "stop": {
        "id": "2_1494",
        "lat": 48.12125283,
        "lon": -1.70296746,
        "name": "Villejean-Université",
        "code": 1494
      },
      "arrival": 63180,
      "departure": 63180
    }
  ],
  "route": {
    "id": "2_0052",
    "textColor": "ffffff",
    "color": "007a76",
    "description": "Métropolitaine",
    "longName": "Saint-Gilles / Pacé \u003c\u003e Rennes (Villejean-Université) \u003c\u003e Montgermont / La Chapelle-des-Fougeretz",
    "shortName": "52",
    "type": 3,
    "agencyId": "2"
  }
}