{
  "headsign": "C4 | ZA Saint-Sulpice",
  "stopTimes": [
    {
      "stop": {
        "id": "2_1586",
        "lat": 48.13154131,
        "lon": -1.69451902,
        "name": "Beauregard",
        "code": 1586
      },
      "arrival": 29880,
      "departure": 29880
    },
    {
      "stop": {
        "id": "2_1543",
        "lat": 48.13134643,
        "lon": -1.69183512,
        "name": "Léonard",
        "code": 1543
      },
      "arrival": 29940,
      "departure": 29940
    },
    {
      "stop": {
        "id": "2_1303",
        "lat": 48.12832572,
        "lon": -1.69414225,
        "name": "Préfecture",
        "code": 1303
      },
      "arrival": 30060,
      "departure": 30060
    },
    {
      "stop": {
        "id": "2_1300",
        "lat": 48.12858619,
        "lon": -1.69873296,
        "name": "Cucillé",
        "code": 1300
      },
      "arrival": 30180,
      "departure": 30180
    },
    {
      "stop": {
        "id": "2_1305",
        "lat": 48.12765808,
        "lon": -1.70324184,
        "name": "Olympe de Gouges",
        "code": 1305
      },
      "arrival": 30300,
      "departure": 30300
    },
    {
      "stop": {
        "id": "2_1306",
        "lat": 48.12533687,
        "lon": -1.70312933,
        "name": "Bois Labbé (ex IRTS)",
        "code": 1306
      },
      "arrival": 30360,
      "departure": 30360
    },
    {
      "stop": {
        "id": "2_1307",
        "lat": 48.12192614,
        "lon": -1.70388916,
        "name": "Villejean-Université",
        "code": 1307
      },
      "arrival": 30480,
      "departure": 30480
    },
    {
      "stop": {
        "id": "2_1308",
        "lat": 48.11892068,
        "lon": -1.70465808,
        "name": "Université",
        "code": 1308
      },
      "arrival": 30540,
      "departure": 30540
    },
    {
      "stop": {
        "id": "2_1309",
        "lat": 48.11673461,
        "lon": -1.70477296,
        "name": "Berger",
        "code": 1309
      },
      "arrival": 30600,
      "departure": 30600
    },
    {
      "stop": {
        "id": "2_1191",
        "lat": 48.11557373,
        "lon": -1.70472339,
        "name": "Languedoc",
        "code": 1191
      },
      "arrival": 30660,
      "departure": 30660
    },
    {
      "stop": {
        "id": "2_1188",
        "lat": 48.11498492,
        "lon": -1.70208633,
        "name": "La Salle",
        "code": 1188
      },
      "arrival": 30720,
      "departure": 30720
    },
    {
      "stop": {
        "id": "2_1294",
        "lat": 48.11140799,
        "lon": -1.70136408,
        "name": "Marbeuf",
        "code": 1294
      },
      "arrival": 30840,
      "departure": 30840
    },
    {
      "stop": {
        "id": "2_1311",
        "lat": 48.10966101,
        "lon": -1.69838195,
        "name": "Guilloux",
        "code": 1311
      },
      "arrival": 30900,
      "departure": 30900
    },
    {
      "stop": {
        "id": "2_1239",
        "lat": 48.10827073,
        "lon": -1.6941653,
        "name": "Chèques Postaux",
        "code": 1239
      },
      "arrival": 30960,
      "departure": 30960
    },
    {
      "stop": {
        "id": "2_1240",
        "lat": 48.10927186,
        "lon": -1.68970708,
        "name": "Le Mail",
        "code": 1240
      },
      "arrival": 31080,
      "departure": 31080
    },
    {
      "stop": {
        "id": "2_1091",
        "lat": 48.10977886,
        "lon": -1.68388248,
        "name": "Place de Bretagne",
        "code": 1091
      },
      "arrival": 31200,
      "departure": 31200
    },
    {
      "stop": {
        "id": "2_1168",
        "lat": 48.10980866,
        "lon": -1.67882417,
        "name": "République",
        "code": 1168
      },
      "arrival": 31440,
      "departure": 31440
    },
    {
      "stop": {
        "id": "2_1169",
        "lat": 48.10985334,
        "lon": -1.67452094,
        "name": "Musée Beaux Arts",
        "code": 1169
      },
      "arrival": 31500,
      "departure": 31500
    },
    {
      "stop": {
        "id": "2_1170",
        "lat": 48.11003344,
        "lon": -1.66907214,
        "name": "Paul Bert",
        "code": 1170
      },
      "arrival": 31620,
      "departure": 31620
    },
    {
      "stop": {
        "id": "2_1171",
        "lat": 48.11006771,
        "lon": -1.66358483,
        "name": "Pont de Châteaudun",
        "code": 1171
      },
      "arrival": 31680,
      "departure": 31680
    },
    {
      "stop": {
        "id": "2_1172",
        "lat": 48.11007924,
        "lon": -1.65919453,
        "name": "Robidou",
        "code": 1172
      },
      "arrival": 31740,
      "departure": 31740
    },
    {
      "stop": {
        "id": "2_1173",
        "lat": 48.11008942,
        "lon": -1.65614253,
        "name": "Pont de Strasbourg",
        "code": 1173
      },
      "arrival": 31800,
      "departure": 31800
    },
    {
      "stop": {
        "id": "2_1174",
        "lat": 48.11246663,
        "lon": -1.64290057,
        "name": "Plaine de Baud",
        "code": 1174
      },
      "arrival": 31980,
      "departure": 31980
    },
    {
      "stop": {
        "id": "2_1604",
        "lat": 48.11354849,
        "lon": -1.64100035,
        "name": "Les Préales",
        "code": 1604
      },
      "arrival": 32040,
      "departure": 32040
    },
    {
      "stop": {
        "id": "2_1610",
        "lat": 48.11406057,
        "lon": -1.63602668,
        "name": "Tournebride",
        "code": 1610
      },
      "arrival": 32160,
      "departure": 32160
    },
    {
      "stop": {
        "id": "2_1175",
        "lat": 48.11698398,
        "lon": -1.63390592,
        "name": "Beaulieu Chimie",
        "code": 1175
      },
      "arrival": 32280,
      "departure": 32280
    },
    {
      "stop": {
        "id": "2_1204",
        "lat": 48.11947653,
        "lon": -1.63539005,
        "name": "Beaulieu INSA",
        "code": 1204
      },
      "arrival": 32280,
      "departure": 32280
    },
    {
      "stop": {
        "id": "2_1313",
        "lat": 48.12187502,
        "lon": -1.63834696,
        "name": "Beaulieu Restau U",
        "code": 1313
      },
      "arrival": 32400,
      "departure": 32400
    },
    {
      "stop": {
        "id": "2_1314",
        "lat": 48.1250923,
        "lon": -1.63309609,
        "name": "IUT",
        "code": 1314
      },
      "arrival": 32460,
      "departure": 32460
    },
    {
      "stop": {
        "id": "2_1475",
        "lat": 48.12695887,
        "lon": -1.62918033,
        "name": "Clos Courtel",
        "code": 1475
      },
      "arrival": 32520,
      "departure": 32520
    },
    {
      "stop": {
        "id": "2_2121",
        "lat": 48.13034917,
        "lon": -1.63135124,
        "name": "Longs Champs Est",
        "code": 2121
      },
      "arrival": 32640,
      "departure": 32640
    },
    {
      "stop": {
        "id": "2_1630",
        "lat": 48.13266219,
        "lon": -1.63618724,
        "name": "ZA Saint-Sulpice",
        "code": 1630
      },
      "arrival": 32760,
      "departure": 32760
    }
  ],
  "route": {
    "id": "2_0004",
    "textColor": "FFFFFF",
    "color": "6D1F80",
    "description": "Chronostar",
    "longName": "Beauregard \u003c\u003e ZA Saint-Sulpice",
    "shortName": "C4",
    "type": 3,
    "agencyId": "2"
  }
}