{
  "headsign": "14 | Beaulieu Atalante",
  "stopTimes": [
    {
      "stop": {
        "id": "2_1234",
        "lat": 48.107689,
        "lon": -1.714796,
        "name": "Stade Rennais",
        "code": 1234
      },
      "arrival": 28800,
      "departure": 28800
    },
    {
      "stop": {
        "id": "2_1418",
        "lat": 48.109144,
        "lon": -1.710196,
        "name": "Géniaux",
        "code": 1418
      },
      "arrival": 28860,
      "departure": 28860
    },
    {
      "stop": {
        "id": "2_1417",
        "lat": 48.111171,
        "lon": -1.712864,
        "name": "Les Arts",
        "code": 1417
      },
      "arrival": 28920,
      "departure": 28920
    },
    {
      "stop": {
        "id": "2_1420",
        "lat": 48.113632,
        "lon": -1.712585,
        "name": "Atalante Champeaux",
        "code": 1420
      },
      "arrival": 28980,
      "departure": 28980
    },
    {
      "stop": {
        "id": "2_1643",
        "lat": 48.114823,
        "lon": -1.715624,
        "name": "Chambre Agriculture",
        "code": 1643
      },
      "arrival": 29040,
      "departure": 29040
    },
    {
      "stop": {
        "id": "2_1503",
        "lat": 48.116133,
        "lon": -1.715924,
        "name": "Colin",
        "code": 1503
      },
      "arrival": 29100,
      "departure": 29100
    },
    {
      "stop": {
        "id": "2_1422",
        "lat": 48.116261,
        "lon": -1.711309,
        "name": "Merlin",
        "code": 1422
      },
      "arrival": 29160,
      "departure": 29160
    },
    {
      "stop": {
        "id": "2_1413",
        "lat": 48.118607,
        "lon": -1.707954,
        "name": "Villejean-Churchill",
        "code": 1413
      },
      "arrival": 29280,
      "departure": 29280
    },
    {
      "stop": {
        "id": "2_1424",
        "lat": 48.121238,
        "lon": -1.70795,
        "name": "Cours Kennedy",
        "code": 1424
      },
      "arrival": 29400,
      "departure": 29400
    },
    {
      "stop": {
        "id": "2_1297",
        "lat": 48.121918,
        "lon": -1.703705,
        "name": "Villejean-Université",
        "code": 1297
      },
      "arrival": 29520,
      "departure": 29520
    },
    {
      "stop": {
        "id": "2_1298",
        "lat": 48.125698,
        "lon": -1.703017,
        "name": "Bois Labbé",
        "code": 1298
      },
      "arrival": 29640,
      "departure": 29640
    },
    {
      "stop": {
        "id": "2_1299",
        "lat": 48.127905,
        "lon": -1.702753,
        "name": "Olympe de Gouges",
        "code": 1299
      },
      "arrival": 29640,
      "departure": 29640
    },
    {
      "stop": {
        "id": "2_1304",
        "lat": 48.128501,
        "lon": -1.698712,
        "name": "Cucillé",
        "code": 1304
      },
      "arrival": 29760,
      "departure": 29760
    },
    {
      "stop": {
        "id": "2_1301",
        "lat": 48.128165,
        "lon": -1.69398,
        "name": "Préfecture",
        "code": 1301
      },
      "arrival": 29820,
      "departure": 29820
    },
    {
      "stop": {
        "id": "2_1537",
        "lat": 48.131596,
        "lon": -1.69166,
        "name": "Léonard",
        "code": 1537
      },
      "arrival": 29880,
      "departure": 29880
    },
    {
      "stop": {
        "id": "2_2826",
        "lat": 48.135601,
        "lon": -1.692926,
        "name": "Grand Quartier",
        "code": 2826
      },
      "arrival": 30000,
      "departure": 30000
    },
    {
      "stop": {
        "id": "2_2815",
        "lat": 48.13715,
        "lon": -1.686401,
        "name": "La Plesse",
        "code": 2815
      },
      "arrival": 30180,
      "departure": 30180
    },
    {
      "stop": {
        "id": "2_1328",
        "lat": 48.133338,
        "lon": -1.685372,
        "name": "Lycée Mendès France",
        "code": 1328
      },
      "arrival": 30240,
      "departure": 30240
    },
    {
      "stop": {
        "id": "2_1040",
        "lat": 48.130069,
        "lon": -1.684377,
        "name": "Donelière",
        "code": 1040
      },
      "arrival": 30360,
      "departure": 30360
    },
    {
      "stop": {
        "id": "2_1425",
        "lat": 48.128,
        "lon": -1.682448,
        "name": "Trois Croix",
        "code": 1425
      },
      "arrival": 30420,
      "departure": 30420
    },
    {
      "stop": {
        "id": "2_1625",
        "lat": 48.13073,
        "lon": -1.675781,
        "name": "Armorique",
        "code": 1625
      },
      "arrival": 30540,
      "departure": 30540
    },
    {
      "stop": {
        "id": "2_1426",
        "lat": 48.132124,
        "lon": -1.672635,
        "name": "Bellangerais",
        "code": 1426
      },
      "arrival": 30600,
      "departure": 30600
    },
    {
      "stop": {
        "id": "2_1287",
        "lat": 48.135006,
        "lon": -1.672781,
        "name": "Condate",
        "code": 1287
      },
      "arrival": 30660,
      "departure": 30660
    },
    {
      "stop": {
        "id": "2_1288",
        "lat": 48.136641,
        "lon": -1.670632,
        "name": "Neruda",
        "code": 1288
      },
      "arrival": 30720,
      "departure": 30720
    },
    {
      "stop": {
        "id": "2_1289",
        "lat": 48.136539,
        "lon": -1.667527,
        "name": "Monts d\u0027Arrée",
        "code": 1289
      },
      "arrival": 30780,
      "departure": 30780
    },
    {
      "stop": {
        "id": "2_1427",
        "lat": 48.136404,
        "lon": -1.663348,
        "name": "Hélias",
        "code": 1427
      },
      "arrival": 30900,
      "departure": 30900
    },
    {
      "stop": {
        "id": "2_1159",
        "lat": 48.134358,
        "lon": -1.658784,
        "name": "Hôtel de Région",
        "code": 1159
      },
      "arrival": 30960,
      "departure": 30960
    },
    {
      "stop": {
        "id": "2_1374",
        "lat": 48.133162,
        "lon": -1.65696,
        "name": "Longs Prés",
        "code": 1374
      },
      "arrival": 31020,
      "departure": 31020
    },
    {
      "stop": {
        "id": "2_1375",
        "lat": 48.130103,
        "lon": -1.656774,
        "name": "Gast",
        "code": 1375
      },
      "arrival": 31080,
      "departure": 31080
    },
    {
      "stop": {
        "id": "2_1376",
        "lat": 48.128579,
        "lon": -1.657192,
        "name": "Europe",
        "code": 1376
      },
      "arrival": 31140,
      "departure": 31140
    },
    {
      "stop": {
        "id": "2_1377",
        "lat": 48.126826,
        "lon": -1.65857,
        "name": "Trégain",
        "code": 1377
      },
      "arrival": 31200,
      "departure": 31200
    },
    {
      "stop": {
        "id": "2_1378",
        "lat": 48.124958,
        "lon": -1.661404,
        "name": "Saint-Exupéry",
        "code": 1378
      },
      "arrival": 31260,
      "departure": 31260
    },
    {
      "stop": {
        "id": "2_1032",
        "lat": 48.123242,
        "lon": -1.659266,
        "name": "Painlevé",
        "code": 1032
      },
      "arrival": 31380,
      "departure": 31380
    },
    {
      "stop": {
        "id": "2_1033",
        "lat": 48.12128,
        "lon": -1.655029,
        "name": "Assomption",
        "code": 1033
      },
      "arrival": 31440,
      "departure": 31440
    },
    {
      "stop": {
        "id": "2_1637",
        "lat": 48.123062,
        "lon": -1.651491,
        "name": "Lycée Chateaubriand",
        "code": 1637
      },
      "arrival": 31560,
      "departure": 31560
    },
    {
      "stop": {
        "id": "2_1111",
        "lat": 48.120189,
        "lon": -1.65077,
        "name": "Docteur Quentin",
        "code": 1111
      },
      "arrival": 31620,
      "departure": 31620
    },
    {
      "stop": {
        "id": "2_1201",
        "lat": 48.119102,
        "lon": -1.649111,
        "name": "Vitré Foulon",
        "code": 1201
      },
      "arrival": 31680,
      "departure": 31680
    },
    {
      "stop": {
        "id": "2_1202",
        "lat": 48.120592,
        "lon": -1.644215,
        "name": "Beaulieu Cité U",
        "code": 1202
      },
      "arrival": 31740,
      "departure": 31740
    },
    {
      "stop": {
        "id": "2_1203",
        "lat": 48.122036,
        "lon": -1.639496,
        "name": "Beaulieu Restau U",
        "code": 1203
      },
      "arrival": 31800,
      "departure": 31800
    },
    {
      "stop": {
        "id": "2_1314",
        "lat": 48.125106,
        "lon": -1.632973,
        "name": "IUT",
        "code": 1314
      },
      "arrival": 31920,
      "departure": 31920
    },
    {
      "stop": {
        "id": "2_1290",
        "lat": 48.126929,
        "lon": -1.629221,
        "name": "Clos Courtel",
        "code": 1290
      },
      "arrival": 31980,
      "departure": 31980
    }
  ],
  "route": {
    "id": "2_0014",
    "textColor": "FFFFFF",
    "color": "805A26",
    "description": "Urbaine",
    "longName": "Stade Rennais \u003c\u003e Beaulieu Atalante",
    "shortName": "14",
    "type": 3,
    "agencyId": "2"
  }
}