{
  "headsign": "53 | Rennes République",
  "stopTimes": [
    {
      "stop": {
        "id": "2_4267",
        "lat": 48.122595,
        "lon": -1.868366,
        "name": "Ville aux Archers",
        "code": 4267
      },
      "arrival": 46800,
      "departure": 46800
    },
    {
      "stop": {
        "id": "2_4264",
        "lat": 48.123069,
        "lon": -1.865899,
        "name": "Place de la Mairie",
        "code": 4264
      },
      "arrival": 46860,
      "departure": 46860
    },
    {
      "stop": {
        "id": "2_4252",
        "lat": 48.123011,
        "lon": -1.860726,
        "name": "Rochers",
        "code": 4252
      },
      "arrival": 46920,
      "departure": 46920
    },
    {
      "stop": {
        "id": "2_4253",
        "lat": 48.121939,
        "lon": -1.846158,
        "name": "Piardière",
        "code": 4253
      },
      "arrival": 46980,
      "departure": 46980
    },
    {
      "stop": {
        "id": "2_4254",
        "lat": 48.121285,
        "lon": -1.837645,
        "name": "Grippière",
        "code": 4254
      },
      "arrival": 47040,
      "departure": 47040
    },
    {
      "stop": {
        "id": "2_4301",
        "lat": 48.122924,
        "lon": -1.821633,
        "name": "Hautière",
        "code": 4301
      },
      "arrival": 47160,
      "departure": 47160
    },
    {
      "stop": {
        "id": "2_4303",
        "lat": 48.123875,
        "lon": -1.817721,
        "name": "L\u0027Hermitage Gare",
        "code": 4303
      },
      "arrival": 47220,
      "departure": 47220
    },
    {
      "stop": {
        "id": "2_4322",
        "lat": 48.125447,
        "lon": -1.815491,
        "name": "L\u0027Hermitage Centre",
        "code": 4322
      },
      "arrival": 47220,
      "departure": 47220
    },
    {
      "stop": {
        "id": "2_4305",
        "lat": 48.124609,
        "lon": -1.811557,
        "name": "Village",
        "code": 4305
      },
      "arrival": 47280,
      "departure": 47280
    },
    {
      "stop": {
        "id": "2_4306",
        "lat": 48.123163,
        "lon": -1.806172,
        "name": "Clairefontaine",
        "code": 4306
      },
      "arrival": 47280,
      "departure": 47280
    },
    {
      "stop": {
        "id": "2_4316",
        "lat": 48.122778,
        "lon": -1.801123,
        "name": "Noë Biche",
        "code": 4316
      },
      "arrival": 47340,
      "departure": 47340
    },
    {
      "stop": {
        "id": "2_3754",
        "lat": 48.12091,
        "lon": -1.772466,
        "name": "Haie de Terre",
        "code": 3754
      },
      "arrival": 47520,
      "departure": 47520
    },
    {
      "stop": {
        "id": "2_3755",
        "lat": 48.120211,
        "lon": -1.765417,
        "name": "Vallée",
        "code": 3755
      },
      "arrival": 47580,
      "departure": 47580
    },
    {
      "stop": {
        "id": "2_3756",
        "lat": 48.119004,
        "lon": -1.760926,
        "name": "Lion d\u0027Or",
        "code": 3756
      },
      "arrival": 47640,
      "departure": 47640
    },
    {
      "stop": {
        "id": "2_3757",
        "lat": 48.11887,
        "lon": -1.756833,
        "name": "Vezin Centre",
        "code": 3757
      },
      "arrival": 47700,
      "departure": 47700
    },
    {
      "stop": {
        "id": "2_3770",
        "lat": 48.118999,
        "lon": -1.749372,
        "name": "Champs Bleus",
        "code": 3770
      },
      "arrival": 47760,
      "departure": 47760
    },
    {
      "stop": {
        "id": "2_3758",
        "lat": 48.118334,
        "lon": -1.742441,
        "name": "Tertre",
        "code": 3758
      },
      "arrival": 47820,
      "departure": 47820
    },
    {
      "stop": {
        "id": "2_3759",
        "lat": 48.117611,
        "lon": -1.731377,
        "name": "Champ Noël",
        "code": 3759
      },
      "arrival": 47880,
      "departure": 47880
    },
    {
      "stop": {
        "id": "2_1504",
        "lat": 48.116353,
        "lon": -1.723158,
        "name": "Petit Champeaux",
        "code": 1504
      },
      "arrival": 47940,
      "departure": 47940
    },
    {
      "stop": {
        "id": "2_1503",
        "lat": 48.116133,
        "lon": -1.715924,
        "name": "Colin",
        "code": 1503
      },
      "arrival": 48000,
      "departure": 48000
    },
    {
      "stop": {
        "id": "2_1422",
        "lat": 48.116261,
        "lon": -1.711309,
        "name": "Merlin",
        "code": 1422
      },
      "arrival": 48060,
      "departure": 48060
    },
    {
      "stop": {
        "id": "2_1500",
        "lat": 48.113203,
        "lon": -1.704506,
        "name": "Agrocampus",
        "code": 1500
      },
      "arrival": 48180,
      "departure": 48180
    },
    {
      "stop": {
        "id": "2_1294",
        "lat": 48.111305,
        "lon": -1.701301,
        "name": "Marbeuf",
        "code": 1294
      },
      "arrival": 48180,
      "departure": 48180
    },
    {
      "stop": {
        "id": "2_1311",
        "lat": 48.10957,
        "lon": -1.698313,
        "name": "Guilloux",
        "code": 1311
      },
      "arrival": 48240,
      "departure": 48240
    },
    {
      "stop": {
        "id": "2_1239",
        "lat": 48.108256,
        "lon": -1.694158,
        "name": "Chèques Postaux",
        "code": 1239
      },
      "arrival": 48300,
      "departure": 48300
    },
    {
      "stop": {
        "id": "2_1542",
        "lat": 48.10992,
        "lon": -1.68535,
        "name": "Pont de Bretagne",
        "code": 1542
      },
      "arrival": 48420,
      "departure": 48420
    },
    {
      "stop": {
        "id": "2_1167",
        "lat": 48.109405,
        "lon": -1.678734,
        "name": "République Pré Botté",
        "code": 1167
      },
      "arrival": 48540,
      "departure": 48540
    }
  ],
  "route": {
    "id": "2_0053",
    "textColor": "FFFFFF",
    "color": "D20132",
    "description": "Métropolitaine",
    "longName": "Rennes (République) \u003c\u003e Vezin-le-Coquet / L\u0027Hermitage / La Chapelle-Thouarault",
    "shortName": "53",
    "type": 3,
    "agencyId": "2"
  }
}