{
  "headsign": "54 | Rennes Charles de Gaulle",
  "stopTimes": [
    {
      "stop": {
        "id": "2_4652",
        "lat": 48.10508252,
        "lon": -1.87271047,
        "name": "Chêne Vert",
        "code": 4652
      },
      "arrival": 61080,
      "departure": 61080
    },
    {
      "stop": {
        "id": "2_4653",
        "lat": 48.10342902,
        "lon": -1.86952936,
        "name": "Saint-Melaine",
        "code": 4653
      },
      "arrival": 61140,
      "departure": 61140
    },
    {
      "stop": {
        "id": "2_2501",
        "lat": 48.10244741,
        "lon": -1.83230313,
        "name": "Noë Diolé",
        "code": 2501
      },
      "arrival": 61320,
      "departure": 61320
    },
    {
      "stop": {
        "id": "2_2502",
        "lat": 48.1005527,
        "lon": -1.80657108,
        "name": "Lycée Monod",
        "code": 2502
      },
      "arrival": 61500,
      "departure": 61500
    },
    {
      "stop": {
        "id": "2_2503",
        "lat": 48.09895196,
        "lon": -1.80139197,
        "name": "Champs Freslons",
        "code": 2503
      },
      "arrival": 61560,
      "departure": 61560
    },
    {
      "stop": {
        "id": "2_2504",
        "lat": 48.0989712,
        "lon": -1.79693897,
        "name": "Brassens",
        "code": 2504
      },
      "arrival": 61620,
      "departure": 61620
    },
    {
      "stop": {
        "id": "2_2505",
        "lat": 48.10163022,
        "lon": -1.79451553,
        "name": "Bouleaux",
        "code": 2505
      },
      "arrival": 61680,
      "departure": 61680
    },
    {
      "stop": {
        "id": "2_2506",
        "lat": 48.09931104,
        "lon": -1.79124998,
        "name": "Genêts",
        "code": 2506
      },
      "arrival": 61740,
      "departure": 61740
    },
    {
      "stop": {
        "id": "2_2507",
        "lat": 48.09755056,
        "lon": -1.78133332,
        "name": "Barberais",
        "code": 2507
      },
      "arrival": 61860,
      "departure": 61860
    },
    {
      "stop": {
        "id": "2_2508",
        "lat": 48.09687556,
        "lon": -1.77558132,
        "name": "Les Pins",
        "code": 2508
      },
      "arrival": 61920,
      "departure": 61920
    },
    {
      "stop": {
        "id": "2_2509",
        "lat": 48.0961416,
        "lon": -1.76472044,
        "name": "Pont d\u0027Avoine",
        "code": 2509
      },
      "arrival": 62040,
      "departure": 62040
    },
    {
      "stop": {
        "id": "2_2510",
        "lat": 48.10386756,
        "lon": -1.75043717,
        "name": "Plessix Saucourt",
        "code": 2510
      },
      "arrival": 62220,
      "departure": 62220
    },
    {
      "stop": {
        "id": "2_3752",
        "lat": 48.10474061,
        "lon": -1.73906178,
        "name": "Trois Marches",
        "code": 3752
      },
      "arrival": 62340,
      "departure": 62340
    },
    {
      "stop": {
        "id": "2_1508",
        "lat": 48.10673486,
        "lon": -1.7291459,
        "name": "Berthault",
        "code": 1508
      },
      "arrival": 62460,
      "departure": 62460
    },
    {
      "stop": {
        "id": "2_1233",
        "lat": 48.10704452,
        "lon": -1.72187845,
        "name": "Lemaistre",
        "code": 1233
      },
      "arrival": 62520,
      "departure": 62520
    },
    {
      "stop": {
        "id": "2_1235",
        "lat": 48.10892663,
        "lon": -1.70977108,
        "name": "Géniaux",
        "code": 1235
      },
      "arrival": 62700,
      "departure": 62700
    },
    {
      "stop": {
        "id": "2_1238",
        "lat": 48.1086959,
        "lon": -1.69884796,
        "name": "Guilloux Lorient",
        "code": 1238
      },
      "arrival": 62820,
      "departure": 62820
    },
    {
      "stop": {
        "id": "2_1239",
        "lat": 48.10814248,
        "lon": -1.6948685,
        "name": "Chèques Postaux",
        "code": 1239
      },
      "arrival": 62880,
      "departure": 62880
    },
    {
      "stop": {
        "id": "2_1542",
        "lat": 48.10997275,
        "lon": -1.68535336,
        "name": "Pont de Bretagne",
        "code": 1542
      },
      "arrival": 63060,
      "departure": 63060
    },
    {
      "stop": {
        "id": "2_1242",
        "lat": 48.10980333,
        "lon": -1.6795219,
        "name": "République",
        "code": 1242
      },
      "arrival": 63120,
      "departure": 63120
    },
    {
      "stop": {
        "id": "2_1088",
        "lat": 48.10744897,
        "lon": -1.67491383,
        "name": "Liberté TNB",
        "code": 1088
      },
      "arrival": 63300,
      "departure": 63300
    },
    {
      "stop": {
        "id": "2_1567",
        "lat": 48.1062288,
        "lon": -1.67750174,
        "name": "Charles de Gaulle",
        "code": 1567
      },
      "arrival": 63420,
      "departure": 63420
    }
  ],
  "route": {
    "id": "2_0054",
    "textColor": "ffffff",
    "color": "cc90ba",
    "description": "Métropolitaine",
    "longName": "Rennes (Charles de Gaulle) \u003c\u003e Le Rheu / Cintré",
    "shortName": "54",
    "type": 3,
    "agencyId": "2"
  }
}