{
  "headsign": "71 | Rennes Hoche",
  "stopTimes": [
    {
      "stop": {
        "id": "2_4604",
        "lat": 48.209944,
        "lon": -1.625841,
        "name": "Pommiers",
        "code": 4604
      },
      "arrival": 24900,
      "departure": 24900
    },
    {
      "stop": {
        "id": "2_4605",
        "lat": 48.214395,
        "lon": -1.628958,
        "name": "Fonderies",
        "code": 4605
      },
      "arrival": 25020,
      "departure": 25020
    },
    {
      "stop": {
        "id": "2_4606",
        "lat": 48.211961,
        "lon": -1.630307,
        "name": "Chevaigné Mairie",
        "code": 4606
      },
      "arrival": 25080,
      "departure": 25080
    },
    {
      "stop": {
        "id": "2_4607",
        "lat": 48.207641,
        "lon": -1.630846,
        "name": "Chevaigné Gare",
        "code": 4607
      },
      "arrival": 25140,
      "departure": 25140
    },
    {
      "stop": {
        "id": "2_4609",
        "lat": 48.199145,
        "lon": -1.627451,
        "name": "Chopinais",
        "code": 4609
      },
      "arrival": 25320,
      "departure": 25320
    },
    {
      "stop": {
        "id": "2_2451",
        "lat": 48.19085,
        "lon": -1.629331,
        "name": "Gentilhommière",
        "code": 2451
      },
      "arrival": 25440,
      "departure": 25440
    },
    {
      "stop": {
        "id": "2_2432",
        "lat": 48.186271,
        "lon": -1.633356,
        "name": "J. Sébastien Bach",
        "code": 2432
      },
      "arrival": 25560,
      "departure": 25560
    },
    {
      "stop": {
        "id": "2_2431",
        "lat": 48.182984,
        "lon": -1.637374,
        "name": "Mozart",
        "code": 2431
      },
      "arrival": 25620,
      "departure": 25620
    },
    {
      "stop": {
        "id": "2_2406",
        "lat": 48.181123,
        "lon": -1.637898,
        "name": "Betton Centre",
        "code": 2406
      },
      "arrival": 25680,
      "departure": 25680
    },
    {
      "stop": {
        "id": "2_2430",
        "lat": 48.175999,
        "lon": -1.639619,
        "name": "Betton Rue de Rennes",
        "code": 2430
      },
      "arrival": 25800,
      "departure": 25800
    },
    {
      "stop": {
        "id": "2_2410",
        "lat": 48.17135,
        "lon": -1.642053,
        "name": "Enseigne Abbaye",
        "code": 2410
      },
      "arrival": 25860,
      "departure": 25860
    },
    {
      "stop": {
        "id": "2_2411",
        "lat": 48.161724,
        "lon": -1.647868,
        "name": "Betton Vallée",
        "code": 2411
      },
      "arrival": 25980,
      "departure": 25980
    },
    {
      "stop": {
        "id": "2_2827",
        "lat": 48.148996,
        "lon": -1.656601,
        "name": "Maison Blanche",
        "code": 2827
      },
      "arrival": 26100,
      "departure": 26100
    },
    {
      "stop": {
        "id": "2_1485",
        "lat": 48.137957,
        "lon": -1.658769,
        "name": "Saint-Laurent",
        "code": 1485
      },
      "arrival": 26220,
      "departure": 26220
    },
    {
      "stop": {
        "id": "2_1486",
        "lat": 48.134801,
        "lon": -1.659901,
        "name": "Hôtel de Région",
        "code": 1486
      },
      "arrival": 26280,
      "departure": 26280
    },
    {
      "stop": {
        "id": "2_1261",
        "lat": 48.125322,
        "lon": -1.666645,
        "name": "Volney",
        "code": 1261
      },
      "arrival": 26520,
      "departure": 26520
    },
    {
      "stop": {
        "id": "2_1011",
        "lat": 48.118312,
        "lon": -1.671315,
        "name": "Fac de Droit",
        "code": 1011
      },
      "arrival": 26820,
      "departure": 26820
    },
    {
      "stop": {
        "id": "2_1606",
        "lat": 48.115697,
        "lon": -1.676699,
        "name": "Hoche",
        "code": 1606
      },
      "arrival": 26940,
      "departure": 26940
    }
  ],
  "route": {
    "id": "2_0071",
    "textColor": "FFFFFF",
    "color": "A9701E",
    "description": "Métropolitaine",
    "longName": "Rennes (Hoche) \u003c\u003e Betton / Chevaigné",
    "shortName": "71",
    "type": 3,
    "agencyId": "2"
  }
}