{
  "headsign": "52 | Montgermont Chapelle Gévezé",
  "stopTimes": [
    {
      "stop": {
        "id": "2_1494",
        "lat": 48.12125283,
        "lon": -1.70296746,
        "name": "Villejean-Université",
        "code": 1494
      },
      "arrival": 58800,
      "departure": 58800
    },
    {
      "stop": {
        "id": "2_1495",
        "lat": 48.12663856,
        "lon": -1.69309309,
        "name": "Lycée Basch",
        "code": 1495
      },
      "arrival": 59040,
      "departure": 59040
    },
    {
      "stop": {
        "id": "2_1543",
        "lat": 48.13134643,
        "lon": -1.69183512,
        "name": "Léonard",
        "code": 1543
      },
      "arrival": 59100,
      "departure": 59100
    },
    {
      "stop": {
        "id": "2_2830",
        "lat": 48.13432722,
        "lon": -1.69446334,
        "name": "Grand Quartier",
        "code": 2830
      },
      "arrival": 59160,
      "departure": 59160
    },
    {
      "stop": {
        "id": "2_3508",
        "lat": 48.14826699,
        "lon": -1.70363701,
        "name": "Vizeule",
        "code": 3508
      },
      "arrival": 59280,
      "departure": 59280
    },
    {
      "stop": {
        "id": "2_3509",
        "lat": 48.15288114,
        "lon": -1.70885747,
        "name": "Métrie",
        "code": 3509
      },
      "arrival": 59400,
      "departure": 59400
    },
    {
      "stop": {
        "id": "2_3510",
        "lat": 48.15558798,
        "lon": -1.71082246,
        "name": "Belle Epine",
        "code": 3510
      },
      "arrival": 59400,
      "departure": 59400
    },
    {
      "stop": {
        "id": "2_3511",
        "lat": 48.15733411,
        "lon": -1.71460655,
        "name": "Courtines",
        "code": 3511
      },
      "arrival": 59460,
      "departure": 59460
    },
    {
      "stop": {
        "id": "2_3512",
        "lat": 48.15567996,
        "lon": -1.71663805,
        "name": "Montgermont Mairie",
        "code": 3512
      },
      "arrival": 59520,
      "departure": 59520
    },
    {
      "stop": {
        "id": "2_3513",
        "lat": 48.15568596,
        "lon": -1.72068225,
        "name": "Pierre Texier",
        "code": 3513
      },
      "arrival": 59580,
      "departure": 59580
    },
    {
      "stop": {
        "id": "2_3501",
        "lat": 48.15713428,
        "lon": -1.72329993,
        "name": "Fougerolle",
        "code": 3501
      },
      "arrival": 59640,
      "departure": 59640
    },
    {
      "stop": {
        "id": "2_3515",
        "lat": 48.16271981,
        "lon": -1.73059303,
        "name": "Silandière",
        "code": 3515
      },
      "arrival": 59700,
      "departure": 59700
    },
    {
      "stop": {
        "id": "2_4057",
        "lat": 48.17039595,
        "lon": -1.73622985,
        "name": "Sénestrais",
        "code": 4057
      },
      "arrival": 59820,
      "departure": 59820
    },
    {
      "stop": {
        "id": "2_4058",
        "lat": 48.17395236,
        "lon": -1.73523531,
        "name": "Viennais",
        "code": 4058
      },
      "arrival": 59880,
      "departure": 59880
    },
    {
      "stop": {
        "id": "2_4059",
        "lat": 48.17663681,
        "lon": -1.7328654,
        "name": "Mairie",
        "code": 4059
      },
      "arrival": 59880,
      "departure": 59880
    },
    {
      "stop": {
        "id": "2_4060",
        "lat": 48.1794217,
        "lon": -1.72905833,
        "name": "Métairie",
        "code": 4060
      },
      "arrival": 59940,
      "departure": 59940
    },
    {
      "stop": {
        "id": "2_4069",
        "lat": 48.18312865,
        "lon": -1.72600138,
        "name": "Besneraie",
        "code": 4069
      },
      "arrival": 60060,
      "departure": 60060
    },
    {
      "stop": {
        "id": "2_4503",
        "lat": 48.21863623,
        "lon": -1.78399508,
        "name": "Flume",
        "code": 4503
      },
      "arrival": 60540,
      "departure": 60540
    },
    {
      "stop": {
        "id": "2_4505",
        "lat": 48.22096598,
        "lon": -1.78811849,
        "name": "Gévezé Mairie",
        "code": 4505
      },
      "arrival": 60540,
      "departure": 60540
    },
    {
      "stop": {
        "id": "2_4511",
        "lat": 48.22397777,
        "lon": -1.79377074,
        "name": "Prés Verts",
        "code": 4511
      },
      "arrival": 60600,
      "departure": 60600
    },
    {
      "stop": {
        "id": "2_4509",
        "lat": 48.2246446,
        "lon": -1.80044931,
        "name": "Coualeuc",
        "code": 4509
      },
      "arrival": 60720,
      "departure": 60720
    },
    {
      "stop": {
        "id": "2_4507",
        "lat": 48.22178273,
        "lon": -1.80232719,
        "name": "Cheval Blanc",
        "code": 4507
      },
      "arrival": 60780,
      "departure": 60780
    }
  ],
  "route": {
    "id": "2_0052",
    "textColor": "ffffff",
    "color": "007a76",
    "description": "Métropolitaine",
    "longName": "Saint-Gilles / Pacé \u003c\u003e Rennes (Villejean-Université) \u003c\u003e Montgermont / La Chapelle-des-Fougeretz",
    "shortName": "52",
    "type": 3,
    "agencyId": "2"
  }
}