{
  "headsign": "96 | Romillé Chapelle-Ch.",
  "stopTimes": [
    {
      "stop": {
        "id": "2_4950",
        "lat": 48.28476,
        "lon": -1.931062,
        "name": "Miniac Eglise",
        "code": 4950
      },
      "arrival": 69000,
      "departure": 69000
    },
    {
      "stop": {
        "id": "2_4802",
        "lat": 48.299525,
        "lon": -1.939645,
        "name": "Sévignière",
        "code": 4802
      },
      "arrival": 69300,
      "departure": 69300
    },
    {
      "stop": {
        "id": "2_4800",
        "lat": 48.296185,
        "lon": -1.945385,
        "name": "Bécherel Centre",
        "code": 4800
      },
      "arrival": 69360,
      "departure": 69360
    },
    {
      "stop": {
        "id": "2_6000",
        "lat": 48.218908,
        "lon": -1.893833,
        "name": "Romillé Collège",
        "code": 6000
      },
      "arrival": 70200,
      "departure": 70320
    },
    {
      "stop": {
        "id": "2_6002",
        "lat": 48.215591,
        "lon": -1.891703,
        "name": "Frères Aubert",
        "code": 6002
      },
      "arrival": 70380,
      "departure": 70380
    },
    {
      "stop": {
        "id": "2_4900",
        "lat": 48.244847,
        "lon": -1.853798,
        "name": "Langan Bourg",
        "code": 4900
      },
      "arrival": 70800,
      "departure": 70800
    },
    {
      "stop": {
        "id": "2_4850",
        "lat": 48.273268,
        "lon": -1.861002,
        "name": "Chapelle-Chaussée",
        "code": 4850
      },
      "arrival": 71160,
      "departure": 71160
    }
  ],
  "route": {
    "id": "2_0096",
    "textColor": "DF171C",
    "color": "8FC255",
    "description": "Intercommunale",
    "longName": "Miniac-sous-Bécherel / Bécherel \u003c\u003e Romillé \u003c\u003e Langan / La-Chapelle-Chaussée",
    "shortName": "96",
    "type": 3,
    "agencyId": "2"
  }
}