{
  "headsign": "94 | Chevaigné Saint-Sulpice-la-F.",
  "stopTimes": [
    {
      "stop": {
        "id": "2_2417",
        "lat": 48.181747,
        "lon": -1.638457,
        "name": "Betton Centre",
        "code": 2417
      },
      "arrival": 73020,
      "departure": 73020
    },
    {
      "stop": {
        "id": "2_2435",
        "lat": 48.18312,
        "lon": -1.637107,
        "name": "Mozart",
        "code": 2435
      },
      "arrival": 73080,
      "departure": 73080
    },
    {
      "stop": {
        "id": "2_2434",
        "lat": 48.186441,
        "lon": -1.633092,
        "name": "J. Sébastien Bach",
        "code": 2434
      },
      "arrival": 73140,
      "departure": 73140
    },
    {
      "stop": {
        "id": "2_2458",
        "lat": 48.190991,
        "lon": -1.628981,
        "name": "Gentilhommière",
        "code": 2458
      },
      "arrival": 73260,
      "departure": 73260
    },
    {
      "stop": {
        "id": "2_4610",
        "lat": 48.199223,
        "lon": -1.627788,
        "name": "Chopinais",
        "code": 4610
      },
      "arrival": 73380,
      "departure": 73380
    },
    {
      "stop": {
        "id": "2_4608",
        "lat": 48.207963,
        "lon": -1.630549,
        "name": "Chevaigné Gare",
        "code": 4608
      },
      "arrival": 73560,
      "departure": 73560
    },
    {
      "stop": {
        "id": "2_4601",
        "lat": 48.211782,
        "lon": -1.630337,
        "name": "Chevaigné Mairie",
        "code": 4601
      },
      "arrival": 73620,
      "departure": 73620
    },
    {
      "stop": {
        "id": "2_4602",
        "lat": 48.214316,
        "lon": -1.628818,
        "name": "Fonderies",
        "code": 4602
      },
      "arrival": 73680,
      "departure": 73680
    },
    {
      "stop": {
        "id": "2_4603",
        "lat": 48.210932,
        "lon": -1.626041,
        "name": "Pommiers",
        "code": 4603
      },
      "arrival": 73740,
      "departure": 73740
    },
    {
      "stop": {
        "id": "2_3959",
        "lat": 48.211771,
        "lon": -1.590509,
        "name": "Tronchay",
        "code": 3959
      },
      "arrival": 74040,
      "departure": 74040
    },
    {
      "stop": {
        "id": "2_3954",
        "lat": 48.21475,
        "lon": -1.586501,
        "name": "Terrain des Sports",
        "code": 3954
      },
      "arrival": 74100,
      "departure": 74100
    },
    {
      "stop": {
        "id": "2_3961",
        "lat": 48.217752,
        "lon": -1.581363,
        "name": "Bourg",
        "code": 3961
      },
      "arrival": 74160,
      "departure": 74160
    },
    {
      "stop": {
        "id": "2_3962",
        "lat": 48.223126,
        "lon": -1.576679,
        "name": "Chesnais",
        "code": 3962
      },
      "arrival": 74220,
      "departure": 74220
    },
    {
      "stop": {
        "id": "2_3951",
        "lat": 48.225212,
        "lon": -1.570409,
        "name": "Cropy",
        "code": 3951
      },
      "arrival": 74280,
      "departure": 74280
    }
  ],
  "route": {
    "id": "2_0094",
    "textColor": "1A171B",
    "color": "AECC52",
    "description": "Intercommunale",
    "longName": "Saint-Sulpice-la-Forêt / Chevaigné \u003c\u003e Betton (Centre)",
    "shortName": "94",
    "type": 3,
    "agencyId": "2"
  }
}