{
  "headsign": "77 | Pacé Parthenay",
  "stopTimes": [
    {
      "stop": {
        "id": "2_1214",
        "lat": 48.10990137,
        "lon": -1.6796669,
        "name": "République",
        "code": 1214
      },
      "arrival": 86400,
      "departure": 86400
    },
    {
      "stop": {
        "id": "2_1519",
        "lat": 48.12110069,
        "lon": -1.70297631,
        "name": "Villejean-Université",
        "code": 1519
      },
      "arrival": 86940,
      "departure": 86940
    },
    {
      "stop": {
        "id": "2_1518",
        "lat": 48.12062672,
        "lon": -1.71046453,
        "name": "Bourbonnais",
        "code": 1518
      },
      "arrival": 87120,
      "departure": 87120
    },
    {
      "stop": {
        "id": "2_1521",
        "lat": 48.11845974,
        "lon": -1.71376004,
        "name": "Berry",
        "code": 1521
      },
      "arrival": 87180,
      "departure": 87180
    },
    {
      "stop": {
        "id": "2_3113",
        "lat": 48.14335637,
        "lon": -1.7704102,
        "name": "Le Ponant",
        "code": 3113
      },
      "arrival": 87540,
      "departure": 87540
    },
    {
      "stop": {
        "id": "2_3114",
        "lat": 48.14572649,
        "lon": -1.77065135,
        "name": "Carré Dumaine",
        "code": 3114
      },
      "arrival": 87600,
      "departure": 87600
    },
    {
      "stop": {
        "id": "2_3115",
        "lat": 48.1479969,
        "lon": -1.7697924,
        "name": "Pacé Cimetière",
        "code": 3115
      },
      "arrival": 87660,
      "departure": 87660
    },
    {
      "stop": {
        "id": "2_3130",
        "lat": 48.15155536,
        "lon": -1.77051816,
        "name": "Le Brix",
        "code": 3130
      },
      "arrival": 87780,
      "departure": 87780
    },
    {
      "stop": {
        "id": "2_3131",
        "lat": 48.15444094,
        "lon": -1.7704961,
        "name": "Pacé Collèges",
        "code": 3131
      },
      "arrival": 87840,
      "departure": 87840
    },
    {
      "stop": {
        "id": "2_3132",
        "lat": 48.15542425,
        "lon": -1.76468404,
        "name": "Champalaune",
        "code": 3132
      },
      "arrival": 87900,
      "departure": 87900
    },
    {
      "stop": {
        "id": "2_3133",
        "lat": 48.15728468,
        "lon": -1.76571429,
        "name": "Ouessant",
        "code": 3133
      },
      "arrival": 87960,
      "departure": 87960
    },
    {
      "stop": {
        "id": "2_3125",
        "lat": 48.16046526,
        "lon": -1.7679822,
        "name": "Pâtis Roussel",
        "code": 3125
      },
      "arrival": 88020,
      "departure": 88020
    },
    {
      "stop": {
        "id": "2_3116",
        "lat": 48.15088755,
        "lon": -1.77187229,
        "name": "Duchesse Anne",
        "code": 3116
      },
      "arrival": 88260,
      "departure": 88260
    },
    {
      "stop": {
        "id": "2_3117",
        "lat": 48.15123454,
        "lon": -1.77754822,
        "name": "Renan",
        "code": 3117
      },
      "arrival": 88320,
      "departure": 88320
    },
    {
      "stop": {
        "id": "2_3141",
        "lat": 48.15471747,
        "lon": -1.78435726,
        "name": "Pont Amelin",
        "code": 3141
      },
      "arrival": 88380,
      "departure": 88380
    },
    {
      "stop": {
        "id": "2_3143",
        "lat": 48.16992161,
        "lon": -1.78800014,
        "name": "Haute Rabine",
        "code": 3143
      },
      "arrival": 88560,
      "departure": 88560
    },
    {
      "stop": {
        "id": "2_3124",
        "lat": 48.17528483,
        "lon": -1.79000995,
        "name": "Chapitre",
        "code": 3124
      },
      "arrival": 88560,
      "departure": 88560
    },
    {
      "stop": {
        "id": "2_3146",
        "lat": 48.18007473,
        "lon": -1.80190215,
        "name": "Touche Champagne",
        "code": 3146
      },
      "arrival": 88680,
      "departure": 88680
    },
    {
      "stop": {
        "id": "2_3611",
        "lat": 48.18636688,
        "lon": -1.81649511,
        "name": "Le Reuvre",
        "code": 3611
      },
      "arrival": 88800,
      "departure": 88800
    },
    {
      "stop": {
        "id": "2_3612",
        "lat": 48.18991366,
        "lon": -1.82014907,
        "name": "Placis de la Touche",
        "code": 3612
      },
      "arrival": 88860,
      "departure": 88860
    },
    {
      "stop": {
        "id": "2_3613",
        "lat": 48.19124712,
        "lon": -1.82435607,
        "name": "La Noë",
        "code": 3613
      },
      "arrival": 88860,
      "departure": 88860
    },
    {
      "stop": {
        "id": "2_3614",
        "lat": 48.19177543,
        "lon": -1.82774803,
        "name": "Clos des Tilleuls",
        "code": 3614
      },
      "arrival": 88920,
      "departure": 88920
    },
    {
      "stop": {
        "id": "2_3615",
        "lat": 48.19212549,
        "lon": -1.83142977,
        "name": "Parthenay Mairie",
        "code": 3615
      },
      "arrival": 88920,
      "departure": 88920
    },
    {
      "stop": {
        "id": "2_3617",
        "lat": 48.194415,
        "lon": -1.832078,
        "name": "Parthenay Fontaine",
        "code": 3617
      },
      "arrival": 88980,
      "departure": 88980
    }
  ],
  "route": {
    "id": "2_0077",
    "textColor": "201d21",
    "color": "f6c200",
    "description": "Métropolitaine",
    "longName": "Rennes (Villejean-Université) \u003c\u003e Pacé",
    "shortName": "77",
    "type": 3,
    "agencyId": "2"
  }
}