{
  "headsign": "8 | Saint-Grégoire via Pontay",
  "stopTimes": [
    {
      "stop": {
        "id": "2_1343",
        "lat": 48.08760896,
        "lon": -1.64596836,
        "name": "La Poterie",
        "code": 1343
      },
      "arrival": 27360,
      "departure": 27360
    },
    {
      "stop": {
        "id": "2_1344",
        "lat": 48.08766529,
        "lon": -1.65003592,
        "name": "Galicie",
        "code": 1344
      },
      "arrival": 27420,
      "departure": 27420
    },
    {
      "stop": {
        "id": "2_1358",
        "lat": 48.09136825,
        "lon": -1.65190911,
        "name": "Pologne",
        "code": 1358
      },
      "arrival": 27540,
      "departure": 27540
    },
    {
      "stop": {
        "id": "2_1359",
        "lat": 48.09143755,
        "lon": -1.6556288,
        "name": "Landrel",
        "code": 1359
      },
      "arrival": 27600,
      "departure": 27600
    },
    {
      "stop": {
        "id": "2_1360",
        "lat": 48.09241999,
        "lon": -1.65836606,
        "name": "Gide",
        "code": 1360
      },
      "arrival": 27660,
      "departure": 27660
    },
    {
      "stop": {
        "id": "2_1361",
        "lat": 48.09421028,
        "lon": -1.65822788,
        "name": "Langevin",
        "code": 1361
      },
      "arrival": 27720,
      "departure": 27720
    },
    {
      "stop": {
        "id": "2_1362",
        "lat": 48.09508001,
        "lon": -1.661534,
        "name": "Leray",
        "code": 1362
      },
      "arrival": 27780,
      "departure": 27780
    },
    {
      "stop": {
        "id": "2_1363",
        "lat": 48.09744232,
        "lon": -1.66265748,
        "name": "Sainte-Thérèse",
        "code": 1363
      },
      "arrival": 27840,
      "departure": 27840
    },
    {
      "stop": {
        "id": "2_1364",
        "lat": 48.09802421,
        "lon": -1.6670823,
        "name": "Bigot de Préameneu",
        "code": 1364
      },
      "arrival": 27960,
      "departure": 27960
    },
    {
      "stop": {
        "id": "2_1365",
        "lat": 48.09771617,
        "lon": -1.6691678,
        "name": "Ormeaux",
        "code": 1365
      },
      "arrival": 27960,
      "departure": 27960
    },
    {
      "stop": {
        "id": "2_1366",
        "lat": 48.09775635,
        "lon": -1.67110913,
        "name": "Châtillon",
        "code": 1366
      },
      "arrival": 28020,
      "departure": 28020
    },
    {
      "stop": {
        "id": "2_1333",
        "lat": 48.09774726,
        "lon": -1.67519921,
        "name": "Jacques Cartier",
        "code": 1333
      },
      "arrival": 28140,
      "departure": 28140
    },
    {
      "stop": {
        "id": "2_1141",
        "lat": 48.09927814,
        "lon": -1.67561799,
        "name": "Ginguené",
        "code": 1141
      },
      "arrival": 28140,
      "departure": 28140
    },
    {
      "stop": {
        "id": "2_1142",
        "lat": 48.10133802,
        "lon": -1.67625716,
        "name": "Gare Sud Féval",
        "code": 1142
      },
      "arrival": 28260,
      "departure": 28260
    },
    {
      "stop": {
        "id": "2_1143",
        "lat": 48.10608092,
        "lon": -1.67760115,
        "name": "Charles de Gaulle",
        "code": 1143
      },
      "arrival": 28380,
      "departure": 28380
    },
    {
      "stop": {
        "id": "2_1144",
        "lat": 48.11006929,
        "lon": -1.67780478,
        "name": "République Jaurès",
        "code": 1144
      },
      "arrival": 28560,
      "departure": 28560
    },
    {
      "stop": {
        "id": "2_1367",
        "lat": 48.1109799,
        "lon": -1.67952017,
        "name": "Rennes Mairie",
        "code": 1367
      },
      "arrival": 28620,
      "departure": 28620
    },
    {
      "stop": {
        "id": "2_1025",
        "lat": 48.11273566,
        "lon": -1.68025817,
        "name": "Champ Jacquet",
        "code": 1025
      },
      "arrival": 28740,
      "departure": 28740
    },
    {
      "stop": {
        "id": "2_1026",
        "lat": 48.11478452,
        "lon": -1.67927843,
        "name": "Sainte-Anne",
        "code": 1026
      },
      "arrival": 28860,
      "departure": 28860
    },
    {
      "stop": {
        "id": "2_1183",
        "lat": 48.11735545,
        "lon": -1.67855043,
        "name": "Hôtel Dieu",
        "code": 1183
      },
      "arrival": 28980,
      "departure": 28980
    },
    {
      "stop": {
        "id": "2_1368",
        "lat": 48.11837352,
        "lon": -1.68060609,
        "name": "Square de la Rance",
        "code": 1368
      },
      "arrival": 29100,
      "departure": 29100
    },
    {
      "stop": {
        "id": "2_1369",
        "lat": 48.12026611,
        "lon": -1.68107001,
        "name": "Auberge de Jeunesse",
        "code": 1369
      },
      "arrival": 29160,
      "departure": 29160
    },
    {
      "stop": {
        "id": "2_1370",
        "lat": 48.12202159,
        "lon": -1.68362206,
        "name": "IUFM",
        "code": 1370
      },
      "arrival": 29220,
      "departure": 29220
    },
    {
      "stop": {
        "id": "2_1099",
        "lat": 48.12361631,
        "lon": -1.68364233,
        "name": "Saint-Martin",
        "code": 1099
      },
      "arrival": 29280,
      "departure": 29280
    },
    {
      "stop": {
        "id": "2_1100",
        "lat": 48.12493528,
        "lon": -1.68198209,
        "name": "Cimetière Nord",
        "code": 1100
      },
      "arrival": 29340,
      "departure": 29340
    },
    {
      "stop": {
        "id": "2_1041",
        "lat": 48.12884165,
        "lon": -1.68371536,
        "name": "Trois Croix",
        "code": 1041
      },
      "arrival": 29460,
      "departure": 29460
    },
    {
      "stop": {
        "id": "2_1102",
        "lat": 48.13115995,
        "lon": -1.68458083,
        "name": "Donelière",
        "code": 1102
      },
      "arrival": 29520,
      "departure": 29520
    },
    {
      "stop": {
        "id": "2_1371",
        "lat": 48.13300291,
        "lon": -1.68506819,
        "name": "Lycée Mendès France",
        "code": 1371
      },
      "arrival": 29520,
      "departure": 29520
    },
    {
      "stop": {
        "id": "2_2816",
        "lat": 48.13819857,
        "lon": -1.68643094,
        "name": "La Plesse",
        "code": 2816
      },
      "arrival": 29640,
      "departure": 29640
    },
    {
      "stop": {
        "id": "2_2814",
        "lat": 48.14290311,
        "lon": -1.68658457,
        "name": "CHP Saint-Grégoire",
        "code": 2814
      },
      "arrival": 29700,
      "departure": 29700
    },
    {
      "stop": {
        "id": "2_2818",
        "lat": 48.14687017,
        "lon": -1.68620414,
        "name": "Haut Trait",
        "code": 2818
      },
      "arrival": 29820,
      "departure": 29820
    },
    {
      "stop": {
        "id": "2_2819",
        "lat": 48.15139757,
        "lon": -1.68591914,
        "name": "Forge",
        "code": 2819
      },
      "arrival": 29880,
      "departure": 29880
    },
    {
      "stop": {
        "id": "2_2820",
        "lat": 48.15144553,
        "lon": -1.69128472,
        "name": "Cité des Jardins",
        "code": 2820
      },
      "arrival": 29940,
      "departure": 29940
    },
    {
      "stop": {
        "id": "2_2810",
        "lat": 48.15366867,
        "lon": -1.69204814,
        "name": "Paul-Emile Victor",
        "code": 2810
      },
      "arrival": 30000,
      "departure": 30000
    },
    {
      "stop": {
        "id": "2_2822",
        "lat": 48.15471175,
        "lon": -1.68670333,
        "name": "Discalceat",
        "code": 2822
      },
      "arrival": 30120,
      "departure": 30120
    },
    {
      "stop": {
        "id": "2_2836",
        "lat": 48.15696733,
        "lon": -1.68730287,
        "name": "Uttenreuth",
        "code": 2836
      },
      "arrival": 30180,
      "departure": 30180
    },
    {
      "stop": {
        "id": "2_2807",
        "lat": 48.15984132,
        "lon": -1.6920985,
        "name": "Pontay",
        "code": 2807
      },
      "arrival": 30300,
      "departure": 30300
    },
    {
      "stop": {
        "id": "2_2824",
        "lat": 48.15890153,
        "lon": -1.68514162,
        "name": "Vivier Louis",
        "code": 2824
      },
      "arrival": 30420,
      "departure": 30420
    },
    {
      "stop": {
        "id": "2_2825",
        "lat": 48.15914516,
        "lon": -1.68081392,
        "name": "Camus",
        "code": 2825
      },
      "arrival": 30480,
      "departure": 30480
    },
    {
      "stop": {
        "id": "2_2846",
        "lat": 48.15899258,
        "lon": -1.67633659,
        "name": "Ricoquais",
        "code": 2846
      },
      "arrival": 30540,
      "departure": 30540
    },
    {
      "stop": {
        "id": "2_2843",
        "lat": 48.15835001,
        "lon": -1.67216992,
        "name": "Nobel",
        "code": 2843
      },
      "arrival": 30600,
      "departure": 30600
    },
    {
      "stop": {
        "id": "2_2844",
        "lat": 48.15528555,
        "lon": -1.67143507,
        "name": "Champ Daguet",
        "code": 2844
      },
      "arrival": 30660,
      "departure": 30660
    }
  ],
  "route": {
    "id": "2_0008",
    "textColor": "FFFFFF",
    "color": "B8639F",
    "description": "Majeure",
    "longName": "Saint-Grégoire \u003c\u003e Rennes (La Poterie)",
    "shortName": "8",
    "type": 3,
    "agencyId": "2"
  }
}