{
  "headsign": "a | J.F. Kennedy",
  "stopTimes": [
    {
      "stop": {
        "id": "2_5001",
        "lat": 48.121295,
        "lon": -1.710943,
        "name": "J.F. Kennedy",
        "code": 5001
      },
      "arrival": 52200,
      "departure": 52200
    },
    {
      "stop": {
        "id": "2_5002",
        "lat": 48.121197,
        "lon": -1.703882,
        "name": "Villejean-Université",
        "code": 5002
      },
      "arrival": 52260,
      "departure": 52260
    },
    {
      "stop": {
        "id": "2_5003",
        "lat": 48.121535,
        "lon": -1.69335,
        "name": "Pontchaillou",
        "code": 5003
      },
      "arrival": 52350,
      "departure": 52350
    },
    {
      "stop": {
        "id": "2_5004",
        "lat": 48.11805,
        "lon": -1.687529,
        "name": "Anatole France",
        "code": 5004
      },
      "arrival": 52421,
      "departure": 52421
    },
    {
      "stop": {
        "id": "2_5005",
        "lat": 48.114455,
        "lon": -1.680484,
        "name": "Sainte-Anne",
        "code": 5005
      },
      "arrival": 52496,
      "departure": 52496
    },
    {
      "stop": {
        "id": "2_5006",
        "lat": 48.109667,
        "lon": -1.679224,
        "name": "République",
        "code": 5006
      },
      "arrival": 52560,
      "departure": 52560
    },
    {
      "stop": {
        "id": "2_5007",
        "lat": 48.105473,
        "lon": -1.677107,
        "name": "Charles de Gaulle",
        "code": 5007
      },
      "arrival": 52625,
      "departure": 52625
    },
    {
      "stop": {
        "id": "2_5008",
        "lat": 48.103779,
        "lon": -1.672252,
        "name": "Gares",
        "code": 5008
      },
      "arrival": 52668,
      "departure": 52668
    },
    {
      "stop": {
        "id": "2_5009",
        "lat": 48.097566,
        "lon": -1.675508,
        "name": "Jacques Cartier",
        "code": 5009
      },
      "arrival": 52770,
      "departure": 52770
    },
    {
      "stop": {
        "id": "2_5010",
        "lat": 48.093565,
        "lon": -1.674477,
        "name": "Clemenceau",
        "code": 5010
      },
      "arrival": 52821,
      "departure": 52821
    },
    {
      "stop": {
        "id": "2_5011",
        "lat": 48.087577,
        "lon": -1.674859,
        "name": "Henri Fréville",
        "code": 5011
      },
      "arrival": 52894,
      "departure": 52894
    },
    {
      "stop": {
        "id": "2_5012",
        "lat": 48.086524,
        "lon": -1.667646,
        "name": "Italie",
        "code": 5012
      },
      "arrival": 52961,
      "departure": 52961
    },
    {
      "stop": {
        "id": "2_5013",
        "lat": 48.086405,
        "lon": -1.660521,
        "name": "Triangle",
        "code": 5013
      },
      "arrival": 53024,
      "departure": 53024
    },
    {
      "stop": {
        "id": "2_5014",
        "lat": 48.087702,
        "lon": -1.654294,
        "name": "Le Blosne",
        "code": 5014
      },
      "arrival": 53079,
      "departure": 53079
    },
    {
      "stop": {
        "id": "2_5015",
        "lat": 48.08745,
        "lon": -1.644513,
        "name": "La Poterie",
        "code": 5015
      },
      "arrival": 53160,
      "departure": 53160
    }
  ],
  "route": {
    "id": "2_1001",
    "textColor": "EE1D23",
    "color": "FFFFFF",
    "description": "Métro",
    "longName": "La Poterie \u003c\u003e J.F. Kennedy",
    "shortName": "a",
    "type": 1,
    "agencyId": "2"
  }
}