{
  "headsign": "14 | Stade Rennais",
  "stopTimes": [
    {
      "stop": {
        "id": "2_1290",
        "lat": 48.126929,
        "lon": -1.629221,
        "name": "Clos Courtel",
        "code": 1290
      },
      "arrival": 54000,
      "departure": 54000
    },
    {
      "stop": {
        "id": "2_1291",
        "lat": 48.124789,
        "lon": -1.633892,
        "name": "IUT",
        "code": 1291
      },
      "arrival": 54060,
      "departure": 54060
    },
    {
      "stop": {
        "id": "2_1177",
        "lat": 48.12191,
        "lon": -1.640321,
        "name": "Beaulieu Restau U",
        "code": 1177
      },
      "arrival": 54180,
      "departure": 54180
    },
    {
      "stop": {
        "id": "2_1178",
        "lat": 48.120832,
        "lon": -1.643865,
        "name": "Beaulieu Cité U",
        "code": 1178
      },
      "arrival": 54180,
      "departure": 54180
    },
    {
      "stop": {
        "id": "2_1152",
        "lat": 48.120615,
        "lon": -1.650675,
        "name": "Docteur Quentin",
        "code": 1152
      },
      "arrival": 54300,
      "departure": 54300
    },
    {
      "stop": {
        "id": "2_1638",
        "lat": 48.122545,
        "lon": -1.651088,
        "name": "Lycée Chateaubriand",
        "code": 1638
      },
      "arrival": 54360,
      "departure": 54360
    },
    {
      "stop": {
        "id": "2_1007",
        "lat": 48.121446,
        "lon": -1.655036,
        "name": "Assomption",
        "code": 1007
      },
      "arrival": 54420,
      "departure": 54420
    },
    {
      "stop": {
        "id": "2_1634",
        "lat": 48.123688,
        "lon": -1.660475,
        "name": "Painlevé",
        "code": 1634
      },
      "arrival": 54540,
      "departure": 54540
    },
    {
      "stop": {
        "id": "2_1403",
        "lat": 48.125211,
        "lon": -1.66096,
        "name": "Saint-Exupéry",
        "code": 1403
      },
      "arrival": 54600,
      "departure": 54600
    },
    {
      "stop": {
        "id": "2_1404",
        "lat": 48.126712,
        "lon": -1.658487,
        "name": "Trégain",
        "code": 1404
      },
      "arrival": 54660,
      "departure": 54660
    },
    {
      "stop": {
        "id": "2_1405",
        "lat": 48.128416,
        "lon": -1.657061,
        "name": "Europe",
        "code": 1405
      },
      "arrival": 54720,
      "departure": 54720
    },
    {
      "stop": {
        "id": "2_1406",
        "lat": 48.130876,
        "lon": -1.656445,
        "name": "Gast",
        "code": 1406
      },
      "arrival": 54780,
      "departure": 54780
    },
    {
      "stop": {
        "id": "2_1407",
        "lat": 48.133129,
        "lon": -1.656626,
        "name": "Longs Prés",
        "code": 1407
      },
      "arrival": 54780,
      "departure": 54780
    },
    {
      "stop": {
        "id": "2_1428",
        "lat": 48.134522,
        "lon": -1.658625,
        "name": "Hôtel de Région",
        "code": 1428
      },
      "arrival": 54840,
      "departure": 54840
    },
    {
      "stop": {
        "id": "2_1410",
        "lat": 48.136512,
        "lon": -1.662483,
        "name": "Hélias",
        "code": 1410
      },
      "arrival": 54900,
      "departure": 54900
    },
    {
      "stop": {
        "id": "2_1253",
        "lat": 48.136711,
        "lon": -1.667527,
        "name": "Monts d\u0027Arrée",
        "code": 1253
      },
      "arrival": 54960,
      "departure": 54960
    },
    {
      "stop": {
        "id": "2_1254",
        "lat": 48.136796,
        "lon": -1.671078,
        "name": "Neruda",
        "code": 1254
      },
      "arrival": 55020,
      "departure": 55020
    },
    {
      "stop": {
        "id": "2_1255",
        "lat": 48.134477,
        "lon": -1.673097,
        "name": "Condate",
        "code": 1255
      },
      "arrival": 55080,
      "departure": 55080
    },
    {
      "stop": {
        "id": "2_1411",
        "lat": 48.132111,
        "lon": -1.67291,
        "name": "Bellangerais",
        "code": 1411
      },
      "arrival": 55140,
      "departure": 55140
    },
    {
      "stop": {
        "id": "2_1626",
        "lat": 48.130639,
        "lon": -1.677011,
        "name": "Armorique",
        "code": 1626
      },
      "arrival": 55200,
      "departure": 55200
    },
    {
      "stop": {
        "id": "2_1041",
        "lat": 48.128749,
        "lon": -1.6836,
        "name": "Trois Croix",
        "code": 1041
      },
      "arrival": 55320,
      "departure": 55320
    },
    {
      "stop": {
        "id": "2_1102",
        "lat": 48.131357,
        "lon": -1.684599,
        "name": "Donelière",
        "code": 1102
      },
      "arrival": 55380,
      "departure": 55380
    },
    {
      "stop": {
        "id": "2_1371",
        "lat": 48.133171,
        "lon": -1.68511,
        "name": "Lycée Mendès France",
        "code": 1371
      },
      "arrival": 55380,
      "departure": 55380
    },
    {
      "stop": {
        "id": "2_2803",
        "lat": 48.137419,
        "lon": -1.68861,
        "name": "La Plesse",
        "code": 2803
      },
      "arrival": 55560,
      "departure": 55560
    },
    {
      "stop": {
        "id": "2_2801",
        "lat": 48.135818,
        "lon": -1.693158,
        "name": "Grand Quartier",
        "code": 2801
      },
      "arrival": 55620,
      "departure": 55620
    },
    {
      "stop": {
        "id": "2_1543",
        "lat": 48.131341,
        "lon": -1.691889,
        "name": "Léonard",
        "code": 1543
      },
      "arrival": 55740,
      "departure": 55740
    },
    {
      "stop": {
        "id": "2_1303",
        "lat": 48.128353,
        "lon": -1.694114,
        "name": "Préfecture",
        "code": 1303
      },
      "arrival": 55860,
      "departure": 55860
    },
    {
      "stop": {
        "id": "2_1300",
        "lat": 48.128595,
        "lon": -1.698884,
        "name": "Cucillé",
        "code": 1300
      },
      "arrival": 55980,
      "departure": 55980
    },
    {
      "stop": {
        "id": "2_1305",
        "lat": 48.127565,
        "lon": -1.703293,
        "name": "Olympe de Gouges",
        "code": 1305
      },
      "arrival": 56040,
      "departure": 56040
    },
    {
      "stop": {
        "id": "2_1306",
        "lat": 48.12525,
        "lon": -1.703189,
        "name": "Bois Labbé",
        "code": 1306
      },
      "arrival": 56100,
      "departure": 56100
    },
    {
      "stop": {
        "id": "2_1307",
        "lat": 48.121755,
        "lon": -1.703954,
        "name": "Villejean-Université",
        "code": 1307
      },
      "arrival": 56220,
      "departure": 56220
    },
    {
      "stop": {
        "id": "2_1412",
        "lat": 48.1214,
        "lon": -1.707774,
        "name": "Cours Kennedy",
        "code": 1412
      },
      "arrival": 56280,
      "departure": 56280
    },
    {
      "stop": {
        "id": "2_1423",
        "lat": 48.118508,
        "lon": -1.70816,
        "name": "Villejean-Churchill",
        "code": 1423
      },
      "arrival": 56400,
      "departure": 56400
    },
    {
      "stop": {
        "id": "2_1414",
        "lat": 48.116416,
        "lon": -1.712265,
        "name": "Merlin",
        "code": 1414
      },
      "arrival": 56520,
      "departure": 56520
    },
    {
      "stop": {
        "id": "2_1499",
        "lat": 48.1163,
        "lon": -1.716029,
        "name": "Colin",
        "code": 1499
      },
      "arrival": 56580,
      "departure": 56580
    },
    {
      "stop": {
        "id": "2_1421",
        "lat": 48.114636,
        "lon": -1.715503,
        "name": "Chambre Agriculture",
        "code": 1421
      },
      "arrival": 56640,
      "departure": 56640
    },
    {
      "stop": {
        "id": "2_1416",
        "lat": 48.113484,
        "lon": -1.714299,
        "name": "Atalante Champeaux",
        "code": 1416
      },
      "arrival": 56700,
      "departure": 56700
    },
    {
      "stop": {
        "id": "2_1419",
        "lat": 48.111433,
        "lon": -1.713382,
        "name": "Les Arts",
        "code": 1419
      },
      "arrival": 56760,
      "departure": 56760
    },
    {
      "stop": {
        "id": "2_1221",
        "lat": 48.108871,
        "lon": -1.710766,
        "name": "Géniaux",
        "code": 1221
      },
      "arrival": 56820,
      "departure": 56820
    },
    {
      "stop": {
        "id": "2_1222",
        "lat": 48.108107,
        "lon": -1.714065,
        "name": "Stade Rennais",
        "code": 1222
      },
      "arrival": 56880,
      "departure": 56880
    }
  ],
  "route": {
    "id": "2_0014",
    "textColor": "FFFFFF",
    "color": "805A26",
    "description": "Urbaine",
    "longName": "Stade Rennais \u003c\u003e Beaulieu Atalante",
    "shortName": "14",
    "type": 3,
    "agencyId": "2"
  }
}