{
  "headsign": "33 | Saint-Jacques Gautrais",
  "stopTimes": [
    {
      "stop": {
        "id": "2_3016",
        "lat": 48.09357019,
        "lon": -1.60760619,
        "name": "Cucé",
        "code": 3016
      },
      "arrival": 69000,
      "departure": 69000
    },
    {
      "stop": {
        "id": "2_3023",
        "lat": 48.0925691,
        "lon": -1.6129143,
        "name": "IDEFS",
        "code": 3023
      },
      "arrival": 69120,
      "departure": 69120
    },
    {
      "stop": {
        "id": "2_3004",
        "lat": 48.09034405,
        "lon": -1.61586838,
        "name": "Hallouvry",
        "code": 3004
      },
      "arrival": 69180,
      "departure": 69180
    },
    {
      "stop": {
        "id": "2_3005",
        "lat": 48.08816241,
        "lon": -1.61696467,
        "name": "Chantepie Eglise",
        "code": 3005
      },
      "arrival": 69180,
      "departure": 69180
    },
    {
      "stop": {
        "id": "2_3006",
        "lat": 48.08845908,
        "lon": -1.61922326,
        "name": "Chantepie Mairie",
        "code": 3006
      },
      "arrival": 69240,
      "departure": 69240
    },
    {
      "stop": {
        "id": "2_3007",
        "lat": 48.09040826,
        "lon": -1.62387938,
        "name": "Loges",
        "code": 3007
      },
      "arrival": 69300,
      "departure": 69300
    },
    {
      "stop": {
        "id": "2_3018",
        "lat": 48.08546585,
        "lon": -1.62716003,
        "name": "Rocade Sud",
        "code": 3018
      },
      "arrival": 69420,
      "departure": 69420
    },
    {
      "stop": {
        "id": "2_3019",
        "lat": 48.08049113,
        "lon": -1.63080044,
        "name": "Val Blanc",
        "code": 3019
      },
      "arrival": 69540,
      "departure": 69540
    },
    {
      "stop": {
        "id": "2_1343",
        "lat": 48.08761374,
        "lon": -1.64610727,
        "name": "La Poterie",
        "code": 1343
      },
      "arrival": 69780,
      "departure": 69780
    },
    {
      "stop": {
        "id": "2_1344",
        "lat": 48.0876653,
        "lon": -1.65003592,
        "name": "Galicie",
        "code": 1344
      },
      "arrival": 69840,
      "departure": 69840
    },
    {
      "stop": {
        "id": "2_1440",
        "lat": 48.08773095,
        "lon": -1.6538492,
        "name": "Le Blosne",
        "code": 1440
      },
      "arrival": 69900,
      "departure": 69900
    },
    {
      "stop": {
        "id": "2_1346",
        "lat": 48.08468763,
        "lon": -1.65512833,
        "name": "Hôpital Sud",
        "code": 1346
      },
      "arrival": 69960,
      "departure": 69960
    },
    {
      "stop": {
        "id": "2_1347",
        "lat": 48.0847348,
        "lon": -1.6578097,
        "name": "Torigné",
        "code": 1347
      },
      "arrival": 70020,
      "departure": 70020
    },
    {
      "stop": {
        "id": "2_1441",
        "lat": 48.08606219,
        "lon": -1.66094033,
        "name": "Triangle",
        "code": 1441
      },
      "arrival": 70080,
      "departure": 70080
    },
    {
      "stop": {
        "id": "2_1443",
        "lat": 48.09158704,
        "lon": -1.66232917,
        "name": "Binquenais Collège",
        "code": 1443
      },
      "arrival": 70200,
      "departure": 70200
    },
    {
      "stop": {
        "id": "2_1442",
        "lat": 48.09159335,
        "lon": -1.66740233,
        "name": "Binquenais",
        "code": 1442
      },
      "arrival": 70320,
      "departure": 70320
    },
    {
      "stop": {
        "id": "2_1444",
        "lat": 48.09355955,
        "lon": -1.6696482,
        "name": "Combes",
        "code": 1444
      },
      "arrival": 70380,
      "departure": 70380
    },
    {
      "stop": {
        "id": "2_1445",
        "lat": 48.09317349,
        "lon": -1.67460613,
        "name": "Clemenceau",
        "code": 1445
      },
      "arrival": 70440,
      "departure": 70440
    },
    {
      "stop": {
        "id": "2_1446",
        "lat": 48.09039394,
        "lon": -1.67491188,
        "name": "Argonautes",
        "code": 1446
      },
      "arrival": 70500,
      "departure": 70500
    },
    {
      "stop": {
        "id": "2_1447",
        "lat": 48.08731589,
        "lon": -1.6750163,
        "name": "Henri Fréville",
        "code": 1447
      },
      "arrival": 70560,
      "departure": 70560
    },
    {
      "stop": {
        "id": "2_1622",
        "lat": 48.08412006,
        "lon": -1.6791678,
        "name": "Alma",
        "code": 1622
      },
      "arrival": 70740,
      "departure": 70740
    },
    {
      "stop": {
        "id": "2_1134",
        "lat": 48.08517814,
        "lon": -1.68230743,
        "name": "Canada",
        "code": 1134
      },
      "arrival": 70800,
      "departure": 70800
    },
    {
      "stop": {
        "id": "2_1449",
        "lat": 48.08682379,
        "lon": -1.6830757,
        "name": "Norvège",
        "code": 1449
      },
      "arrival": 70800,
      "departure": 70800
    },
    {
      "stop": {
        "id": "2_1450",
        "lat": 48.08665851,
        "lon": -1.68837187,
        "name": "Coubertin",
        "code": 1450
      },
      "arrival": 70920,
      "departure": 70920
    },
    {
      "stop": {
        "id": "2_1451",
        "lat": 48.08683442,
        "lon": -1.69127348,
        "name": "Lycée Bréquigny",
        "code": 1451
      },
      "arrival": 70920,
      "departure": 70920
    },
    {
      "stop": {
        "id": "2_1452",
        "lat": 48.08985957,
        "lon": -1.69106434,
        "name": "Bréquigny Piscine",
        "code": 1452
      },
      "arrival": 70980,
      "departure": 70980
    },
    {
      "stop": {
        "id": "2_2217",
        "lat": 48.09062505,
        "lon": -1.69500771,
        "name": "25 Fusillés",
        "code": 2217
      },
      "arrival": 71040,
      "departure": 71040
    },
    {
      "stop": {
        "id": "2_2229",
        "lat": 48.08942708,
        "lon": -1.69792814,
        "name": "Croix Verte",
        "code": 2229
      },
      "arrival": 71100,
      "departure": 71100
    },
    {
      "stop": {
        "id": "2_2226",
        "lat": 48.08661806,
        "lon": -1.70136506,
        "name": "Rablais Allende",
        "code": 2226
      },
      "arrival": 71220,
      "departure": 71220
    },
    {
      "stop": {
        "id": "2_2231",
        "lat": 48.08691375,
        "lon": -1.70659822,
        "name": "Gaité",
        "code": 2231
      },
      "arrival": 71280,
      "departure": 71280
    },
    {
      "stop": {
        "id": "2_2212",
        "lat": 48.0844398,
        "lon": -1.70917627,
        "name": "Blosne",
        "code": 2212
      },
      "arrival": 71340,
      "departure": 71340
    },
    {
      "stop": {
        "id": "2_2264",
        "lat": 48.08278771,
        "lon": -1.71306508,
        "name": "Jean Jaurès",
        "code": 2264
      },
      "arrival": 71400,
      "departure": 71400
    },
    {
      "stop": {
        "id": "2_2213",
        "lat": 48.0824956,
        "lon": -1.71540682,
        "name": "Jean Marin",
        "code": 2213
      },
      "arrival": 71400,
      "departure": 71400
    },
    {
      "stop": {
        "id": "2_2203",
        "lat": 48.07942003,
        "lon": -1.71567051,
        "name": "Médiathèque",
        "code": 2203
      },
      "arrival": 71460,
      "departure": 71460
    },
    {
      "stop": {
        "id": "2_2215",
        "lat": 48.0769585,
        "lon": -1.71590826,
        "name": "Collège Jean Moulin",
        "code": 2215
      },
      "arrival": 71520,
      "departure": 71520
    },
    {
      "stop": {
        "id": "2_2224",
        "lat": 48.07507093,
        "lon": -1.71599542,
        "name": "Morinais",
        "code": 2224
      },
      "arrival": 71520,
      "departure": 71520
    },
    {
      "stop": {
        "id": "2_2233",
        "lat": 48.06738312,
        "lon": -1.71730011,
        "name": "Abbé Grimault",
        "code": 2233
      },
      "arrival": 71700,
      "departure": 71700
    },
    {
      "stop": {
        "id": "2_2222",
        "lat": 48.06640884,
        "lon": -1.72023927,
        "name": "Pommerais",
        "code": 2222
      },
      "arrival": 71760,
      "departure": 71760
    },
    {
      "stop": {
        "id": "2_2235",
        "lat": 48.06284909,
        "lon": -1.7206611,
        "name": "Rossel",
        "code": 2235
      },
      "arrival": 71820,
      "departure": 71820
    },
    {
      "stop": {
        "id": "2_2265",
        "lat": 48.06157743,
        "lon": -1.72404407,
        "name": "Gautrais",
        "code": 2265
      },
      "arrival": 71880,
      "departure": 71880
    }
  ],
  "route": {
    "id": "2_0033",
    "textColor": "E2001A",
    "color": "FFF164",
    "description": "Inter-quartiers",
    "longName": "Saint-Jacques-de-la-Lande (Gautrais) / Bréquigny \u003c\u003e La Poterie / Chantepie (Cucé)",
    "shortName": "33",
    "type": 3,
    "agencyId": "2"
  }
}