{
  "headsign": "STN | Villejean",
  "stopTimes": [
    {
      "stop": {
        "id": "2_1052",
        "lat": 48.10989306,
        "lon": -1.67887428,
        "name": "République",
        "code": 1052
      },
      "arrival": 7500,
      "departure": 7500
    },
    {
      "stop": {
        "id": "2_1051",
        "lat": 48.10985855,
        "lon": -1.68327915,
        "name": "Place de Bretagne",
        "code": 1051
      },
      "arrival": 7560,
      "departure": 7560
    },
    {
      "stop": {
        "id": "2_1216",
        "lat": 48.10918893,
        "lon": -1.69030518,
        "name": "Le Mail",
        "code": 1216
      },
      "arrival": 7680,
      "departure": 7680
    },
    {
      "stop": {
        "id": "2_1217",
        "lat": 48.10823293,
        "lon": -1.69450077,
        "name": "Chèques Postaux",
        "code": 1217
      },
      "arrival": 7740,
      "departure": 7740
    },
    {
      "stop": {
        "id": "2_1293",
        "lat": 48.10992139,
        "lon": -1.69863394,
        "name": "Guilloux",
        "code": 1293
      },
      "arrival": 7800,
      "departure": 7800
    },
    {
      "stop": {
        "id": "2_1310",
        "lat": 48.11122281,
        "lon": -1.70080917,
        "name": "Marbeuf",
        "code": 1310
      },
      "arrival": 7860,
      "departure": 7860
    },
    {
      "stop": {
        "id": "2_1192",
        "lat": 48.11489023,
        "lon": -1.70129713,
        "name": "La Salle",
        "code": 1192
      },
      "arrival": 7980,
      "departure": 7980
    },
    {
      "stop": {
        "id": "2_1295",
        "lat": 48.11673996,
        "lon": -1.70463882,
        "name": "Berger",
        "code": 1295
      },
      "arrival": 8040,
      "departure": 8040
    },
    {
      "stop": {
        "id": "2_1296",
        "lat": 48.11928534,
        "lon": -1.70455594,
        "name": "Université",
        "code": 1296
      },
      "arrival": 8100,
      "departure": 8100
    },
    {
      "stop": {
        "id": "2_1297",
        "lat": 48.12180414,
        "lon": -1.70378405,
        "name": "Villejean-Université",
        "code": 1297
      },
      "arrival": 8160,
      "departure": 8160
    },
    {
      "stop": {
        "id": "2_1298",
        "lat": 48.12559159,
        "lon": -1.70307124,
        "name": "Bois Labbé",
        "code": 1298
      },
      "arrival": 8220,
      "departure": 8220
    },
    {
      "stop": {
        "id": "2_1305",
        "lat": 48.12765808,
        "lon": -1.70324184,
        "name": "Olympe de Gouges",
        "code": 1305
      },
      "arrival": 8280,
      "departure": 8280
    },
    {
      "stop": {
        "id": "2_1568",
        "lat": 48.1210724,
        "lon": -1.71352003,
        "name": "Kennedy Guyenne",
        "code": 1568
      },
      "arrival": 8580,
      "departure": 8580
    }
  ],
  "route": {
    "id": "2_0805",
    "textColor": "FFFFFF",
    "color": "004B96",
    "description": "Spéciale",
    "longName": "STAR de Nuit - Beaulieu Atalante \u003c\u003e J.F. Kennedy",
    "shortName": "STN",
    "type": 3,
    "agencyId": "2"
  }
}