{
  "headsign": "STN | République",
  "stopTimes": [
    {
      "stop": {
        "id": "2_1290",
        "lat": 48.12688601,
        "lon": -1.62954442,
        "name": "Clos Courtel",
        "code": 1290
      },
      "arrival": 26400,
      "departure": 26400
    },
    {
      "stop": {
        "id": "2_1291",
        "lat": 48.12475494,
        "lon": -1.63388413,
        "name": "IUT",
        "code": 1291
      },
      "arrival": 26460,
      "departure": 26460
    },
    {
      "stop": {
        "id": "2_1292",
        "lat": 48.12145018,
        "lon": -1.63814809,
        "name": "Beaulieu Restau U",
        "code": 1292
      },
      "arrival": 26580,
      "departure": 26580
    },
    {
      "stop": {
        "id": "2_1176",
        "lat": 48.11901733,
        "lon": -1.63514782,
        "name": "Beaulieu INSA",
        "code": 1176
      },
      "arrival": 26640,
      "departure": 26640
    },
    {
      "stop": {
        "id": "2_1312",
        "lat": 48.1166495,
        "lon": -1.63393042,
        "name": "Beaulieu Chimie",
        "code": 1312
      },
      "arrival": 26700,
      "departure": 26700
    },
    {
      "stop": {
        "id": "2_1160",
        "lat": 48.11406413,
        "lon": -1.63761839,
        "name": "Tournebride",
        "code": 1160
      },
      "arrival": 26760,
      "departure": 26760
    },
    {
      "stop": {
        "id": "2_1603",
        "lat": 48.1132511,
        "lon": -1.64125976,
        "name": "Les Préales",
        "code": 1603
      },
      "arrival": 26820,
      "departure": 26820
    },
    {
      "stop": {
        "id": "2_1161",
        "lat": 48.11219183,
        "lon": -1.64423633,
        "name": "Plaine de Baud",
        "code": 1161
      },
      "arrival": 26880,
      "departure": 26880
    },
    {
      "stop": {
        "id": "2_1605",
        "lat": 48.11011386,
        "lon": -1.65647985,
        "name": "Pont de Strasbourg",
        "code": 1605
      },
      "arrival": 27000,
      "departure": 27000
    },
    {
      "stop": {
        "id": "2_1163",
        "lat": 48.1101066,
        "lon": -1.66054614,
        "name": "Robidou",
        "code": 1163
      },
      "arrival": 27060,
      "departure": 27060
    },
    {
      "stop": {
        "id": "2_1164",
        "lat": 48.11009515,
        "lon": -1.66397755,
        "name": "Pont de Châteaudun",
        "code": 1164
      },
      "arrival": 27120,
      "departure": 27120
    },
    {
      "stop": {
        "id": "2_1165",
        "lat": 48.11006169,
        "lon": -1.67017835,
        "name": "Paul Bert",
        "code": 1165
      },
      "arrival": 27180,
      "departure": 27180
    },
    {
      "stop": {
        "id": "2_1166",
        "lat": 48.10988328,
        "lon": -1.67512929,
        "name": "Musée Beaux Arts",
        "code": 1166
      },
      "arrival": 27240,
      "departure": 27240
    },
    {
      "stop": {
        "id": "2_1052",
        "lat": 48.10989306,
        "lon": -1.67887428,
        "name": "République",
        "code": 1052
      },
      "arrival": 27300,
      "departure": 27300
    }
  ],
  "route": {
    "id": "2_0805",
    "textColor": "FFFFFF",
    "color": "004B96",
    "description": "Spéciale",
    "longName": "STAR de Nuit - Beaulieu Atalante \u003c\u003e J.F. Kennedy",
    "shortName": "STN",
    "type": 3,
    "agencyId": "2"
  }
}