{
  "headsign": "STN | République",
  "stopTimes": [
    {
      "stop": {
        "id": "2_1290",
        "lat": 48.12688601,
        "lon": -1.62954442,
        "name": "Clos Courtel",
        "code": 1290
      },
      "arrival": 3900,
      "departure": 3900
    },
    {
      "stop": {
        "id": "2_1291",
        "lat": 48.12475494,
        "lon": -1.63388413,
        "name": "IUT",
        "code": 1291
      },
      "arrival": 3960,
      "departure": 3960
    },
    {
      "stop": {
        "id": "2_1292",
        "lat": 48.12145018,
        "lon": -1.63814809,
        "name": "Beaulieu Restau U",
        "code": 1292
      },
      "arrival": 4080,
      "departure": 4080
    },
    {
      "stop": {
        "id": "2_1176",
        "lat": 48.11901733,
        "lon": -1.63514782,
        "name": "Beaulieu INSA",
        "code": 1176
      },
      "arrival": 4140,
      "departure": 4140
    },
    {
      "stop": {
        "id": "2_1312",
        "lat": 48.1166495,
        "lon": -1.63393042,
        "name": "Beaulieu Chimie",
        "code": 1312
      },
      "arrival": 4200,
      "departure": 4200
    },
    {
      "stop": {
        "id": "2_1160",
        "lat": 48.11406413,
        "lon": -1.63761839,
        "name": "Tournebride",
        "code": 1160
      },
      "arrival": 4260,
      "departure": 4260
    },
    {
      "stop": {
        "id": "2_1603",
        "lat": 48.1132511,
        "lon": -1.64125976,
        "name": "Les Préales",
        "code": 1603
      },
      "arrival": 4320,
      "departure": 4320
    },
    {
      "stop": {
        "id": "2_1161",
        "lat": 48.11219183,
        "lon": -1.64423633,
        "name": "Plaine de Baud",
        "code": 1161
      },
      "arrival": 4380,
      "departure": 4380
    },
    {
      "stop": {
        "id": "2_1605",
        "lat": 48.11011386,
        "lon": -1.65647985,
        "name": "Pont de Strasbourg",
        "code": 1605
      },
      "arrival": 4500,
      "departure": 4500
    },
    {
      "stop": {
        "id": "2_1163",
        "lat": 48.1101066,
        "lon": -1.66054614,
        "name": "Robidou",
        "code": 1163
      },
      "arrival": 4560,
      "departure": 4560
    },
    {
      "stop": {
        "id": "2_1164",
        "lat": 48.11009515,
        "lon": -1.66397755,
        "name": "Pont de Châteaudun",
        "code": 1164
      },
      "arrival": 4620,
      "departure": 4620
    },
    {
      "stop": {
        "id": "2_1165",
        "lat": 48.11006169,
        "lon": -1.67017835,
        "name": "Paul Bert",
        "code": 1165
      },
      "arrival": 4680,
      "departure": 4680
    },
    {
      "stop": {
        "id": "2_1166",
        "lat": 48.10988328,
        "lon": -1.67512929,
        "name": "Musée Beaux Arts",
        "code": 1166
      },
      "arrival": 4740,
      "departure": 4740
    },
    {
      "stop": {
        "id": "2_1052",
        "lat": 48.10989306,
        "lon": -1.67887428,
        "name": "République",
        "code": 1052
      },
      "arrival": 4800,
      "departure": 4800
    }
  ],
  "route": {
    "id": "2_0805",
    "textColor": "FFFFFF",
    "color": "004B96",
    "description": "Spéciale",
    "longName": "STAR de Nuit - Beaulieu Atalante \u003c\u003e J.F. Kennedy",
    "shortName": "STN",
    "type": 3,
    "agencyId": "2"
  }
}