{
  "headsign": "65 | Pacé / Parthenay-de-B.",
  "stopTimes": [
    {
      "stop": {
        "id": "2_3115",
        "lat": 48.1479969,
        "lon": -1.7697924,
        "name": "Pacé Cimetière",
        "code": 3115
      },
      "arrival": 60600,
      "departure": 60600
    },
    {
      "stop": {
        "id": "2_3116",
        "lat": 48.15088755,
        "lon": -1.77187229,
        "name": "Duchesse Anne",
        "code": 3116
      },
      "arrival": 60660,
      "departure": 60660
    },
    {
      "stop": {
        "id": "2_3117",
        "lat": 48.15123454,
        "lon": -1.77754822,
        "name": "Renan",
        "code": 3117
      },
      "arrival": 60720,
      "departure": 60720
    },
    {
      "stop": {
        "id": "2_3141",
        "lat": 48.15471747,
        "lon": -1.78435726,
        "name": "Pont Amelin",
        "code": 3141
      },
      "arrival": 60780,
      "departure": 60780
    },
    {
      "stop": {
        "id": "2_3143",
        "lat": 48.16992161,
        "lon": -1.78800014,
        "name": "Haute Rabine",
        "code": 3143
      },
      "arrival": 60900,
      "departure": 60900
    },
    {
      "stop": {
        "id": "2_3124",
        "lat": 48.17528483,
        "lon": -1.79000995,
        "name": "Chapitre",
        "code": 3124
      },
      "arrival": 60960,
      "departure": 60960
    },
    {
      "stop": {
        "id": "2_3146",
        "lat": 48.18007473,
        "lon": -1.80190215,
        "name": "Touche Champagne",
        "code": 3146
      },
      "arrival": 61020,
      "departure": 61020
    },
    {
      "stop": {
        "id": "2_3611",
        "lat": 48.18636688,
        "lon": -1.81649511,
        "name": "Le Reuvre",
        "code": 3611
      },
      "arrival": 61140,
      "departure": 61140
    },
    {
      "stop": {
        "id": "2_3612",
        "lat": 48.18991366,
        "lon": -1.82014907,
        "name": "Placis de la Touche",
        "code": 3612
      },
      "arrival": 61200,
      "departure": 61200
    },
    {
      "stop": {
        "id": "2_3613",
        "lat": 48.19124712,
        "lon": -1.82435607,
        "name": "La Noë",
        "code": 3613
      },
      "arrival": 61200,
      "departure": 61200
    },
    {
      "stop": {
        "id": "2_3614",
        "lat": 48.19177543,
        "lon": -1.82774803,
        "name": "Clos des Tilleuls",
        "code": 3614
      },
      "arrival": 61260,
      "departure": 61260
    },
    {
      "stop": {
        "id": "2_3615",
        "lat": 48.19212549,
        "lon": -1.83142977,
        "name": "Parthenay Mairie",
        "code": 3615
      },
      "arrival": 61260,
      "departure": 61260
    },
    {
      "stop": {
        "id": "2_3617",
        "lat": 48.194415,
        "lon": -1.832078,
        "name": "Parthenay Fontaine",
        "code": 3617
      },
      "arrival": 61320,
      "departure": 61320
    }
  ],
  "route": {
    "id": "2_0065",
    "textColor": "FFFFFF",
    "color": "E16BA0",
    "description": "Métropolitaine",
    "longName": "Rennes (Villejean-Université) \u003c\u003e Pacé / Parthenay-de-Bretagne",
    "shortName": "65",
    "type": 3,
    "agencyId": "2"
  }
}