{
  "headsign": "8 | La Poterie",
  "stopTimes": [
    {
      "stop": {
        "id": "2_2844",
        "lat": 48.1552843,
        "lon": -1.67145004,
        "name": "Champ Daguet",
        "code": 2844
      },
      "arrival": 32700,
      "departure": 32700
    },
    {
      "stop": {
        "id": "2_2842",
        "lat": 48.15810481,
        "lon": -1.67208344,
        "name": "Nobel",
        "code": 2842
      },
      "arrival": 32760,
      "departure": 32760
    },
    {
      "stop": {
        "id": "2_2804",
        "lat": 48.15906836,
        "lon": -1.67661716,
        "name": "Ricoquais",
        "code": 2804
      },
      "arrival": 32820,
      "departure": 32820
    },
    {
      "stop": {
        "id": "2_2805",
        "lat": 48.15910748,
        "lon": -1.68130906,
        "name": "Camus",
        "code": 2805
      },
      "arrival": 32880,
      "departure": 32880
    },
    {
      "stop": {
        "id": "2_2806",
        "lat": 48.15898341,
        "lon": -1.68558847,
        "name": "Vivier Louis",
        "code": 2806
      },
      "arrival": 32880,
      "departure": 32880
    },
    {
      "stop": {
        "id": "2_2808",
        "lat": 48.15685741,
        "lon": -1.687347,
        "name": "Uttenreuth",
        "code": 2808
      },
      "arrival": 32940,
      "departure": 32940
    },
    {
      "stop": {
        "id": "2_2809",
        "lat": 48.15435099,
        "lon": -1.68667982,
        "name": "Discalceat",
        "code": 2809
      },
      "arrival": 33000,
      "departure": 33000
    },
    {
      "stop": {
        "id": "2_2821",
        "lat": 48.15374931,
        "lon": -1.69201256,
        "name": "Paul-Emile Victor",
        "code": 2821
      },
      "arrival": 33060,
      "departure": 33060
    },
    {
      "stop": {
        "id": "2_2811",
        "lat": 48.15141645,
        "lon": -1.69133602,
        "name": "Cité des Jardins",
        "code": 2811
      },
      "arrival": 33180,
      "departure": 33180
    },
    {
      "stop": {
        "id": "2_2812",
        "lat": 48.15091519,
        "lon": -1.68580896,
        "name": "Forge",
        "code": 2812
      },
      "arrival": 33240,
      "departure": 33240
    },
    {
      "stop": {
        "id": "2_2813",
        "lat": 48.14748738,
        "lon": -1.68609731,
        "name": "Haut Trait",
        "code": 2813
      },
      "arrival": 33300,
      "departure": 33300
    },
    {
      "stop": {
        "id": "2_2817",
        "lat": 48.1430331,
        "lon": -1.68650406,
        "name": "CHP Saint-Grégoire",
        "code": 2817
      },
      "arrival": 33360,
      "departure": 33360
    },
    {
      "stop": {
        "id": "2_2815",
        "lat": 48.13721048,
        "lon": -1.68638899,
        "name": "La Plesse",
        "code": 2815
      },
      "arrival": 33480,
      "departure": 33480
    },
    {
      "stop": {
        "id": "2_1328",
        "lat": 48.1332141,
        "lon": -1.68528827,
        "name": "Lycée Mendès France",
        "code": 1328
      },
      "arrival": 33540,
      "departure": 33540
    },
    {
      "stop": {
        "id": "2_1040",
        "lat": 48.13006097,
        "lon": -1.6843352,
        "name": "Donelière",
        "code": 1040
      },
      "arrival": 33600,
      "departure": 33600
    },
    {
      "stop": {
        "id": "2_1101",
        "lat": 48.1272746,
        "lon": -1.68322628,
        "name": "Trois Croix",
        "code": 1101
      },
      "arrival": 33660,
      "departure": 33660
    },
    {
      "stop": {
        "id": "2_1042",
        "lat": 48.12442016,
        "lon": -1.68178832,
        "name": "Cimetière Nord",
        "code": 1042
      },
      "arrival": 33720,
      "departure": 33720
    },
    {
      "stop": {
        "id": "2_1043",
        "lat": 48.12359497,
        "lon": -1.68417898,
        "name": "Saint-Martin",
        "code": 1043
      },
      "arrival": 33780,
      "departure": 33780
    },
    {
      "stop": {
        "id": "2_1329",
        "lat": 48.12163125,
        "lon": -1.6832374,
        "name": "Lenoir",
        "code": 1329
      },
      "arrival": 33840,
      "departure": 33840
    },
    {
      "stop": {
        "id": "2_1330",
        "lat": 48.1203716,
        "lon": -1.68159095,
        "name": "Auberge de Jeunesse",
        "code": 1330
      },
      "arrival": 33900,
      "departure": 33900
    },
    {
      "stop": {
        "id": "2_1331",
        "lat": 48.11797136,
        "lon": -1.68074546,
        "name": "Square de la Rance",
        "code": 1331
      },
      "arrival": 33960,
      "departure": 33960
    },
    {
      "stop": {
        "id": "2_1027",
        "lat": 48.11723114,
        "lon": -1.67736823,
        "name": "Hôtel Dieu",
        "code": 1027
      },
      "arrival": 34080,
      "departure": 34080
    },
    {
      "stop": {
        "id": "2_1555",
        "lat": 48.11329571,
        "lon": -1.67522943,
        "name": "Fossés",
        "code": 1555
      },
      "arrival": 34200,
      "departure": 34200
    },
    {
      "stop": {
        "id": "2_1507",
        "lat": 48.10936967,
        "lon": -1.67512421,
        "name": "Lycée Zola",
        "code": 1507
      },
      "arrival": 34320,
      "departure": 34320
    },
    {
      "stop": {
        "id": "2_1556",
        "lat": 48.10943229,
        "lon": -1.67763328,
        "name": "République",
        "code": 1556
      },
      "arrival": 34380,
      "departure": 34380
    },
    {
      "stop": {
        "id": "2_1121",
        "lat": 48.10607068,
        "lon": -1.6777658,
        "name": "Charles de Gaulle",
        "code": 1121
      },
      "arrival": 34500,
      "departure": 34500
    },
    {
      "stop": {
        "id": "2_1122",
        "lat": 48.10306416,
        "lon": -1.67682716,
        "name": "Gare Sud Féval",
        "code": 1122
      },
      "arrival": 34560,
      "departure": 34560
    },
    {
      "stop": {
        "id": "2_1123",
        "lat": 48.09916061,
        "lon": -1.67570108,
        "name": "Ginguené",
        "code": 1123
      },
      "arrival": 34620,
      "departure": 34620
    },
    {
      "stop": {
        "id": "2_1140",
        "lat": 48.09741291,
        "lon": -1.67476592,
        "name": "Jacques Cartier",
        "code": 1140
      },
      "arrival": 34680,
      "departure": 34680
    },
    {
      "stop": {
        "id": "2_1334",
        "lat": 48.09775842,
        "lon": -1.67128426,
        "name": "Châtillon",
        "code": 1334
      },
      "arrival": 34740,
      "departure": 34740
    },
    {
      "stop": {
        "id": "2_1335",
        "lat": 48.09773962,
        "lon": -1.66834901,
        "name": "Ormeaux",
        "code": 1335
      },
      "arrival": 34800,
      "departure": 34800
    },
    {
      "stop": {
        "id": "2_1336",
        "lat": 48.09802171,
        "lon": -1.66646307,
        "name": "Bigot de Préameneu",
        "code": 1336
      },
      "arrival": 34800,
      "departure": 34800
    },
    {
      "stop": {
        "id": "2_1337",
        "lat": 48.09759287,
        "lon": -1.66295336,
        "name": "Sainte-Thérèse",
        "code": 1337
      },
      "arrival": 34860,
      "departure": 34860
    },
    {
      "stop": {
        "id": "2_1338",
        "lat": 48.095015,
        "lon": -1.66158209,
        "name": "Leray",
        "code": 1338
      },
      "arrival": 34920,
      "departure": 34920
    },
    {
      "stop": {
        "id": "2_1339",
        "lat": 48.09472542,
        "lon": -1.65865006,
        "name": "Langevin",
        "code": 1339
      },
      "arrival": 34980,
      "departure": 34980
    },
    {
      "stop": {
        "id": "2_1340",
        "lat": 48.09203055,
        "lon": -1.65841246,
        "name": "Gide",
        "code": 1340
      },
      "arrival": 34980,
      "departure": 34980
    },
    {
      "stop": {
        "id": "2_1341",
        "lat": 48.09126172,
        "lon": -1.65460419,
        "name": "Landrel",
        "code": 1341
      },
      "arrival": 35040,
      "departure": 35040
    },
    {
      "stop": {
        "id": "2_1342",
        "lat": 48.09120234,
        "lon": -1.65177341,
        "name": "Pologne",
        "code": 1342
      },
      "arrival": 35100,
      "departure": 35100
    },
    {
      "stop": {
        "id": "2_1356",
        "lat": 48.08753214,
        "lon": -1.64998384,
        "name": "Galicie",
        "code": 1356
      },
      "arrival": 35160,
      "departure": 35160
    },
    {
      "stop": {
        "id": "2_1343",
        "lat": 48.08761374,
        "lon": -1.64610727,
        "name": "La Poterie",
        "code": 1343
      },
      "arrival": 35220,
      "departure": 35220
    }
  ],
  "route": {
    "id": "2_0008",
    "textColor": "FFFFFF",
    "color": "B966A2",
    "description": "Majeure",
    "longName": "Saint-Grégoire \u003c\u003e Rennes (La Poterie)",
    "shortName": "8",
    "type": 3,
    "agencyId": "2"
  }
}