{
  "headsign": "65 | Rennes Villejean-Université",
  "stopTimes": [
    {
      "stop": {
        "id": "2_3617",
        "lat": 48.194415,
        "lon": -1.832078,
        "name": "Parthenay Fontaine",
        "code": 3617
      },
      "arrival": 61800,
      "departure": 61800
    },
    {
      "stop": {
        "id": "2_3602",
        "lat": 48.19206996,
        "lon": -1.83124343,
        "name": "Parthenay Mairie",
        "code": 3602
      },
      "arrival": 61860,
      "departure": 61860
    },
    {
      "stop": {
        "id": "2_3603",
        "lat": 48.19169642,
        "lon": -1.82725543,
        "name": "Clos des Tilleuls",
        "code": 3603
      },
      "arrival": 61920,
      "departure": 61920
    },
    {
      "stop": {
        "id": "2_3604",
        "lat": 48.19130065,
        "lon": -1.82459016,
        "name": "La Noë",
        "code": 3604
      },
      "arrival": 61920,
      "departure": 61920
    },
    {
      "stop": {
        "id": "2_3605",
        "lat": 48.19000461,
        "lon": -1.82079103,
        "name": "Placis de la Touche",
        "code": 3605
      },
      "arrival": 61920,
      "departure": 61920
    },
    {
      "stop": {
        "id": "2_3606",
        "lat": 48.1863579,
        "lon": -1.81649429,
        "name": "Le Reuvre",
        "code": 3606
      },
      "arrival": 61980,
      "departure": 61980
    },
    {
      "stop": {
        "id": "2_3145",
        "lat": 48.17999367,
        "lon": -1.8016791,
        "name": "Touche Champagne",
        "code": 3145
      },
      "arrival": 62100,
      "departure": 62100
    },
    {
      "stop": {
        "id": "2_3123",
        "lat": 48.17413905,
        "lon": -1.7893668,
        "name": "Chapitre",
        "code": 3123
      },
      "arrival": 62220,
      "departure": 62220
    },
    {
      "stop": {
        "id": "2_3142",
        "lat": 48.16738341,
        "lon": -1.78701515,
        "name": "Haute Rabine",
        "code": 3142
      },
      "arrival": 62340,
      "departure": 62340
    },
    {
      "stop": {
        "id": "2_3136",
        "lat": 48.15473271,
        "lon": -1.784426,
        "name": "Pont Amelin",
        "code": 3136
      },
      "arrival": 62460,
      "departure": 62460
    },
    {
      "stop": {
        "id": "2_3107",
        "lat": 48.15119535,
        "lon": -1.7776255,
        "name": "Renan",
        "code": 3107
      },
      "arrival": 62580,
      "departure": 62580
    },
    {
      "stop": {
        "id": "2_3108",
        "lat": 48.15091641,
        "lon": -1.77205003,
        "name": "Duchesse Anne",
        "code": 3108
      },
      "arrival": 62640,
      "departure": 62640
    },
    {
      "stop": {
        "id": "2_3109",
        "lat": 48.14815857,
        "lon": -1.76980701,
        "name": "Pacé Cimetière",
        "code": 3109
      },
      "arrival": 62700,
      "departure": 62700
    },
    {
      "stop": {
        "id": "2_3110",
        "lat": 48.1457978,
        "lon": -1.77067127,
        "name": "Carré Dumaine",
        "code": 3110
      },
      "arrival": 62760,
      "departure": 62760
    },
    {
      "stop": {
        "id": "2_3111",
        "lat": 48.14284411,
        "lon": -1.77014839,
        "name": "Le Ponant",
        "code": 3111
      },
      "arrival": 62820,
      "departure": 62820
    },
    {
      "stop": {
        "id": "2_1517",
        "lat": 48.11854026,
        "lon": -1.71363649,
        "name": "Berry",
        "code": 1517
      },
      "arrival": 63300,
      "departure": 63300
    },
    {
      "stop": {
        "id": "2_1520",
        "lat": 48.12050245,
        "lon": -1.70973991,
        "name": "Bourbonnais",
        "code": 1520
      },
      "arrival": 63360,
      "departure": 63360
    },
    {
      "stop": {
        "id": "2_1519",
        "lat": 48.12110069,
        "lon": -1.70297631,
        "name": "Villejean-Université",
        "code": 1519
      },
      "arrival": 63540,
      "departure": 63540
    }
  ],
  "route": {
    "id": "2_0065",
    "textColor": "FFFFFF",
    "color": "E16BA0",
    "description": "Métropolitaine",
    "longName": "Rennes (Villejean-Université) \u003c\u003e Pacé / Parthenay-de-Bretagne",
    "shortName": "65",
    "type": 3,
    "agencyId": "2"
  }
}