{
  "headsign": "a | La Poterie",
  "stopTimes": [
    {
      "stop": {
        "id": "2_5001",
        "lat": 48.121295,
        "lon": -1.710943,
        "name": "J.F. Kennedy",
        "code": 5001
      },
      "arrival": 32220,
      "departure": 32220
    },
    {
      "stop": {
        "id": "2_5002",
        "lat": 48.121197,
        "lon": -1.703882,
        "name": "Villejean-Université",
        "code": 5002
      },
      "arrival": 32280,
      "departure": 32280
    },
    {
      "stop": {
        "id": "2_5003",
        "lat": 48.121535,
        "lon": -1.69335,
        "name": "Pontchaillou",
        "code": 5003
      },
      "arrival": 32370,
      "departure": 32370
    },
    {
      "stop": {
        "id": "2_5004",
        "lat": 48.11805,
        "lon": -1.687529,
        "name": "Anatole France",
        "code": 5004
      },
      "arrival": 32441,
      "departure": 32441
    },
    {
      "stop": {
        "id": "2_5005",
        "lat": 48.114455,
        "lon": -1.680484,
        "name": "Sainte-Anne",
        "code": 5005
      },
      "arrival": 32516,
      "departure": 32516
    },
    {
      "stop": {
        "id": "2_5006",
        "lat": 48.109667,
        "lon": -1.679224,
        "name": "République",
        "code": 5006
      },
      "arrival": 32580,
      "departure": 32580
    },
    {
      "stop": {
        "id": "2_5007",
        "lat": 48.105473,
        "lon": -1.677107,
        "name": "Charles de Gaulle",
        "code": 5007
      },
      "arrival": 32645,
      "departure": 32645
    },
    {
      "stop": {
        "id": "2_5008",
        "lat": 48.103779,
        "lon": -1.672252,
        "name": "Gares",
        "code": 5008
      },
      "arrival": 32688,
      "departure": 32688
    },
    {
      "stop": {
        "id": "2_5009",
        "lat": 48.097566,
        "lon": -1.675508,
        "name": "Jacques Cartier",
        "code": 5009
      },
      "arrival": 32790,
      "departure": 32790
    },
    {
      "stop": {
        "id": "2_5010",
        "lat": 48.093565,
        "lon": -1.674477,
        "name": "Clemenceau",
        "code": 5010
      },
      "arrival": 32841,
      "departure": 32841
    },
    {
      "stop": {
        "id": "2_5011",
        "lat": 48.087577,
        "lon": -1.674859,
        "name": "Henri Fréville",
        "code": 5011
      },
      "arrival": 32914,
      "departure": 32914
    },
    {
      "stop": {
        "id": "2_5012",
        "lat": 48.086524,
        "lon": -1.667646,
        "name": "Italie",
        "code": 5012
      },
      "arrival": 32981,
      "departure": 32981
    },
    {
      "stop": {
        "id": "2_5013",
        "lat": 48.086405,
        "lon": -1.660521,
        "name": "Triangle",
        "code": 5013
      },
      "arrival": 33044,
      "departure": 33044
    },
    {
      "stop": {
        "id": "2_5014",
        "lat": 48.087702,
        "lon": -1.654294,
        "name": "Le Blosne",
        "code": 5014
      },
      "arrival": 33099,
      "departure": 33099
    },
    {
      "stop": {
        "id": "2_5015",
        "lat": 48.08745,
        "lon": -1.644513,
        "name": "La Poterie",
        "code": 5015
      },
      "arrival": 33180,
      "departure": 33180
    }
  ],
  "route": {
    "id": "2_1001",
    "textColor": "EE1D23",
    "color": "FFFFFF",
    "description": "Métro",
    "longName": "La Poterie \u003c\u003e J.F. Kennedy",
    "shortName": "a",
    "type": 1,
    "agencyId": "2"
  }
}