{
  "headsign": "96 | Romillé Miniac",
  "stopTimes": [
    {
      "stop": {
        "id": "2_4850",
        "lat": 48.273268,
        "lon": -1.861002,
        "name": "Chapelle-Chaussée",
        "code": 4850
      },
      "arrival": 22800,
      "departure": 22800
    },
    {
      "stop": {
        "id": "2_4901",
        "lat": 48.245147,
        "lon": -1.853626,
        "name": "Langan Bourg",
        "code": 4901
      },
      "arrival": 23160,
      "departure": 23160
    },
    {
      "stop": {
        "id": "2_6001",
        "lat": 48.215998,
        "lon": -1.891413,
        "name": "Frères Aubert",
        "code": 6001
      },
      "arrival": 23640,
      "departure": 23640
    },
    {
      "stop": {
        "id": "2_6000",
        "lat": 48.218908,
        "lon": -1.893833,
        "name": "Romillé Collège",
        "code": 6000
      },
      "arrival": 23700,
      "departure": 23880
    },
    {
      "stop": {
        "id": "2_4801",
        "lat": 48.296249,
        "lon": -1.945149,
        "name": "Bécherel Centre",
        "code": 4801
      },
      "arrival": 24600,
      "departure": 24600
    },
    {
      "stop": {
        "id": "2_4803",
        "lat": 48.299554,
        "lon": -1.93943,
        "name": "Sévignière",
        "code": 4803
      },
      "arrival": 24660,
      "departure": 24660
    },
    {
      "stop": {
        "id": "2_4950",
        "lat": 48.28476,
        "lon": -1.931062,
        "name": "Miniac Eglise",
        "code": 4950
      },
      "arrival": 25080,
      "departure": 25080
    }
  ],
  "route": {
    "id": "2_0096",
    "textColor": "DF171C",
    "color": "8FC255",
    "description": "Intercommunale",
    "longName": "Miniac-sous-Bécherel / Bécherel \u003c\u003e Romillé \u003c\u003e Langan / La-Chapelle-Chaussée",
    "shortName": "96",
    "type": 3,
    "agencyId": "2"
  }
}