{
  "headsign": "54 | Le Rheu Cintré",
  "stopTimes": [
    {
      "stop": {
        "id": "2_1567",
        "lat": 48.1062288,
        "lon": -1.67750174,
        "name": "Charles de Gaulle",
        "code": 1567
      },
      "arrival": 71460,
      "departure": 71460
    },
    {
      "stop": {
        "id": "2_1214",
        "lat": 48.10990137,
        "lon": -1.6796669,
        "name": "République",
        "code": 1214
      },
      "arrival": 71700,
      "departure": 71700
    },
    {
      "stop": {
        "id": "2_1540",
        "lat": 48.1099522,
        "lon": -1.68519001,
        "name": "Pont de Bretagne",
        "code": 1540
      },
      "arrival": 71760,
      "departure": 71760
    },
    {
      "stop": {
        "id": "2_1217",
        "lat": 48.10845176,
        "lon": -1.69364366,
        "name": "Chèques Postaux",
        "code": 1217
      },
      "arrival": 71940,
      "departure": 71940
    },
    {
      "stop": {
        "id": "2_1218",
        "lat": 48.10910111,
        "lon": -1.69795527,
        "name": "Guilloux Lorient",
        "code": 1218
      },
      "arrival": 72000,
      "departure": 72000
    },
    {
      "stop": {
        "id": "2_1221",
        "lat": 48.10886588,
        "lon": -1.71061365,
        "name": "Géniaux",
        "code": 1221
      },
      "arrival": 72120,
      "departure": 72120
    },
    {
      "stop": {
        "id": "2_1539",
        "lat": 48.10723127,
        "lon": -1.72306614,
        "name": "Lemaistre",
        "code": 1539
      },
      "arrival": 72240,
      "departure": 72240
    },
    {
      "stop": {
        "id": "2_1506",
        "lat": 48.10648051,
        "lon": -1.73143819,
        "name": "Berthault",
        "code": 1506
      },
      "arrival": 72300,
      "departure": 72300
    },
    {
      "stop": {
        "id": "2_3766",
        "lat": 48.10499211,
        "lon": -1.74065229,
        "name": "Trois Marches",
        "code": 3766
      },
      "arrival": 72360,
      "departure": 72360
    },
    {
      "stop": {
        "id": "2_2511",
        "lat": 48.10364127,
        "lon": -1.75113015,
        "name": "Plessix Saucourt",
        "code": 2511
      },
      "arrival": 72420,
      "departure": 72420
    },
    {
      "stop": {
        "id": "2_2512",
        "lat": 48.09623468,
        "lon": -1.76464809,
        "name": "Pont d\u0027Avoine",
        "code": 2512
      },
      "arrival": 72540,
      "departure": 72540
    },
    {
      "stop": {
        "id": "2_2513",
        "lat": 48.09697566,
        "lon": -1.77595203,
        "name": "Les Pins",
        "code": 2513
      },
      "arrival": 72600,
      "departure": 72600
    },
    {
      "stop": {
        "id": "2_2514",
        "lat": 48.09763657,
        "lon": -1.78143531,
        "name": "Barberais",
        "code": 2514
      },
      "arrival": 72660,
      "departure": 72660
    },
    {
      "stop": {
        "id": "2_2515",
        "lat": 48.09924523,
        "lon": -1.79065184,
        "name": "Genêts",
        "code": 2515
      },
      "arrival": 72720,
      "departure": 72720
    },
    {
      "stop": {
        "id": "2_2516",
        "lat": 48.10177606,
        "lon": -1.79491908,
        "name": "Bouleaux",
        "code": 2516
      },
      "arrival": 72780,
      "departure": 72780
    },
    {
      "stop": {
        "id": "2_2517",
        "lat": 48.0993953,
        "lon": -1.79670831,
        "name": "Brassens",
        "code": 2517
      },
      "arrival": 72840,
      "departure": 72840
    },
    {
      "stop": {
        "id": "2_2518",
        "lat": 48.09927491,
        "lon": -1.80209424,
        "name": "Champs Freslons",
        "code": 2518
      },
      "arrival": 72900,
      "departure": 72900
    },
    {
      "stop": {
        "id": "2_2519",
        "lat": 48.10084549,
        "lon": -1.80690728,
        "name": "Lycée Monod",
        "code": 2519
      },
      "arrival": 72960,
      "departure": 72960
    },
    {
      "stop": {
        "id": "2_2520",
        "lat": 48.1024447,
        "lon": -1.83105113,
        "name": "Noë Diolé",
        "code": 2520
      },
      "arrival": 73080,
      "departure": 73080
    },
    {
      "stop": {
        "id": "2_4654",
        "lat": 48.10342337,
        "lon": -1.86944808,
        "name": "Saint-Melaine",
        "code": 4654
      },
      "arrival": 73260,
      "departure": 73260
    },
    {
      "stop": {
        "id": "2_4652",
        "lat": 48.10508252,
        "lon": -1.87271047,
        "name": "Chêne Vert",
        "code": 4652
      },
      "arrival": 73320,
      "departure": 73320
    }
  ],
  "route": {
    "id": "2_0054",
    "textColor": "ffffff",
    "color": "cc90ba",
    "description": "Métropolitaine",
    "longName": "Rennes (Charles de Gaulle) \u003c\u003e Le Rheu / Cintré",
    "shortName": "54",
    "type": 3,
    "agencyId": "2"
  }
}