{
  "headsign": "221 | Cesson-Sévigné Château de Vaux",
  "stopTimes": [
    {
      "stop": {
        "id": "2_2091",
        "lat": 48.11900542,
        "lon": -1.59819448,
        "name": "Lycée Sévigné",
        "code": 2091
      },
      "arrival": 45600,
      "departure": 45600
    },
    {
      "stop": {
        "id": "2_2050",
        "lat": 48.12011703,
        "lon": -1.59927397,
        "name": "Cesson Collège",
        "code": 2050
      },
      "arrival": 45720,
      "departure": 45720
    },
    {
      "stop": {
        "id": "2_3316",
        "lat": 48.13215304,
        "lon": -1.59643107,
        "name": "Saint-Etienne",
        "code": 3316
      },
      "arrival": 45900,
      "departure": 45900
    },
    {
      "stop": {
        "id": "2_3320",
        "lat": 48.14181689,
        "lon": -1.57740841,
        "name": "Pâtis du Moulinet",
        "code": 3320
      },
      "arrival": 46080,
      "departure": 46080
    },
    {
      "stop": {
        "id": "2_3323",
        "lat": 48.14928986,
        "lon": -1.57715406,
        "name": "Curien",
        "code": 3323
      },
      "arrival": 46200,
      "departure": 46200
    },
    {
      "stop": {
        "id": "2_3301",
        "lat": 48.15515021,
        "lon": -1.57316318,
        "name": "Landelles",
        "code": 3301
      },
      "arrival": 46320,
      "departure": 46320
    },
    {
      "stop": {
        "id": "2_3315",
        "lat": 48.15354799,
        "lon": -1.5798402,
        "name": "Thorigné Mairie",
        "code": 3315
      },
      "arrival": 46560,
      "departure": 46560
    },
    {
      "stop": {
        "id": "2_3314",
        "lat": 48.15594837,
        "lon": -1.58069511,
        "name": "Anne de Bretagne",
        "code": 3314
      },
      "arrival": 46620,
      "departure": 46620
    },
    {
      "stop": {
        "id": "2_3305",
        "lat": 48.15897926,
        "lon": -1.57970534,
        "name": "Bocage",
        "code": 3305
      },
      "arrival": 46680,
      "departure": 46680
    },
    {
      "stop": {
        "id": "2_3306",
        "lat": 48.16417683,
        "lon": -1.57932113,
        "name": "Juteauderies",
        "code": 3306
      },
      "arrival": 46800,
      "departure": 46800
    },
    {
      "stop": {
        "id": "2_3307",
        "lat": 48.16041314,
        "lon": -1.58594602,
        "name": "Fouillard",
        "code": 3307
      },
      "arrival": 46920,
      "departure": 46920
    },
    {
      "stop": {
        "id": "2_3309",
        "lat": 48.15626165,
        "lon": -1.59233418,
        "name": "Portail",
        "code": 3309
      },
      "arrival": 47040,
      "departure": 47040
    },
    {
      "stop": {
        "id": "2_2070",
        "lat": 48.14510684,
        "lon": -1.6086299,
        "name": "Victoire",
        "code": 2070
      },
      "arrival": 47160,
      "departure": 47160
    },
    {
      "stop": {
        "id": "2_2071",
        "lat": 48.14041547,
        "lon": -1.61679887,
        "name": "Calendrou",
        "code": 2071
      },
      "arrival": 47280,
      "departure": 47280
    },
    {
      "stop": {
        "id": "2_2114",
        "lat": 48.13740352,
        "lon": -1.62243661,
        "name": "Château de Vaux",
        "code": 2114
      },
      "arrival": 47340,
      "departure": 47340
    }
  ],
  "route": {
    "id": "2_0221",
    "textColor": "FFFFFF",
    "color": "F39200",
    "description": "Complémentaire",
    "longName": "Cesson-Sévigné (Château de Vaux) \u003c\u003e Cesson-Sévigné (Lycée Saint-Etienne)",
    "shortName": "221",
    "type": 3,
    "agencyId": "2"
  }
}