{
  "headsign": "78 | Saint-Grégoire Betton Centre",
  "stopTimes": [
    {
      "stop": {
        "id": "2_1497",
        "lat": 48.120973,
        "lon": -1.70298,
        "name": "Villejean-Université",
        "code": 1497
      },
      "arrival": 39600,
      "departure": 39600
    },
    {
      "stop": {
        "id": "2_1495",
        "lat": 48.126607,
        "lon": -1.693012,
        "name": "Lycée Basch",
        "code": 1495
      },
      "arrival": 39840,
      "departure": 39840
    },
    {
      "stop": {
        "id": "2_1537",
        "lat": 48.131596,
        "lon": -1.69166,
        "name": "Léonard",
        "code": 1537
      },
      "arrival": 39900,
      "departure": 39900
    },
    {
      "stop": {
        "id": "2_2826",
        "lat": 48.135601,
        "lon": -1.692926,
        "name": "Grand Quartier",
        "code": 2826
      },
      "arrival": 40020,
      "departure": 40020
    },
    {
      "stop": {
        "id": "2_2816",
        "lat": 48.138233,
        "lon": -1.686336,
        "name": "La Plesse",
        "code": 2816
      },
      "arrival": 40080,
      "departure": 40080
    },
    {
      "stop": {
        "id": "2_2814",
        "lat": 48.142967,
        "lon": -1.686622,
        "name": "CHP Saint-Grégoire",
        "code": 2814
      },
      "arrival": 40140,
      "departure": 40140
    },
    {
      "stop": {
        "id": "2_2851",
        "lat": 48.148089,
        "lon": -1.696862,
        "name": "Edonia",
        "code": 2851
      },
      "arrival": 40260,
      "departure": 40260
    },
    {
      "stop": {
        "id": "2_2839",
        "lat": 48.154392,
        "lon": -1.69664,
        "name": "Alphasis",
        "code": 2839
      },
      "arrival": 40380,
      "departure": 40380
    },
    {
      "stop": {
        "id": "2_2821",
        "lat": 48.153808,
        "lon": -1.691979,
        "name": "Paul-Emile Victor",
        "code": 2821
      },
      "arrival": 40440,
      "departure": 40440
    },
    {
      "stop": {
        "id": "2_2811",
        "lat": 48.151378,
        "lon": -1.691295,
        "name": "Cité des Jardins",
        "code": 2811
      },
      "arrival": 40500,
      "departure": 40500
    },
    {
      "stop": {
        "id": "2_2847",
        "lat": 48.151815,
        "lon": -1.684518,
        "name": "Forge",
        "code": 2847
      },
      "arrival": 40620,
      "departure": 40620
    },
    {
      "stop": {
        "id": "2_2832",
        "lat": 48.154635,
        "lon": -1.678763,
        "name": "Holywell",
        "code": 2832
      },
      "arrival": 40740,
      "departure": 40740
    },
    {
      "stop": {
        "id": "2_2834",
        "lat": 48.159961,
        "lon": -1.677102,
        "name": "Jean-Paul II",
        "code": 2834
      },
      "arrival": 40860,
      "departure": 40860
    },
    {
      "stop": {
        "id": "2_2453",
        "lat": 48.175463,
        "lon": -1.662268,
        "name": "Chaperonnais",
        "code": 2453
      },
      "arrival": 41040,
      "departure": 41040
    },
    {
      "stop": {
        "id": "2_2457",
        "lat": 48.17899,
        "lon": -1.660557,
        "name": "Pont Brand",
        "code": 2457
      },
      "arrival": 41100,
      "departure": 41100
    },
    {
      "stop": {
        "id": "2_2455",
        "lat": 48.183285,
        "lon": -1.65463,
        "name": "Renaudais",
        "code": 2455
      },
      "arrival": 41220,
      "departure": 41220
    },
    {
      "stop": {
        "id": "2_2441",
        "lat": 48.184947,
        "lon": -1.649817,
        "name": "Mézières",
        "code": 2441
      },
      "arrival": 41280,
      "departure": 41280
    },
    {
      "stop": {
        "id": "2_2449",
        "lat": 48.183594,
        "lon": -1.646306,
        "name": "Trégor",
        "code": 2449
      },
      "arrival": 41340,
      "departure": 41340
    },
    {
      "stop": {
        "id": "2_2405",
        "lat": 48.181894,
        "lon": -1.641783,
        "name": "Betton Mairie",
        "code": 2405
      },
      "arrival": 41400,
      "departure": 41400
    },
    {
      "stop": {
        "id": "2_2437",
        "lat": 48.181703,
        "lon": -1.639251,
        "name": "Betton Centre",
        "code": 2437
      },
      "arrival": 41460,
      "departure": 41460
    }
  ],
  "route": {
    "id": "2_0078",
    "textColor": "FFFFFF",
    "color": "E3006A",
    "description": "Métropolitaine",
    "longName": "Rennes (Villejean-Université) \u003c\u003e Saint-Grégoire / Betton (Centre)",
    "shortName": "78",
    "type": 3,
    "agencyId": "2"
  }
}