{
  "headsign": "235 | Orgères L\u0027Hermitière Village",
  "stopTimes": [
    {
      "stop": {
        "id": "2_3914",
        "lat": 48.01038435,
        "lon": -1.70102798,
        "name": "Mouton Blanc",
        "code": 3914
      },
      "arrival": 68040,
      "departure": 68040
    },
    {
      "stop": {
        "id": "2_4710",
        "lat": 47.97986539,
        "lon": -1.69315258,
        "name": "Bout de Lande",
        "code": 4710
      },
      "arrival": 68340,
      "departure": 68340
    },
    {
      "stop": {
        "id": "2_4712",
        "lat": 47.97481571,
        "lon": -1.69135986,
        "name": "Estuaires",
        "code": 4712
      },
      "arrival": 68400,
      "departure": 68400
    },
    {
      "stop": {
        "id": "2_3248",
        "lat": 47.96263768,
        "lon": -1.68500459,
        "name": "ZA L\u0027Hermitière",
        "code": 3248
      },
      "arrival": 68520,
      "departure": 68520
    },
    {
      "stop": {
        "id": "2_3245",
        "lat": 47.96434879,
        "lon": -1.68171763,
        "name": "L\u0027hermitière Village",
        "code": 3245
      },
      "arrival": 68580,
      "departure": 68580
    }
  ],
  "route": {
    "id": "2_0235",
    "textColor": "1A171B",
    "color": "FECC00",
    "description": "Complémentaire",
    "longName": "Pont-Péan (Mouton Blanc) \u003c\u003e Orgères (L\u0027Hermitière Village)",
    "shortName": "235",
    "type": 3,
    "agencyId": "2"
  }
}