{
  "headsign": "209 | Vezin-le-Coquet Vallée",
  "stopTimes": [
    {
      "stop": {
        "id": "2_1569",
        "lat": 48.12252508,
        "lon": -1.71573621,
        "name": "Collège Rosa-Parks",
        "code": 1569
      },
      "arrival": 57000,
      "departure": 57000
    },
    {
      "stop": {
        "id": "2_1568",
        "lat": 48.1210724,
        "lon": -1.71352003,
        "name": "Kennedy Guyenne",
        "code": 1568
      },
      "arrival": 57120,
      "departure": 57120
    },
    {
      "stop": {
        "id": "2_1414",
        "lat": 48.11638524,
        "lon": -1.71215936,
        "name": "Merlin",
        "code": 1414
      },
      "arrival": 57360,
      "departure": 57360
    },
    {
      "stop": {
        "id": "2_1499",
        "lat": 48.11626025,
        "lon": -1.71595794,
        "name": "Colin",
        "code": 1499
      },
      "arrival": 57420,
      "departure": 57420
    },
    {
      "stop": {
        "id": "2_1498",
        "lat": 48.11658191,
        "lon": -1.72390238,
        "name": "Petit Champeaux",
        "code": 1498
      },
      "arrival": 57480,
      "departure": 57480
    },
    {
      "stop": {
        "id": "2_3760",
        "lat": 48.11770318,
        "lon": -1.73100316,
        "name": "Champ Noël",
        "code": 3760
      },
      "arrival": 57540,
      "departure": 57540
    },
    {
      "stop": {
        "id": "2_3761",
        "lat": 48.11835117,
        "lon": -1.74111786,
        "name": "Tertre",
        "code": 3761
      },
      "arrival": 57600,
      "departure": 57600
    },
    {
      "stop": {
        "id": "2_3771",
        "lat": 48.1190931,
        "lon": -1.74955621,
        "name": "Champs Bleus",
        "code": 3771
      },
      "arrival": 57660,
      "departure": 57660
    },
    {
      "stop": {
        "id": "2_3762",
        "lat": 48.11918107,
        "lon": -1.75547076,
        "name": "Vezin Centre",
        "code": 3762
      },
      "arrival": 57720,
      "departure": 57720
    },
    {
      "stop": {
        "id": "2_3763",
        "lat": 48.11919235,
        "lon": -1.76128325,
        "name": "Lion d\u0027Or",
        "code": 3763
      },
      "arrival": 57780,
      "departure": 57780
    },
    {
      "stop": {
        "id": "2_3764",
        "lat": 48.12036615,
        "lon": -1.76557329,
        "name": "Vallée",
        "code": 3764
      },
      "arrival": 57900,
      "departure": 57900
    }
  ],
  "route": {
    "id": "2_0209",
    "textColor": "FFFFFF",
    "color": "BA67A6",
    "description": "Complémentaire",
    "longName": "Vezin-le-Coquet (Vallée) \u003c\u003e Rennes (Collège Rosa Parks)",
    "shortName": "209",
    "type": 3,
    "agencyId": "2"
  }
}