{
  "headsign": "8 | La Poterie",
  "stopTimes": [
    {
      "stop": {
        "id": "2_9205",
        "lat": 48.158008,
        "lon": -1.686607,
        "name": "Uttenreuth",
        "code": 9205
      },
      "arrival": 69780,
      "departure": 69780
    },
    {
      "stop": {
        "id": "2_2824",
        "lat": 48.158874,
        "lon": -1.685178,
        "name": "Vivier Louis",
        "code": 2824
      },
      "arrival": 69840,
      "departure": 69840
    },
    {
      "stop": {
        "id": "2_2825",
        "lat": 48.159086,
        "lon": -1.680796,
        "name": "Camus",
        "code": 2825
      },
      "arrival": 69840,
      "departure": 69840
    },
    {
      "stop": {
        "id": "2_2846",
        "lat": 48.158993,
        "lon": -1.676337,
        "name": "Ricoquais",
        "code": 2846
      },
      "arrival": 69900,
      "departure": 69900
    },
    {
      "stop": {
        "id": "2_2843",
        "lat": 48.15835,
        "lon": -1.67217,
        "name": "Nobel",
        "code": 2843
      },
      "arrival": 69960,
      "departure": 69960
    },
    {
      "stop": {
        "id": "2_9207",
        "lat": 48.155682,
        "lon": -1.671246,
        "name": "Champ Daguet",
        "code": 9207
      },
      "arrival": 70080,
      "departure": 70080
    },
    {
      "stop": {
        "id": "2_2812",
        "lat": 48.150852,
        "lon": -1.685834,
        "name": "Forge",
        "code": 2812
      },
      "arrival": 70380,
      "departure": 70380
    },
    {
      "stop": {
        "id": "2_2813",
        "lat": 48.147437,
        "lon": -1.686162,
        "name": "Haut Trait",
        "code": 2813
      },
      "arrival": 70440,
      "departure": 70440
    },
    {
      "stop": {
        "id": "2_2817",
        "lat": 48.143099,
        "lon": -1.686451,
        "name": "CHP Saint-Grégoire",
        "code": 2817
      },
      "arrival": 70560,
      "departure": 70560
    },
    {
      "stop": {
        "id": "2_2815",
        "lat": 48.13715,
        "lon": -1.686401,
        "name": "La Plesse",
        "code": 2815
      },
      "arrival": 70620,
      "departure": 70620
    },
    {
      "stop": {
        "id": "2_1328",
        "lat": 48.133338,
        "lon": -1.685372,
        "name": "Lycée Mendès France",
        "code": 1328
      },
      "arrival": 70680,
      "departure": 70680
    },
    {
      "stop": {
        "id": "2_1040",
        "lat": 48.130069,
        "lon": -1.684377,
        "name": "Donelière",
        "code": 1040
      },
      "arrival": 70740,
      "departure": 70740
    },
    {
      "stop": {
        "id": "2_1101",
        "lat": 48.127266,
        "lon": -1.68326,
        "name": "Trois Croix",
        "code": 1101
      },
      "arrival": 70800,
      "departure": 70800
    },
    {
      "stop": {
        "id": "2_1042",
        "lat": 48.124255,
        "lon": -1.681766,
        "name": "Cimetière Nord",
        "code": 1042
      },
      "arrival": 70860,
      "departure": 70860
    },
    {
      "stop": {
        "id": "2_1043",
        "lat": 48.123614,
        "lon": -1.684238,
        "name": "Saint-Martin",
        "code": 1043
      },
      "arrival": 70920,
      "departure": 70920
    },
    {
      "stop": {
        "id": "2_1329",
        "lat": 48.12158,
        "lon": -1.683279,
        "name": "Lenoir",
        "code": 1329
      },
      "arrival": 70980,
      "departure": 70980
    },
    {
      "stop": {
        "id": "2_1330",
        "lat": 48.120357,
        "lon": -1.681603,
        "name": "Auberge de Jeunesse",
        "code": 1330
      },
      "arrival": 71040,
      "departure": 71040
    },
    {
      "stop": {
        "id": "2_1331",
        "lat": 48.118043,
        "lon": -1.680797,
        "name": "Square de la Rance",
        "code": 1331
      },
      "arrival": 71160,
      "departure": 71160
    },
    {
      "stop": {
        "id": "2_1027",
        "lat": 48.117163,
        "lon": -1.677351,
        "name": "Hôtel Dieu",
        "code": 1027
      },
      "arrival": 71280,
      "departure": 71280
    },
    {
      "stop": {
        "id": "2_1555",
        "lat": 48.113304,
        "lon": -1.675306,
        "name": "Fossés",
        "code": 1555
      },
      "arrival": 71460,
      "departure": 71460
    },
    {
      "stop": {
        "id": "2_1507",
        "lat": 48.109339,
        "lon": -1.675124,
        "name": "Lycée Zola",
        "code": 1507
      },
      "arrival": 71640,
      "departure": 71640
    },
    {
      "stop": {
        "id": "2_1556",
        "lat": 48.1094,
        "lon": -1.677626,
        "name": "République",
        "code": 1556
      },
      "arrival": 71700,
      "departure": 71700
    },
    {
      "stop": {
        "id": "2_1121",
        "lat": 48.106067,
        "lon": -1.677817,
        "name": "Charles de Gaulle",
        "code": 1121
      },
      "arrival": 71820,
      "departure": 71820
    },
    {
      "stop": {
        "id": "2_1122",
        "lat": 48.103006,
        "lon": -1.676882,
        "name": "Gare Sud Féval",
        "code": 1122
      },
      "arrival": 71880,
      "departure": 71880
    },
    {
      "stop": {
        "id": "2_1123",
        "lat": 48.099181,
        "lon": -1.675756,
        "name": "Ginguené",
        "code": 1123
      },
      "arrival": 72000,
      "departure": 72000
    },
    {
      "stop": {
        "id": "2_1140",
        "lat": 48.097421,
        "lon": -1.674416,
        "name": "Jacques Cartier",
        "code": 1140
      },
      "arrival": 72060,
      "departure": 72060
    },
    {
      "stop": {
        "id": "2_1334",
        "lat": 48.097716,
        "lon": -1.6713,
        "name": "Châtillon",
        "code": 1334
      },
      "arrival": 72120,
      "departure": 72120
    },
    {
      "stop": {
        "id": "2_1335",
        "lat": 48.097705,
        "lon": -1.6684,
        "name": "Ormeaux",
        "code": 1335
      },
      "arrival": 72180,
      "departure": 72180
    },
    {
      "stop": {
        "id": "2_1336",
        "lat": 48.097982,
        "lon": -1.666405,
        "name": "Bigot de Préameneu",
        "code": 1336
      },
      "arrival": 72240,
      "departure": 72240
    },
    {
      "stop": {
        "id": "2_1337",
        "lat": 48.097532,
        "lon": -1.66289,
        "name": "Sainte-Thérèse",
        "code": 1337
      },
      "arrival": 72300,
      "departure": 72300
    },
    {
      "stop": {
        "id": "2_1338",
        "lat": 48.09502,
        "lon": -1.661622,
        "name": "Leray",
        "code": 1338
      },
      "arrival": 72360,
      "departure": 72360
    },
    {
      "stop": {
        "id": "2_1339",
        "lat": 48.094676,
        "lon": -1.658629,
        "name": "Langevin",
        "code": 1339
      },
      "arrival": 72420,
      "departure": 72420
    },
    {
      "stop": {
        "id": "2_1340",
        "lat": 48.091996,
        "lon": -1.658498,
        "name": "Gide",
        "code": 1340
      },
      "arrival": 72480,
      "departure": 72480
    },
    {
      "stop": {
        "id": "2_1341",
        "lat": 48.091222,
        "lon": -1.654578,
        "name": "Landrel",
        "code": 1341
      },
      "arrival": 72540,
      "departure": 72540
    },
    {
      "stop": {
        "id": "2_1342",
        "lat": 48.091175,
        "lon": -1.651756,
        "name": "Pologne",
        "code": 1342
      },
      "arrival": 72540,
      "departure": 72540
    },
    {
      "stop": {
        "id": "2_1356",
        "lat": 48.087458,
        "lon": -1.649853,
        "name": "Galicie",
        "code": 1356
      },
      "arrival": 72600,
      "departure": 72600
    },
    {
      "stop": {
        "id": "2_1343",
        "lat": 48.087643,
        "lon": -1.645966,
        "name": "La Poterie",
        "code": 1343
      },
      "arrival": 72720,
      "departure": 72720
    }
  ],
  "route": {
    "id": "2_0008",
    "textColor": "FFFFFF",
    "color": "B966A2",
    "description": "Majeure",
    "longName": "Saint-Grégoire \u003c\u003e Rennes (La Poterie)",
    "shortName": "8",
    "type": 3,
    "agencyId": "2"
  }
}