{
  "headsign": "11 | La Poterie via ZI Sud-Est",
  "stopTimes": [
    {
      "stop": {
        "id": "2_3751",
        "lat": 48.10740153,
        "lon": -1.73924668,
        "name": "ZI Ouest",
        "code": 3751
      },
      "arrival": 38100,
      "departure": 38100
    },
    {
      "stop": {
        "id": "2_3752",
        "lat": 48.10474061,
        "lon": -1.73906178,
        "name": "Trois Marches",
        "code": 3752
      },
      "arrival": 38160,
      "departure": 38160
    },
    {
      "stop": {
        "id": "2_3769",
        "lat": 48.10421313,
        "lon": -1.73603999,
        "name": "Marais",
        "code": 3769
      },
      "arrival": 38160,
      "departure": 38160
    },
    {
      "stop": {
        "id": "2_1229",
        "lat": 48.10118185,
        "lon": -1.73162775,
        "name": "Servigné",
        "code": 1229
      },
      "arrival": 38280,
      "departure": 38280
    },
    {
      "stop": {
        "id": "2_1230",
        "lat": 48.10210977,
        "lon": -1.72691496,
        "name": "Jardin Moderne",
        "code": 1230
      },
      "arrival": 38340,
      "departure": 38340
    },
    {
      "stop": {
        "id": "2_1231",
        "lat": 48.10328122,
        "lon": -1.72333208,
        "name": "Robinot de St Cyr",
        "code": 1231
      },
      "arrival": 38340,
      "departure": 38340
    },
    {
      "stop": {
        "id": "2_1232",
        "lat": 48.10625606,
        "lon": -1.72374575,
        "name": "Le Hô",
        "code": 1232
      },
      "arrival": 38400,
      "departure": 38400
    },
    {
      "stop": {
        "id": "2_1233",
        "lat": 48.10704453,
        "lon": -1.72187845,
        "name": "Lemaistre",
        "code": 1233
      },
      "arrival": 38460,
      "departure": 38460
    },
    {
      "stop": {
        "id": "2_1234",
        "lat": 48.10775888,
        "lon": -1.71484897,
        "name": "Stade Rennais",
        "code": 1234
      },
      "arrival": 38580,
      "departure": 38580
    },
    {
      "stop": {
        "id": "2_1235",
        "lat": 48.10892663,
        "lon": -1.70977108,
        "name": "Géniaux",
        "code": 1235
      },
      "arrival": 38700,
      "departure": 38700
    },
    {
      "stop": {
        "id": "2_1236",
        "lat": 48.10881331,
        "lon": -1.7056153,
        "name": "Kerviler",
        "code": 1236
      },
      "arrival": 38760,
      "departure": 38760
    },
    {
      "stop": {
        "id": "2_1237",
        "lat": 48.10773621,
        "lon": -1.70211405,
        "name": "Papeteries",
        "code": 1237
      },
      "arrival": 38820,
      "departure": 38820
    },
    {
      "stop": {
        "id": "2_1238",
        "lat": 48.10869591,
        "lon": -1.69884796,
        "name": "Guilloux Lorient",
        "code": 1238
      },
      "arrival": 38880,
      "departure": 38880
    },
    {
      "stop": {
        "id": "2_1239",
        "lat": 48.10827073,
        "lon": -1.6941653,
        "name": "Chèques Postaux",
        "code": 1239
      },
      "arrival": 38940,
      "departure": 38940
    },
    {
      "stop": {
        "id": "2_1240",
        "lat": 48.10927186,
        "lon": -1.68970708,
        "name": "Le Mail",
        "code": 1240
      },
      "arrival": 39060,
      "departure": 39060
    },
    {
      "stop": {
        "id": "2_1091",
        "lat": 48.10977886,
        "lon": -1.68388248,
        "name": "Place de Bretagne",
        "code": 1091
      },
      "arrival": 39180,
      "departure": 39180
    },
    {
      "stop": {
        "id": "2_1242",
        "lat": 48.10980333,
        "lon": -1.6795219,
        "name": "République",
        "code": 1242
      },
      "arrival": 39300,
      "departure": 39300
    },
    {
      "stop": {
        "id": "2_1088",
        "lat": 48.10744897,
        "lon": -1.67491383,
        "name": "Liberté TNB",
        "code": 1088
      },
      "arrival": 39480,
      "departure": 39480
    },
    {
      "stop": {
        "id": "2_1087",
        "lat": 48.1060299,
        "lon": -1.67410184,
        "name": "Champs Libres",
        "code": 1087
      },
      "arrival": 39540,
      "departure": 39540
    },
    {
      "stop": {
        "id": "2_1575",
        "lat": 48.10375866,
        "lon": -1.67132416,
        "name": "Gares",
        "code": 1575
      },
      "arrival": 39600,
      "departure": 39600
    },
    {
      "stop": {
        "id": "2_1085",
        "lat": 48.10476768,
        "lon": -1.66658594,
        "name": "Laënnec",
        "code": 1085
      },
      "arrival": 39720,
      "departure": 39720
    },
    {
      "stop": {
        "id": "2_1243",
        "lat": 48.10254897,
        "lon": -1.66111869,
        "name": "Croix Saint-Hélier",
        "code": 1243
      },
      "arrival": 39780,
      "departure": 39780
    },
    {
      "stop": {
        "id": "2_1244",
        "lat": 48.10229227,
        "lon": -1.65513195,
        "name": "Mouézy",
        "code": 1244
      },
      "arrival": 39840,
      "departure": 39840
    },
    {
      "stop": {
        "id": "2_1211",
        "lat": 48.10317679,
        "lon": -1.65251241,
        "name": "Serpette",
        "code": 1211
      },
      "arrival": 39900,
      "departure": 39900
    },
    {
      "stop": {
        "id": "2_1246",
        "lat": 48.10439597,
        "lon": -1.64934184,
        "name": "Cimetière de l\u0027Est",
        "code": 1246
      },
      "arrival": 39960,
      "departure": 39960
    },
    {
      "stop": {
        "id": "2_1247",
        "lat": 48.10491097,
        "lon": -1.64382886,
        "name": "Pavie",
        "code": 1247
      },
      "arrival": 40020,
      "departure": 40020
    },
    {
      "stop": {
        "id": "2_1248",
        "lat": 48.10393193,
        "lon": -1.63578425,
        "name": "Pré Garel (ex Saint-Saëns)",
        "code": 1248
      },
      "arrival": 40080,
      "departure": 40080
    },
    {
      "stop": {
        "id": "2_2123",
        "lat": 48.10460642,
        "lon": -1.63076044,
        "name": "Buisson",
        "code": 2123
      },
      "arrival": 40140,
      "departure": 40140
    },
    {
      "stop": {
        "id": "2_2037",
        "lat": 48.10607373,
        "lon": -1.62563212,
        "name": "Erbonière",
        "code": 2037
      },
      "arrival": 40200,
      "departure": 40200
    },
    {
      "stop": {
        "id": "2_2032",
        "lat": 48.10622656,
        "lon": -1.6212918,
        "name": "Charmilles (ex ZI Sud Est)",
        "code": 2032
      },
      "arrival": 40260,
      "departure": 40260
    },
    {
      "stop": {
        "id": "2_2036",
        "lat": 48.10118579,
        "lon": -1.62396139,
        "name": "Bas Village",
        "code": 2036
      },
      "arrival": 40320,
      "departure": 40320
    },
    {
      "stop": {
        "id": "2_2034",
        "lat": 48.0996197,
        "lon": -1.62114642,
        "name": "Forum",
        "code": 2034
      },
      "arrival": 40380,
      "departure": 40380
    },
    {
      "stop": {
        "id": "2_3015",
        "lat": 48.09813047,
        "lon": -1.62296013,
        "name": "Breillou",
        "code": 3015
      },
      "arrival": 40440,
      "departure": 40440
    },
    {
      "stop": {
        "id": "2_1205",
        "lat": 48.09712076,
        "lon": -1.62923032,
        "name": "Veyettes",
        "code": 1205
      },
      "arrival": 40500,
      "departure": 40500
    },
    {
      "stop": {
        "id": "2_1633",
        "lat": 48.09663714,
        "lon": -1.63652489,
        "name": "Haut Sancé",
        "code": 1633
      },
      "arrival": 40560,
      "departure": 40560
    },
    {
      "stop": {
        "id": "2_1072",
        "lat": 48.09499328,
        "lon": -1.63793817,
        "name": "CARSAT",
        "code": 1072
      },
      "arrival": 40620,
      "departure": 40620
    },
    {
      "stop": {
        "id": "2_1073",
        "lat": 48.09257263,
        "lon": -1.63966324,
        "name": "Ronceray",
        "code": 1073
      },
      "arrival": 40680,
      "departure": 40680
    },
    {
      "stop": {
        "id": "2_1074",
        "lat": 48.09187613,
        "lon": -1.63629215,
        "name": "Gohier",
        "code": 1074
      },
      "arrival": 40680,
      "departure": 40680
    },
    {
      "stop": {
        "id": "2_1075",
        "lat": 48.08949401,
        "lon": -1.63543734,
        "name": "Bourgueil",
        "code": 1075
      },
      "arrival": 40740,
      "departure": 40740
    },
    {
      "stop": {
        "id": "2_1076",
        "lat": 48.08799285,
        "lon": -1.6383059,
        "name": "Monnet",
        "code": 1076
      },
      "arrival": 40800,
      "departure": 40800
    },
    {
      "stop": {
        "id": "2_1065",
        "lat": 48.08758724,
        "lon": -1.64393705,
        "name": "La Poterie",
        "code": 1065
      },
      "arrival": 40860,
      "departure": 40860
    },
    {
      "stop": {
        "id": "2_1639",
        "lat": 48.08814589,
        "lon": -1.64451312,
        "name": "La Poterie",
        "code": 1639
      },
      "arrival": 40920,
      "departure": 40920
    }
  ],
  "route": {
    "id": "2_0011",
    "textColor": "FFFFFF",
    "color": "DD84B1",
    "description": "Urbaine",
    "longName": "ZI Ouest / Stade Rennais \u003c\u003e Saint-Saëns / La Poterie",
    "shortName": "11",
    "type": 3,
    "agencyId": "2"
  }
}