{
  "headsign": "4 | Beaulieu Atalante",
  "stopTimes": [
    {
      "stop": {
        "id": "2_1168",
        "lat": 48.10980866,
        "lon": -1.67882417,
        "name": "République",
        "code": 1168
      },
      "arrival": 72360,
      "departure": 72360
    },
    {
      "stop": {
        "id": "2_1169",
        "lat": 48.10985334,
        "lon": -1.67452094,
        "name": "Musée Beaux Arts",
        "code": 1169
      },
      "arrival": 72420,
      "departure": 72420
    },
    {
      "stop": {
        "id": "2_1170",
        "lat": 48.11003344,
        "lon": -1.66907214,
        "name": "Paul Bert",
        "code": 1170
      },
      "arrival": 72480,
      "departure": 72480
    },
    {
      "stop": {
        "id": "2_1171",
        "lat": 48.11006771,
        "lon": -1.66358483,
        "name": "Pont de Châteaudun",
        "code": 1171
      },
      "arrival": 72540,
      "departure": 72540
    },
    {
      "stop": {
        "id": "2_1172",
        "lat": 48.11007924,
        "lon": -1.65919453,
        "name": "Robidou",
        "code": 1172
      },
      "arrival": 72600,
      "departure": 72600
    },
    {
      "stop": {
        "id": "2_1173",
        "lat": 48.11008942,
        "lon": -1.65614253,
        "name": "Pont de Strasbourg",
        "code": 1173
      },
      "arrival": 72660,
      "departure": 72660
    },
    {
      "stop": {
        "id": "2_1174",
        "lat": 48.11246663,
        "lon": -1.64290057,
        "name": "Plaine de Baud",
        "code": 1174
      },
      "arrival": 72780,
      "departure": 72780
    },
    {
      "stop": {
        "id": "2_1604",
        "lat": 48.1135832,
        "lon": -1.64101624,
        "name": "Préales",
        "code": 1604
      },
      "arrival": 72840,
      "departure": 72840
    },
    {
      "stop": {
        "id": "2_1610",
        "lat": 48.11406056,
        "lon": -1.63602668,
        "name": "Tournebride",
        "code": 1610
      },
      "arrival": 72900,
      "departure": 72900
    },
    {
      "stop": {
        "id": "2_1175",
        "lat": 48.11698398,
        "lon": -1.63390592,
        "name": "Beaulieu Chimie",
        "code": 1175
      },
      "arrival": 72960,
      "departure": 72960
    },
    {
      "stop": {
        "id": "2_1204",
        "lat": 48.11947652,
        "lon": -1.63539005,
        "name": "Beaulieu INSA",
        "code": 1204
      },
      "arrival": 73020,
      "departure": 73020
    },
    {
      "stop": {
        "id": "2_1313",
        "lat": 48.12187502,
        "lon": -1.63834696,
        "name": "Beaulieu Restau. U.",
        "code": 1313
      },
      "arrival": 73080,
      "departure": 73080
    },
    {
      "stop": {
        "id": "2_1314",
        "lat": 48.1250923,
        "lon": -1.63309609,
        "name": "IUT",
        "code": 1314
      },
      "arrival": 73140,
      "departure": 73140
    },
    {
      "stop": {
        "id": "2_1475",
        "lat": 48.12695887,
        "lon": -1.62918033,
        "name": "Clos Courtel",
        "code": 1475
      },
      "arrival": 73200,
      "departure": 73200
    }
  ],
  "route": {
    "id": "2_0004",
    "textColor": "FFFFFF",
    "color": "6F177E",
    "description": "Majeure",
    "longName": "Beauregard \u003c\u003e Beaulieu Atalante",
    "shortName": "4",
    "type": 3,
    "agencyId": "2"
  }
}