{
  "headsign": "STN | République",
  "stopTimes": [
    {
      "stop": {
        "id": "2_1568",
        "lat": 48.1210724,
        "lon": -1.71352003,
        "name": "Kennedy Guyenne",
        "code": 1568
      },
      "arrival": 18000,
      "departure": 18000
    },
    {
      "stop": {
        "id": "2_1520",
        "lat": 48.12050245,
        "lon": -1.70973991,
        "name": "Bourbonnais",
        "code": 1520
      },
      "arrival": 18060,
      "departure": 18060
    },
    {
      "stop": {
        "id": "2_1305",
        "lat": 48.12765808,
        "lon": -1.70324184,
        "name": "Olympe de Gouges",
        "code": 1305
      },
      "arrival": 18360,
      "departure": 18360
    },
    {
      "stop": {
        "id": "2_1306",
        "lat": 48.12533687,
        "lon": -1.70312933,
        "name": "IRTS",
        "code": 1306
      },
      "arrival": 18420,
      "departure": 18420
    },
    {
      "stop": {
        "id": "2_1307",
        "lat": 48.12192614,
        "lon": -1.70388916,
        "name": "Villejean-Université",
        "code": 1307
      },
      "arrival": 18480,
      "departure": 18480
    },
    {
      "stop": {
        "id": "2_1308",
        "lat": 48.11892068,
        "lon": -1.70465808,
        "name": "Université",
        "code": 1308
      },
      "arrival": 18540,
      "departure": 18540
    },
    {
      "stop": {
        "id": "2_1309",
        "lat": 48.1167346,
        "lon": -1.70477296,
        "name": "Berger",
        "code": 1309
      },
      "arrival": 18600,
      "departure": 18600
    },
    {
      "stop": {
        "id": "2_1188",
        "lat": 48.11498492,
        "lon": -1.70208633,
        "name": "La Salle",
        "code": 1188
      },
      "arrival": 18660,
      "departure": 18660
    },
    {
      "stop": {
        "id": "2_1294",
        "lat": 48.11140799,
        "lon": -1.70136408,
        "name": "Marbeuf",
        "code": 1294
      },
      "arrival": 18780,
      "departure": 18780
    },
    {
      "stop": {
        "id": "2_1311",
        "lat": 48.10966101,
        "lon": -1.69838195,
        "name": "Guilloux",
        "code": 1311
      },
      "arrival": 18840,
      "departure": 18840
    },
    {
      "stop": {
        "id": "2_1239",
        "lat": 48.10814248,
        "lon": -1.6948685,
        "name": "Chèques Postaux",
        "code": 1239
      },
      "arrival": 18900,
      "departure": 18900
    },
    {
      "stop": {
        "id": "2_1240",
        "lat": 48.10927186,
        "lon": -1.68970708,
        "name": "Le Mail",
        "code": 1240
      },
      "arrival": 18960,
      "departure": 18960
    },
    {
      "stop": {
        "id": "2_1091",
        "lat": 48.10977885,
        "lon": -1.68388248,
        "name": "Place de Bretagne",
        "code": 1091
      },
      "arrival": 19080,
      "departure": 19080
    },
    {
      "stop": {
        "id": "2_1168",
        "lat": 48.10980866,
        "lon": -1.67882417,
        "name": "République",
        "code": 1168
      },
      "arrival": 19140,
      "departure": 19140
    }
  ],
  "route": {
    "id": "2_0805",
    "textColor": "FFFFFF",
    "color": "004B96",
    "description": "Spéciale",
    "longName": "STAR de Nuit - Beaulieu Atalante \u003c\u003e J.F. Kennedy",
    "shortName": "STN",
    "type": 3,
    "agencyId": "2"
  }
}