{
  "headsign": "a | La Poterie",
  "stopTimes": [
    {
      "stop": {
        "id": "2_5030",
        "lat": 48.087531,
        "lon": -1.644633,
        "name": "La Poterie",
        "code": 5030
      },
      "arrival": 87780,
      "departure": 87780
    },
    {
      "stop": {
        "id": "2_5029",
        "lat": 48.087765,
        "lon": -1.654439,
        "name": "Le Blosne",
        "code": 5029
      },
      "arrival": 87861,
      "departure": 87861
    },
    {
      "stop": {
        "id": "2_5028",
        "lat": 48.086477,
        "lon": -1.660654,
        "name": "Triangle",
        "code": 5028
      },
      "arrival": 87916,
      "departure": 87916
    },
    {
      "stop": {
        "id": "2_5027",
        "lat": 48.086598,
        "lon": -1.667741,
        "name": "Italie",
        "code": 5027
      },
      "arrival": 87979,
      "departure": 87979
    },
    {
      "stop": {
        "id": "2_5026",
        "lat": 48.087673,
        "lon": -1.674777,
        "name": "Henri Fréville",
        "code": 5026
      },
      "arrival": 88046,
      "departure": 88046
    },
    {
      "stop": {
        "id": "2_5025",
        "lat": 48.093653,
        "lon": -1.674394,
        "name": "Clemenceau",
        "code": 5025
      },
      "arrival": 88119,
      "departure": 88119
    },
    {
      "stop": {
        "id": "2_5024",
        "lat": 48.097605,
        "lon": -1.675419,
        "name": "Jacques Cartier",
        "code": 5024
      },
      "arrival": 88170,
      "departure": 88170
    },
    {
      "stop": {
        "id": "2_5023",
        "lat": 48.103875,
        "lon": -1.672183,
        "name": "Gares",
        "code": 5023
      },
      "arrival": 88272,
      "departure": 88272
    },
    {
      "stop": {
        "id": "2_5022",
        "lat": 48.105541,
        "lon": -1.677023,
        "name": "Charles de Gaulle",
        "code": 5022
      },
      "arrival": 88315,
      "departure": 88315
    },
    {
      "stop": {
        "id": "2_5021",
        "lat": 48.109712,
        "lon": -1.679138,
        "name": "République",
        "code": 5021
      },
      "arrival": 88380,
      "departure": 88380
    },
    {
      "stop": {
        "id": "2_5020",
        "lat": 48.114501,
        "lon": -1.680398,
        "name": "Sainte-Anne",
        "code": 5020
      },
      "arrival": 88444,
      "departure": 88444
    },
    {
      "stop": {
        "id": "2_5019",
        "lat": 48.118119,
        "lon": -1.687454,
        "name": "Anatole France",
        "code": 5019
      },
      "arrival": 88519,
      "departure": 88519
    },
    {
      "stop": {
        "id": "2_5018",
        "lat": 48.121578,
        "lon": -1.693461,
        "name": "Pontchaillou",
        "code": 5018
      },
      "arrival": 88590,
      "departure": 88590
    },
    {
      "stop": {
        "id": "2_5017",
        "lat": 48.121283,
        "lon": -1.703879,
        "name": "Villejean-Université",
        "code": 5017
      },
      "arrival": 88680,
      "departure": 88680
    },
    {
      "stop": {
        "id": "2_5001",
        "lat": 48.121295,
        "lon": -1.710943,
        "name": "J.F. Kennedy",
        "code": 5001
      },
      "arrival": 88740,
      "departure": 88740
    }
  ],
  "route": {
    "id": "2_1001",
    "textColor": "EE1D23",
    "color": "FFFFFF",
    "description": "Métro",
    "longName": "La Poterie \u003c\u003e J.F. Kennedy",
    "shortName": "a",
    "type": 1,
    "agencyId": "2"
  }
}