{
  "headsign": "a | La Poterie",
  "stopTimes": [
    {
      "stop": {
        "id": "2_5001",
        "lat": 48.121295,
        "lon": -1.710943,
        "name": "J.F. Kennedy",
        "code": 5001
      },
      "arrival": 90420,
      "departure": 90420
    },
    {
      "stop": {
        "id": "2_5002",
        "lat": 48.121197,
        "lon": -1.703882,
        "name": "Villejean-Université",
        "code": 5002
      },
      "arrival": 90480,
      "departure": 90480
    },
    {
      "stop": {
        "id": "2_5003",
        "lat": 48.121535,
        "lon": -1.69335,
        "name": "Pontchaillou",
        "code": 5003
      },
      "arrival": 90570,
      "departure": 90570
    },
    {
      "stop": {
        "id": "2_5004",
        "lat": 48.11805,
        "lon": -1.687529,
        "name": "Anatole France",
        "code": 5004
      },
      "arrival": 90641,
      "departure": 90641
    },
    {
      "stop": {
        "id": "2_5005",
        "lat": 48.114455,
        "lon": -1.680484,
        "name": "Sainte-Anne",
        "code": 5005
      },
      "arrival": 90716,
      "departure": 90716
    },
    {
      "stop": {
        "id": "2_5006",
        "lat": 48.109667,
        "lon": -1.679224,
        "name": "République",
        "code": 5006
      },
      "arrival": 90780,
      "departure": 90780
    },
    {
      "stop": {
        "id": "2_5007",
        "lat": 48.105473,
        "lon": -1.677107,
        "name": "Charles de Gaulle",
        "code": 5007
      },
      "arrival": 90845,
      "departure": 90845
    },
    {
      "stop": {
        "id": "2_5008",
        "lat": 48.103779,
        "lon": -1.672252,
        "name": "Gares",
        "code": 5008
      },
      "arrival": 90888,
      "departure": 90888
    },
    {
      "stop": {
        "id": "2_5009",
        "lat": 48.097566,
        "lon": -1.675508,
        "name": "Jacques Cartier",
        "code": 5009
      },
      "arrival": 90990,
      "departure": 90990
    },
    {
      "stop": {
        "id": "2_5010",
        "lat": 48.093565,
        "lon": -1.674477,
        "name": "Clemenceau",
        "code": 5010
      },
      "arrival": 91041,
      "departure": 91041
    },
    {
      "stop": {
        "id": "2_5011",
        "lat": 48.087577,
        "lon": -1.674859,
        "name": "Henri Fréville",
        "code": 5011
      },
      "arrival": 91114,
      "departure": 91114
    },
    {
      "stop": {
        "id": "2_5012",
        "lat": 48.086524,
        "lon": -1.667646,
        "name": "Italie",
        "code": 5012
      },
      "arrival": 91181,
      "departure": 91181
    },
    {
      "stop": {
        "id": "2_5013",
        "lat": 48.086405,
        "lon": -1.660521,
        "name": "Triangle",
        "code": 5013
      },
      "arrival": 91244,
      "departure": 91244
    },
    {
      "stop": {
        "id": "2_5014",
        "lat": 48.087702,
        "lon": -1.654294,
        "name": "Le Blosne",
        "code": 5014
      },
      "arrival": 91299,
      "departure": 91299
    },
    {
      "stop": {
        "id": "2_5015",
        "lat": 48.08745,
        "lon": -1.644513,
        "name": "La Poterie",
        "code": 5015
      },
      "arrival": 91380,
      "departure": 91380
    }
  ],
  "route": {
    "id": "2_1001",
    "textColor": "EE1D23",
    "color": "FFFFFF",
    "description": "Métro",
    "longName": "La Poterie \u003c\u003e J.F. Kennedy",
    "shortName": "a",
    "type": 1,
    "agencyId": "2"
  }
}