{
  "headsign": "78 | Rennes Villejean-Université",
  "stopTimes": [
    {
      "stop": {
        "id": "2_2437",
        "lat": 48.181703,
        "lon": -1.639251,
        "name": "Betton Centre",
        "code": 2437
      },
      "arrival": 41700,
      "departure": 41700
    },
    {
      "stop": {
        "id": "2_2418",
        "lat": 48.181986,
        "lon": -1.641399,
        "name": "Betton Mairie",
        "code": 2418
      },
      "arrival": 41760,
      "departure": 41760
    },
    {
      "stop": {
        "id": "2_2448",
        "lat": 48.183888,
        "lon": -1.646449,
        "name": "Trégor",
        "code": 2448
      },
      "arrival": 41820,
      "departure": 41820
    },
    {
      "stop": {
        "id": "2_2438",
        "lat": 48.18499,
        "lon": -1.65024,
        "name": "Mézières",
        "code": 2438
      },
      "arrival": 41880,
      "departure": 41880
    },
    {
      "stop": {
        "id": "2_2454",
        "lat": 48.183218,
        "lon": -1.654765,
        "name": "Renaudais",
        "code": 2454
      },
      "arrival": 42000,
      "departure": 42000
    },
    {
      "stop": {
        "id": "2_2456",
        "lat": 48.178784,
        "lon": -1.660945,
        "name": "Pont Brand",
        "code": 2456
      },
      "arrival": 42120,
      "departure": 42120
    },
    {
      "stop": {
        "id": "2_2452",
        "lat": 48.175446,
        "lon": -1.662388,
        "name": "Chaperonnais",
        "code": 2452
      },
      "arrival": 42180,
      "departure": 42180
    },
    {
      "stop": {
        "id": "2_2833",
        "lat": 48.16014,
        "lon": -1.677217,
        "name": "Jean-Paul II",
        "code": 2833
      },
      "arrival": 42360,
      "departure": 42360
    },
    {
      "stop": {
        "id": "2_2831",
        "lat": 48.153536,
        "lon": -1.678717,
        "name": "Holywell",
        "code": 2831
      },
      "arrival": 42480,
      "departure": 42480
    },
    {
      "stop": {
        "id": "2_2848",
        "lat": 48.151909,
        "lon": -1.684413,
        "name": "Forge",
        "code": 2848
      },
      "arrival": 42600,
      "departure": 42600
    },
    {
      "stop": {
        "id": "2_2820",
        "lat": 48.151475,
        "lon": -1.691318,
        "name": "Cité des Jardins",
        "code": 2820
      },
      "arrival": 42660,
      "departure": 42660
    },
    {
      "stop": {
        "id": "2_2810",
        "lat": 48.15366,
        "lon": -1.692124,
        "name": "Paul-Emile Victor",
        "code": 2810
      },
      "arrival": 42780,
      "departure": 42780
    },
    {
      "stop": {
        "id": "2_2838",
        "lat": 48.153909,
        "lon": -1.6969,
        "name": "Alphasis",
        "code": 2838
      },
      "arrival": 42840,
      "departure": 42840
    },
    {
      "stop": {
        "id": "2_2852",
        "lat": 48.147918,
        "lon": -1.696926,
        "name": "Edonia",
        "code": 2852
      },
      "arrival": 42960,
      "departure": 42960
    },
    {
      "stop": {
        "id": "2_2817",
        "lat": 48.143099,
        "lon": -1.686451,
        "name": "CHP Saint-Grégoire",
        "code": 2817
      },
      "arrival": 43080,
      "departure": 43080
    },
    {
      "stop": {
        "id": "2_2803",
        "lat": 48.137419,
        "lon": -1.68861,
        "name": "La Plesse",
        "code": 2803
      },
      "arrival": 43140,
      "departure": 43140
    },
    {
      "stop": {
        "id": "2_2801",
        "lat": 48.135818,
        "lon": -1.693158,
        "name": "Grand Quartier",
        "code": 2801
      },
      "arrival": 43200,
      "departure": 43200
    },
    {
      "stop": {
        "id": "2_1543",
        "lat": 48.131341,
        "lon": -1.691889,
        "name": "Léonard",
        "code": 1543
      },
      "arrival": 43320,
      "departure": 43320
    },
    {
      "stop": {
        "id": "2_1493",
        "lat": 48.127175,
        "lon": -1.693387,
        "name": "Lycée Basch",
        "code": 1493
      },
      "arrival": 43440,
      "departure": 43440
    },
    {
      "stop": {
        "id": "2_1497",
        "lat": 48.120973,
        "lon": -1.70298,
        "name": "Villejean-Université",
        "code": 1497
      },
      "arrival": 43680,
      "departure": 43680
    }
  ],
  "route": {
    "id": "2_0078",
    "textColor": "FFFFFF",
    "color": "E3006A",
    "description": "Métropolitaine",
    "longName": "Rennes (Villejean-Université) \u003c\u003e Saint-Grégoire / Betton (Centre)",
    "shortName": "78",
    "type": 3,
    "agencyId": "2"
  }
}