{
  "headsign": "211 | Chavagne",
  "stopTimes": [
    {
      "stop": {
        "id": "2_1608",
        "lat": 48.09825251,
        "lon": -1.70864848,
        "name": "Collège Cleunay",
        "code": 1608
      },
      "arrival": 62100,
      "departure": 62100
    },
    {
      "stop": {
        "id": "2_4207",
        "lat": 48.063395,
        "lon": -1.77238031,
        "name": "Mare Doux",
        "code": 4207
      },
      "arrival": 63240,
      "departure": 63240
    },
    {
      "stop": {
        "id": "2_4208",
        "lat": 48.05776111,
        "lon": -1.7763633,
        "name": "Grippay",
        "code": 4208
      },
      "arrival": 63360,
      "departure": 63360
    },
    {
      "stop": {
        "id": "2_4209",
        "lat": 48.05408189,
        "lon": -1.78370908,
        "name": "Avenir",
        "code": 4209
      },
      "arrival": 63480,
      "departure": 63480
    },
    {
      "stop": {
        "id": "2_4203",
        "lat": 48.05509706,
        "lon": -1.79000007,
        "name": "Alfred de Musset",
        "code": 4203
      },
      "arrival": 63600,
      "departure": 63600
    },
    {
      "stop": {
        "id": "2_4211",
        "lat": 48.05245322,
        "lon": -1.79050012,
        "name": "Calvaire",
        "code": 4211
      },
      "arrival": 63660,
      "departure": 63660
    },
    {
      "stop": {
        "id": "2_4201",
        "lat": 48.0519556,
        "lon": -1.79762199,
        "name": "Croix Blanche",
        "code": 4201
      },
      "arrival": 63720,
      "departure": 63720
    }
  ],
  "route": {
    "id": "2_0211",
    "textColor": "FFFFFF",
    "color": "702283",
    "description": "Complémentaire",
    "longName": "Chavagne (Croix Blanche) \u003c\u003e Rennes (Collège Cleunay)",
    "shortName": "211",
    "type": 3,
    "agencyId": "2"
  }
}