{
  "headsign": "9 | Saint-Laurent",
  "stopTimes": [
    {
      "stop": {
        "id": "2_1390",
        "lat": 48.104175,
        "lon": -1.713394,
        "name": "Cleunay",
        "code": 1390
      },
      "arrival": 89520,
      "departure": 89520
    },
    {
      "stop": {
        "id": "2_1391",
        "lat": 48.101056,
        "lon": -1.711799,
        "name": "Clinique La Sagesse",
        "code": 1391
      },
      "arrival": 89640,
      "departure": 89640
    },
    {
      "stop": {
        "id": "2_1388",
        "lat": 48.099353,
        "lon": -1.711217,
        "name": "Montand",
        "code": 1388
      },
      "arrival": 89640,
      "departure": 89640
    },
    {
      "stop": {
        "id": "2_1393",
        "lat": 48.097814,
        "lon": -1.707641,
        "name": "Récipon",
        "code": 1393
      },
      "arrival": 89700,
      "departure": 89700
    },
    {
      "stop": {
        "id": "2_1394",
        "lat": 48.099043,
        "lon": -1.705513,
        "name": "Guérinais",
        "code": 1394
      },
      "arrival": 89760,
      "departure": 89760
    },
    {
      "stop": {
        "id": "2_1395",
        "lat": 48.101013,
        "lon": -1.706956,
        "name": "De Lesseps",
        "code": 1395
      },
      "arrival": 89820,
      "departure": 89820
    },
    {
      "stop": {
        "id": "2_1396",
        "lat": 48.102182,
        "lon": -1.705063,
        "name": "Champion de Cicé",
        "code": 1396
      },
      "arrival": 89880,
      "departure": 89880
    },
    {
      "stop": {
        "id": "2_1383",
        "lat": 48.103589,
        "lon": -1.700048,
        "name": "Dargent",
        "code": 1383
      },
      "arrival": 89940,
      "departure": 89940
    },
    {
      "stop": {
        "id": "2_1382",
        "lat": 48.105074,
        "lon": -1.698818,
        "name": "Voltaire",
        "code": 1382
      },
      "arrival": 90000,
      "departure": 90000
    },
    {
      "stop": {
        "id": "2_1399",
        "lat": 48.105015,
        "lon": -1.69546,
        "name": "Malakoff",
        "code": 1399
      },
      "arrival": 90060,
      "departure": 90060
    },
    {
      "stop": {
        "id": "2_1612",
        "lat": 48.103539,
        "lon": -1.688429,
        "name": "Saint-Conwoïon",
        "code": 1612
      },
      "arrival": 90180,
      "departure": 90180
    },
    {
      "stop": {
        "id": "2_1401",
        "lat": 48.105574,
        "lon": -1.687728,
        "name": "Redon",
        "code": 1401
      },
      "arrival": 90240,
      "departure": 90240
    },
    {
      "stop": {
        "id": "2_1021",
        "lat": 48.105444,
        "lon": -1.684005,
        "name": "Cité Judiciaire",
        "code": 1021
      },
      "arrival": 90300,
      "departure": 90300
    },
    {
      "stop": {
        "id": "2_1022",
        "lat": 48.106222,
        "lon": -1.680736,
        "name": "Plélo Colombier",
        "code": 1022
      },
      "arrival": 90420,
      "departure": 90420
    },
    {
      "stop": {
        "id": "2_1023",
        "lat": 48.108066,
        "lon": -1.680048,
        "name": "Les Halles",
        "code": 1023
      },
      "arrival": 90480,
      "departure": 90480
    },
    {
      "stop": {
        "id": "2_1016",
        "lat": 48.110073,
        "lon": -1.680101,
        "name": "République Nemours",
        "code": 1016
      },
      "arrival": 90600,
      "departure": 90600
    },
    {
      "stop": {
        "id": "2_1025",
        "lat": 48.112738,
        "lon": -1.680211,
        "name": "Champ Jacquet",
        "code": 1025
      },
      "arrival": 90720,
      "departure": 90720
    },
    {
      "stop": {
        "id": "2_1026",
        "lat": 48.11482,
        "lon": -1.679242,
        "name": "Sainte-Anne",
        "code": 1026
      },
      "arrival": 90780,
      "departure": 90780
    },
    {
      "stop": {
        "id": "2_1027",
        "lat": 48.117163,
        "lon": -1.677351,
        "name": "Hôtel Dieu",
        "code": 1027
      },
      "arrival": 90900,
      "departure": 90900
    },
    {
      "stop": {
        "id": "2_1028",
        "lat": 48.117513,
        "lon": -1.673538,
        "name": "Sévigné",
        "code": 1028
      },
      "arrival": 90960,
      "departure": 90960
    },
    {
      "stop": {
        "id": "2_1029",
        "lat": 48.118281,
        "lon": -1.669591,
        "name": "Fac de Droit",
        "code": 1029
      },
      "arrival": 91020,
      "departure": 91020
    },
    {
      "stop": {
        "id": "2_1030",
        "lat": 48.119572,
        "lon": -1.666629,
        "name": "Guéhenno",
        "code": 1030
      },
      "arrival": 91080,
      "departure": 91080
    },
    {
      "stop": {
        "id": "2_1031",
        "lat": 48.121987,
        "lon": -1.662185,
        "name": "Metz Volney",
        "code": 1031
      },
      "arrival": 91140,
      "departure": 91140
    },
    {
      "stop": {
        "id": "2_1403",
        "lat": 48.125211,
        "lon": -1.66096,
        "name": "Saint-Exupéry",
        "code": 1403
      },
      "arrival": 91200,
      "departure": 91200
    },
    {
      "stop": {
        "id": "2_1404",
        "lat": 48.126712,
        "lon": -1.658487,
        "name": "Trégain",
        "code": 1404
      },
      "arrival": 91260,
      "departure": 91260
    },
    {
      "stop": {
        "id": "2_1405",
        "lat": 48.128416,
        "lon": -1.657061,
        "name": "Europe",
        "code": 1405
      },
      "arrival": 91320,
      "departure": 91320
    },
    {
      "stop": {
        "id": "2_1406",
        "lat": 48.130876,
        "lon": -1.656445,
        "name": "Gast",
        "code": 1406
      },
      "arrival": 91380,
      "departure": 91380
    },
    {
      "stop": {
        "id": "2_1407",
        "lat": 48.133129,
        "lon": -1.656626,
        "name": "Longs Prés",
        "code": 1407
      },
      "arrival": 91380,
      "departure": 91380
    },
    {
      "stop": {
        "id": "2_1373",
        "lat": 48.135248,
        "lon": -1.65936,
        "name": "Hôtel de Région",
        "code": 1373
      },
      "arrival": 91440,
      "departure": 91440
    },
    {
      "stop": {
        "id": "2_1372",
        "lat": 48.138364,
        "lon": -1.659181,
        "name": "Saint-Laurent",
        "code": 1372
      },
      "arrival": 91560,
      "departure": 91560
    }
  ],
  "route": {
    "id": "2_0009",
    "textColor": "FFFFFF",
    "color": "00519E",
    "description": "Majeure",
    "longName": "Saint-Laurent \u003c\u003e Cleunay",
    "shortName": "9",
    "type": 3,
    "agencyId": "2"
  }
}