{
  "headsign": "54 | Le Rheu Cintré",
  "stopTimes": [
    {
      "stop": {
        "id": "2_1567",
        "lat": 48.106213,
        "lon": -1.677425,
        "name": "Charles de Gaulle",
        "code": 1567
      },
      "arrival": 52260,
      "departure": 52260
    },
    {
      "stop": {
        "id": "2_1214",
        "lat": 48.109932,
        "lon": -1.679644,
        "name": "République",
        "code": 1214
      },
      "arrival": 52500,
      "departure": 52500
    },
    {
      "stop": {
        "id": "2_1540",
        "lat": 48.109999,
        "lon": -1.685158,
        "name": "Pont de Bretagne",
        "code": 1540
      },
      "arrival": 52560,
      "departure": 52560
    },
    {
      "stop": {
        "id": "2_1217",
        "lat": 48.108252,
        "lon": -1.694511,
        "name": "Chèques Postaux",
        "code": 1217
      },
      "arrival": 52740,
      "departure": 52740
    },
    {
      "stop": {
        "id": "2_1218",
        "lat": 48.109099,
        "lon": -1.697997,
        "name": "Guilloux Lorient",
        "code": 1218
      },
      "arrival": 52800,
      "departure": 52800
    },
    {
      "stop": {
        "id": "2_1221",
        "lat": 48.108871,
        "lon": -1.710766,
        "name": "Géniaux",
        "code": 1221
      },
      "arrival": 52980,
      "departure": 52980
    },
    {
      "stop": {
        "id": "2_1539",
        "lat": 48.107253,
        "lon": -1.723135,
        "name": "Lemaistre",
        "code": 1539
      },
      "arrival": 53100,
      "departure": 53100
    },
    {
      "stop": {
        "id": "2_1506",
        "lat": 48.106477,
        "lon": -1.73157,
        "name": "Berthault",
        "code": 1506
      },
      "arrival": 53220,
      "departure": 53220
    },
    {
      "stop": {
        "id": "2_3766",
        "lat": 48.104998,
        "lon": -1.740624,
        "name": "Trois Marches",
        "code": 3766
      },
      "arrival": 53340,
      "departure": 53340
    },
    {
      "stop": {
        "id": "2_2511",
        "lat": 48.103559,
        "lon": -1.751287,
        "name": "Plessix Saucourt",
        "code": 2511
      },
      "arrival": 53400,
      "departure": 53400
    },
    {
      "stop": {
        "id": "2_2512",
        "lat": 48.096246,
        "lon": -1.764714,
        "name": "Pont d\u0027Avoine",
        "code": 2512
      },
      "arrival": 53580,
      "departure": 53580
    },
    {
      "stop": {
        "id": "2_2513",
        "lat": 48.097012,
        "lon": -1.776051,
        "name": "Les Pins",
        "code": 2513
      },
      "arrival": 53640,
      "departure": 53640
    },
    {
      "stop": {
        "id": "2_2514",
        "lat": 48.09768,
        "lon": -1.781563,
        "name": "Barberais",
        "code": 2514
      },
      "arrival": 53700,
      "departure": 53700
    },
    {
      "stop": {
        "id": "2_2515",
        "lat": 48.099309,
        "lon": -1.790762,
        "name": "Genêts",
        "code": 2515
      },
      "arrival": 53760,
      "departure": 53760
    },
    {
      "stop": {
        "id": "2_2516",
        "lat": 48.101845,
        "lon": -1.79502,
        "name": "Bouleaux",
        "code": 2516
      },
      "arrival": 53820,
      "departure": 53820
    },
    {
      "stop": {
        "id": "2_2517",
        "lat": 48.099367,
        "lon": -1.796733,
        "name": "Brassens",
        "code": 2517
      },
      "arrival": 53880,
      "departure": 53880
    },
    {
      "stop": {
        "id": "2_2518",
        "lat": 48.099326,
        "lon": -1.802088,
        "name": "Champs Freslons",
        "code": 2518
      },
      "arrival": 53940,
      "departure": 53940
    },
    {
      "stop": {
        "id": "2_2519",
        "lat": 48.100897,
        "lon": -1.806904,
        "name": "Lycée Monod",
        "code": 2519
      },
      "arrival": 54000,
      "departure": 54000
    },
    {
      "stop": {
        "id": "2_2520",
        "lat": 48.102463,
        "lon": -1.831087,
        "name": "Noë Diolé",
        "code": 2520
      },
      "arrival": 54120,
      "departure": 54120
    },
    {
      "stop": {
        "id": "2_4654",
        "lat": 48.103469,
        "lon": -1.869393,
        "name": "Saint-Melaine",
        "code": 4654
      },
      "arrival": 54360,
      "departure": 54360
    },
    {
      "stop": {
        "id": "2_4652",
        "lat": 48.105043,
        "lon": -1.872646,
        "name": "Chêne Vert",
        "code": 4652
      },
      "arrival": 54420,
      "departure": 54420
    }
  ],
  "route": {
    "id": "2_0054",
    "textColor": "FFFFFF",
    "color": "CD93BD",
    "description": "Métropolitaine",
    "longName": "Rennes (Charles de Gaulle) \u003c\u003e Le Rheu / Cintré",
    "shortName": "54",
    "type": 3,
    "agencyId": "2"
  }
}