{
  "headsign": "72 | Rennes Henri Fréville",
  "stopTimes": [
    {
      "stop": {
        "id": "2_3901",
        "lat": 47.999909,
        "lon": -1.696968,
        "name": "Bois Esnault",
        "code": 3901
      },
      "arrival": 60120,
      "departure": 60120
    },
    {
      "stop": {
        "id": "2_3902",
        "lat": 48.006505,
        "lon": -1.69847,
        "name": "Caliorne",
        "code": 3902
      },
      "arrival": 60180,
      "departure": 60180
    },
    {
      "stop": {
        "id": "2_3903",
        "lat": 48.010649,
        "lon": -1.700885,
        "name": "Mouton Blanc",
        "code": 3903
      },
      "arrival": 60240,
      "departure": 60240
    },
    {
      "stop": {
        "id": "2_3913",
        "lat": 48.013,
        "lon": -1.703093,
        "name": "Chemin Vert",
        "code": 3913
      },
      "arrival": 60300,
      "departure": 60300
    },
    {
      "stop": {
        "id": "2_3905",
        "lat": 48.010604,
        "lon": -1.707005,
        "name": "Pont Péan Mairie",
        "code": 3905
      },
      "arrival": 60360,
      "departure": 60360
    },
    {
      "stop": {
        "id": "2_3906",
        "lat": 48.013631,
        "lon": -1.707588,
        "name": "Rivaudière",
        "code": 3906
      },
      "arrival": 60420,
      "departure": 60420
    },
    {
      "stop": {
        "id": "2_3907",
        "lat": 48.016278,
        "lon": -1.705639,
        "name": "Fontaine Blanche",
        "code": 3907
      },
      "arrival": 60420,
      "departure": 60420
    },
    {
      "stop": {
        "id": "2_3908",
        "lat": 48.019925,
        "lon": -1.706935,
        "name": "Renaissance",
        "code": 3908
      },
      "arrival": 60480,
      "departure": 60480
    },
    {
      "stop": {
        "id": "2_2928",
        "lat": 48.031429,
        "lon": -1.708755,
        "name": "Constant Mérel",
        "code": 2928
      },
      "arrival": 60660,
      "departure": 60660
    },
    {
      "stop": {
        "id": "2_2911",
        "lat": 48.033268,
        "lon": -1.707228,
        "name": "Parc de Loisirs",
        "code": 2911
      },
      "arrival": 60720,
      "departure": 60720
    },
    {
      "stop": {
        "id": "2_2912",
        "lat": 48.035455,
        "lon": -1.70627,
        "name": "Argoat",
        "code": 2912
      },
      "arrival": 60780,
      "departure": 60780
    },
    {
      "stop": {
        "id": "2_2913",
        "lat": 48.034611,
        "lon": -1.69941,
        "name": "Cornouaille",
        "code": 2913
      },
      "arrival": 60900,
      "departure": 60900
    },
    {
      "stop": {
        "id": "2_2914",
        "lat": 48.036918,
        "lon": -1.697008,
        "name": "Vieux Bourg",
        "code": 2914
      },
      "arrival": 60960,
      "departure": 60960
    },
    {
      "stop": {
        "id": "2_2915",
        "lat": 48.041376,
        "lon": -1.698416,
        "name": "Collège Pôle Sud",
        "code": 2915
      },
      "arrival": 61080,
      "departure": 61080
    },
    {
      "stop": {
        "id": "2_2916",
        "lat": 48.04169,
        "lon": -1.702632,
        "name": "Auditoire",
        "code": 2916
      },
      "arrival": 61140,
      "departure": 61140
    },
    {
      "stop": {
        "id": "2_2917",
        "lat": 48.042349,
        "lon": -1.706501,
        "name": "Chartres Centre",
        "code": 2917
      },
      "arrival": 61200,
      "departure": 61200
    },
    {
      "stop": {
        "id": "2_2905",
        "lat": 48.042325,
        "lon": -1.712032,
        "name": "Callouët",
        "code": 2905
      },
      "arrival": 61320,
      "departure": 61320
    },
    {
      "stop": {
        "id": "2_2906",
        "lat": 48.045906,
        "lon": -1.710086,
        "name": "Croix aux Potiers",
        "code": 2906
      },
      "arrival": 61380,
      "departure": 61380
    },
    {
      "stop": {
        "id": "2_2701",
        "lat": 48.059075,
        "lon": -1.700988,
        "name": "Janais",
        "code": 2701
      },
      "arrival": 61560,
      "departure": 61560
    },
    {
      "stop": {
        "id": "2_2702",
        "lat": 48.06843,
        "lon": -1.697574,
        "name": "Vallon",
        "code": 2702
      },
      "arrival": 61680,
      "departure": 61680
    },
    {
      "stop": {
        "id": "2_1267",
        "lat": 48.085707,
        "lon": -1.693903,
        "name": "Félix Eboué",
        "code": 1267
      },
      "arrival": 61920,
      "departure": 61920
    },
    {
      "stop": {
        "id": "2_1456",
        "lat": 48.086541,
        "lon": -1.687451,
        "name": "Coubertin",
        "code": 1456
      },
      "arrival": 62040,
      "departure": 62040
    },
    {
      "stop": {
        "id": "2_1457",
        "lat": 48.086765,
        "lon": -1.683887,
        "name": "Norvège",
        "code": 1457
      },
      "arrival": 62160,
      "departure": 62160
    },
    {
      "stop": {
        "id": "2_1534",
        "lat": 48.088549,
        "lon": -1.67439,
        "name": "Henri Fréville",
        "code": 1534
      },
      "arrival": 62340,
      "departure": 62340
    }
  ],
  "route": {
    "id": "2_0072",
    "textColor": "FFFFFF",
    "color": "004293",
    "description": "Métropolitaine",
    "longName": "Rennes (Henri Fréville) \u003c\u003e Chartres-de-Bretagne / Pont-Péan / Laillé",
    "shortName": "72",
    "type": 3,
    "agencyId": "2"
  }
}