{
  "headsign": "a | La Poterie",
  "stopTimes": [
    {
      "stop": {
        "id": "2_5030",
        "lat": 48.087531,
        "lon": -1.644633,
        "name": "La Poterie",
        "code": 5030
      },
      "arrival": 65340,
      "departure": 65340
    },
    {
      "stop": {
        "id": "2_5029",
        "lat": 48.087765,
        "lon": -1.654439,
        "name": "Le Blosne",
        "code": 5029
      },
      "arrival": 65421,
      "departure": 65421
    },
    {
      "stop": {
        "id": "2_5028",
        "lat": 48.086477,
        "lon": -1.660654,
        "name": "Triangle",
        "code": 5028
      },
      "arrival": 65476,
      "departure": 65476
    },
    {
      "stop": {
        "id": "2_5027",
        "lat": 48.086598,
        "lon": -1.667741,
        "name": "Italie",
        "code": 5027
      },
      "arrival": 65539,
      "departure": 65539
    },
    {
      "stop": {
        "id": "2_5026",
        "lat": 48.087673,
        "lon": -1.674777,
        "name": "Henri Fréville",
        "code": 5026
      },
      "arrival": 65606,
      "departure": 65606
    },
    {
      "stop": {
        "id": "2_5025",
        "lat": 48.093653,
        "lon": -1.674394,
        "name": "Clemenceau",
        "code": 5025
      },
      "arrival": 65679,
      "departure": 65679
    },
    {
      "stop": {
        "id": "2_5024",
        "lat": 48.097605,
        "lon": -1.675419,
        "name": "Jacques Cartier",
        "code": 5024
      },
      "arrival": 65730,
      "departure": 65730
    },
    {
      "stop": {
        "id": "2_5023",
        "lat": 48.103875,
        "lon": -1.672183,
        "name": "Gares",
        "code": 5023
      },
      "arrival": 65832,
      "departure": 65832
    },
    {
      "stop": {
        "id": "2_5022",
        "lat": 48.105541,
        "lon": -1.677023,
        "name": "Charles de Gaulle",
        "code": 5022
      },
      "arrival": 65875,
      "departure": 65875
    },
    {
      "stop": {
        "id": "2_5021",
        "lat": 48.109712,
        "lon": -1.679138,
        "name": "République",
        "code": 5021
      },
      "arrival": 65940,
      "departure": 65940
    },
    {
      "stop": {
        "id": "2_5020",
        "lat": 48.114501,
        "lon": -1.680398,
        "name": "Sainte-Anne",
        "code": 5020
      },
      "arrival": 66004,
      "departure": 66004
    },
    {
      "stop": {
        "id": "2_5019",
        "lat": 48.118119,
        "lon": -1.687454,
        "name": "Anatole France",
        "code": 5019
      },
      "arrival": 66079,
      "departure": 66079
    },
    {
      "stop": {
        "id": "2_5018",
        "lat": 48.121578,
        "lon": -1.693461,
        "name": "Pontchaillou",
        "code": 5018
      },
      "arrival": 66150,
      "departure": 66150
    },
    {
      "stop": {
        "id": "2_5017",
        "lat": 48.121283,
        "lon": -1.703879,
        "name": "Villejean-Université",
        "code": 5017
      },
      "arrival": 66240,
      "departure": 66240
    },
    {
      "stop": {
        "id": "2_5001",
        "lat": 48.121295,
        "lon": -1.710943,
        "name": "J.F. Kennedy",
        "code": 5001
      },
      "arrival": 66300,
      "departure": 66300
    }
  ],
  "route": {
    "id": "2_1001",
    "textColor": "EE1D23",
    "color": "FFFFFF",
    "description": "Métro",
    "longName": "La Poterie \u003c\u003e J.F. Kennedy",
    "shortName": "a",
    "type": 1,
    "agencyId": "2"
  }
}