{
  "headsign": "54 | Le Rheu",
  "stopTimes": [
    {
      "stop": {
        "id": "2_1567",
        "lat": 48.106213,
        "lon": -1.677425,
        "name": "Charles de Gaulle",
        "code": 1567
      },
      "arrival": 31560,
      "departure": 31560
    },
    {
      "stop": {
        "id": "2_1214",
        "lat": 48.109932,
        "lon": -1.679644,
        "name": "République",
        "code": 1214
      },
      "arrival": 31800,
      "departure": 31800
    },
    {
      "stop": {
        "id": "2_1540",
        "lat": 48.109999,
        "lon": -1.685158,
        "name": "Pont de Bretagne",
        "code": 1540
      },
      "arrival": 31920,
      "departure": 31920
    },
    {
      "stop": {
        "id": "2_1217",
        "lat": 48.108252,
        "lon": -1.694511,
        "name": "Chèques Postaux",
        "code": 1217
      },
      "arrival": 32100,
      "departure": 32100
    },
    {
      "stop": {
        "id": "2_1218",
        "lat": 48.109099,
        "lon": -1.697997,
        "name": "Guilloux Lorient",
        "code": 1218
      },
      "arrival": 32160,
      "departure": 32160
    },
    {
      "stop": {
        "id": "2_1221",
        "lat": 48.108871,
        "lon": -1.710766,
        "name": "Géniaux",
        "code": 1221
      },
      "arrival": 32340,
      "departure": 32340
    },
    {
      "stop": {
        "id": "2_1539",
        "lat": 48.107253,
        "lon": -1.723135,
        "name": "Lemaistre",
        "code": 1539
      },
      "arrival": 32460,
      "departure": 32460
    },
    {
      "stop": {
        "id": "2_1506",
        "lat": 48.106477,
        "lon": -1.73157,
        "name": "Berthault",
        "code": 1506
      },
      "arrival": 32580,
      "departure": 32580
    },
    {
      "stop": {
        "id": "2_3766",
        "lat": 48.104998,
        "lon": -1.740624,
        "name": "Trois Marches",
        "code": 3766
      },
      "arrival": 32700,
      "departure": 32700
    },
    {
      "stop": {
        "id": "2_2511",
        "lat": 48.103559,
        "lon": -1.751287,
        "name": "Plessix Saucourt",
        "code": 2511
      },
      "arrival": 32760,
      "departure": 32760
    },
    {
      "stop": {
        "id": "2_2512",
        "lat": 48.096246,
        "lon": -1.764714,
        "name": "Pont d\u0027Avoine",
        "code": 2512
      },
      "arrival": 32940,
      "departure": 32940
    },
    {
      "stop": {
        "id": "2_2513",
        "lat": 48.097012,
        "lon": -1.776051,
        "name": "Les Pins",
        "code": 2513
      },
      "arrival": 33000,
      "departure": 33000
    },
    {
      "stop": {
        "id": "2_2514",
        "lat": 48.09768,
        "lon": -1.781563,
        "name": "Barberais",
        "code": 2514
      },
      "arrival": 33060,
      "departure": 33060
    },
    {
      "stop": {
        "id": "2_2515",
        "lat": 48.099309,
        "lon": -1.790762,
        "name": "Genêts",
        "code": 2515
      },
      "arrival": 33180,
      "departure": 33180
    },
    {
      "stop": {
        "id": "2_2516",
        "lat": 48.101845,
        "lon": -1.79502,
        "name": "Bouleaux",
        "code": 2516
      },
      "arrival": 33240,
      "departure": 33240
    },
    {
      "stop": {
        "id": "2_2517",
        "lat": 48.099367,
        "lon": -1.796733,
        "name": "Brassens",
        "code": 2517
      },
      "arrival": 33300,
      "departure": 33300
    },
    {
      "stop": {
        "id": "2_2518",
        "lat": 48.099326,
        "lon": -1.802088,
        "name": "Champs Freslons",
        "code": 2518
      },
      "arrival": 33420,
      "departure": 33420
    },
    {
      "stop": {
        "id": "2_2519",
        "lat": 48.100897,
        "lon": -1.806904,
        "name": "Lycée Monod",
        "code": 2519
      },
      "arrival": 33480,
      "departure": 33480
    }
  ],
  "route": {
    "id": "2_0054",
    "textColor": "FFFFFF",
    "color": "CD93BD",
    "description": "Métropolitaine",
    "longName": "Rennes (Charles de Gaulle) \u003c\u003e Le Rheu / Cintré",
    "shortName": "54",
    "type": 3,
    "agencyId": "2"
  }
}