{
  "headsign": "223 | Betton",
  "stopTimes": [
    {
      "stop": {
        "id": "2_2841",
        "lat": 48.16049892,
        "lon": -1.67685816,
        "name": "Parking scolaire Jean-Paul II",
        "code": 2841
      },
      "arrival": 60000,
      "departure": 60000
    },
    {
      "stop": {
        "id": "2_2829",
        "lat": 48.14928398,
        "lon": -1.65646132,
        "name": "Maison Blanche",
        "code": 2829
      },
      "arrival": 60480,
      "departure": 60480
    },
    {
      "stop": {
        "id": "2_2414",
        "lat": 48.17259986,
        "lon": -1.63732208,
        "name": "Housset",
        "code": 2414
      },
      "arrival": 60840,
      "departure": 60840
    },
    {
      "stop": {
        "id": "2_2415",
        "lat": 48.17681478,
        "lon": -1.63718049,
        "name": "Marronniers",
        "code": 2415
      },
      "arrival": 60900,
      "departure": 60900
    },
    {
      "stop": {
        "id": "2_2416",
        "lat": 48.18021697,
        "lon": -1.63478408,
        "name": "Haye Renaud Gare",
        "code": 2416
      },
      "arrival": 61020,
      "departure": 61020
    },
    {
      "stop": {
        "id": "2_2435",
        "lat": 48.18305974,
        "lon": -1.63721735,
        "name": "Mozart",
        "code": 2435
      },
      "arrival": 61140,
      "departure": 61140
    },
    {
      "stop": {
        "id": "2_2434",
        "lat": 48.18635458,
        "lon": -1.63319375,
        "name": "J. Sébastien Bach",
        "code": 2434
      },
      "arrival": 61200,
      "departure": 61200
    },
    {
      "stop": {
        "id": "2_2451",
        "lat": 48.19085557,
        "lon": -1.62920813,
        "name": "Gentilhommière",
        "code": 2451
      },
      "arrival": 61380,
      "departure": 61380
    }
  ],
  "route": {
    "id": "2_0223",
    "textColor": "FFFFFF",
    "color": "94C11F",
    "description": "Complémentaire",
    "longName": "Chevaigné (Pommiers) \u003c\u003e Saint-Grégoire (Lycée Jean-Paul II)",
    "shortName": "223",
    "type": 3,
    "agencyId": "2"
  }
}