{
  "headsign": "35 | Cesson-Sévigné Gare",
  "stopTimes": [
    {
      "stop": {
        "id": "2_2116",
        "lat": 48.13488248,
        "lon": -1.62068447,
        "name": "Champs Blancs",
        "code": 2116
      },
      "arrival": 68400,
      "departure": 68400
    },
    {
      "stop": {
        "id": "2_2105",
        "lat": 48.13105331,
        "lon": -1.62462479,
        "name": "Chêne Germain",
        "code": 2105
      },
      "arrival": 68520,
      "departure": 68520
    },
    {
      "stop": {
        "id": "2_2002",
        "lat": 48.13023268,
        "lon": -1.62752844,
        "name": "Cesson Hôpital Privé",
        "code": 2002
      },
      "arrival": 68580,
      "departure": 68580
    },
    {
      "stop": {
        "id": "2_1536",
        "lat": 48.1268057,
        "lon": -1.6300959,
        "name": "Clos Courtel",
        "code": 1536
      },
      "arrival": 68700,
      "departure": 68700
    },
    {
      "stop": {
        "id": "2_1291",
        "lat": 48.12475494,
        "lon": -1.63388412,
        "name": "IUT",
        "code": 1291
      },
      "arrival": 68760,
      "departure": 68760
    },
    {
      "stop": {
        "id": "2_1292",
        "lat": 48.12145018,
        "lon": -1.63814809,
        "name": "Beaulieu Restau. U.",
        "code": 1292
      },
      "arrival": 68820,
      "departure": 68820
    },
    {
      "stop": {
        "id": "2_1176",
        "lat": 48.11901733,
        "lon": -1.63514782,
        "name": "Beaulieu INSA",
        "code": 1176
      },
      "arrival": 68880,
      "departure": 68880
    },
    {
      "stop": {
        "id": "2_1312",
        "lat": 48.1166495,
        "lon": -1.63393042,
        "name": "Beaulieu Chimie",
        "code": 1312
      },
      "arrival": 68940,
      "departure": 68940
    },
    {
      "stop": {
        "id": "2_2019",
        "lat": 48.1140789,
        "lon": -1.62801107,
        "name": "Champs Péans",
        "code": 2019
      },
      "arrival": 69060,
      "departure": 69060
    },
    {
      "stop": {
        "id": "2_2020",
        "lat": 48.11415,
        "lon": -1.62183892,
        "name": "Taillis",
        "code": 2020
      },
      "arrival": 69120,
      "departure": 69120
    },
    {
      "stop": {
        "id": "2_2021",
        "lat": 48.11421456,
        "lon": -1.61375483,
        "name": "Hublais",
        "code": 2021
      },
      "arrival": 69180,
      "departure": 69180
    },
    {
      "stop": {
        "id": "2_2057",
        "lat": 48.1138863,
        "lon": -1.60325405,
        "name": "Cesson Gare",
        "code": 2057
      },
      "arrival": 69300,
      "departure": 69300
    }
  ],
  "route": {
    "id": "2_0035",
    "textColor": "DF171C",
    "color": "FEF466",
    "description": "Inter-quartiers",
    "longName": "Cesson-Sévigné (Champs Blancs) \u003c\u003e Cesson-Sévigné (Gare)",
    "shortName": "35",
    "type": 3,
    "agencyId": "2"
  }
}