{
  "headsign": "72 | Chartres Pont-Péan",
  "stopTimes": [
    {
      "stop": {
        "id": "2_1534",
        "lat": 48.088549,
        "lon": -1.67439,
        "name": "Henri Fréville",
        "code": 1534
      },
      "arrival": 31200,
      "departure": 31200
    },
    {
      "stop": {
        "id": "2_1449",
        "lat": 48.086865,
        "lon": -1.683079,
        "name": "Norvège",
        "code": 1449
      },
      "arrival": 31380,
      "departure": 31380
    },
    {
      "stop": {
        "id": "2_1450",
        "lat": 48.08669,
        "lon": -1.688453,
        "name": "Coubertin",
        "code": 1450
      },
      "arrival": 31440,
      "departure": 31440
    },
    {
      "stop": {
        "id": "2_1270",
        "lat": 48.085811,
        "lon": -1.694039,
        "name": "Félix Eboué",
        "code": 1270
      },
      "arrival": 31560,
      "departure": 31560
    },
    {
      "stop": {
        "id": "2_2262",
        "lat": 48.068729,
        "lon": -1.697896,
        "name": "Vallon",
        "code": 2262
      },
      "arrival": 31800,
      "departure": 31800
    },
    {
      "stop": {
        "id": "2_2704",
        "lat": 48.059279,
        "lon": -1.7013,
        "name": "Janais",
        "code": 2704
      },
      "arrival": 31920,
      "departure": 31920
    },
    {
      "stop": {
        "id": "2_2907",
        "lat": 48.045659,
        "lon": -1.710498,
        "name": "Croix aux Potiers",
        "code": 2907
      },
      "arrival": 32100,
      "departure": 32100
    },
    {
      "stop": {
        "id": "2_2918",
        "lat": 48.041976,
        "lon": -1.711045,
        "name": "Callouët",
        "code": 2918
      },
      "arrival": 32160,
      "departure": 32160
    },
    {
      "stop": {
        "id": "2_2919",
        "lat": 48.042323,
        "lon": -1.707466,
        "name": "Chartres Centre",
        "code": 2919
      },
      "arrival": 32220,
      "departure": 32220
    },
    {
      "stop": {
        "id": "2_2920",
        "lat": 48.041536,
        "lon": -1.702871,
        "name": "Auditoire",
        "code": 2920
      },
      "arrival": 32280,
      "departure": 32280
    },
    {
      "stop": {
        "id": "2_2921",
        "lat": 48.041222,
        "lon": -1.69777,
        "name": "Collège Pôle Sud",
        "code": 2921
      },
      "arrival": 32340,
      "departure": 32340
    },
    {
      "stop": {
        "id": "2_2922",
        "lat": 48.037057,
        "lon": -1.697209,
        "name": "Vieux Bourg",
        "code": 2922
      },
      "arrival": 32460,
      "departure": 32460
    },
    {
      "stop": {
        "id": "2_2923",
        "lat": 48.034735,
        "lon": -1.699894,
        "name": "Cornouaille",
        "code": 2923
      },
      "arrival": 32520,
      "departure": 32520
    },
    {
      "stop": {
        "id": "2_2924",
        "lat": 48.035534,
        "lon": -1.706095,
        "name": "Argoat",
        "code": 2924
      },
      "arrival": 32580,
      "departure": 32580
    },
    {
      "stop": {
        "id": "2_2927",
        "lat": 48.033169,
        "lon": -1.707484,
        "name": "Parc de Loisirs",
        "code": 2927
      },
      "arrival": 32640,
      "departure": 32640
    },
    {
      "stop": {
        "id": "2_2930",
        "lat": 48.031247,
        "lon": -1.709248,
        "name": "Constant Mérel",
        "code": 2930
      },
      "arrival": 32700,
      "departure": 32700
    },
    {
      "stop": {
        "id": "2_3909",
        "lat": 48.01986,
        "lon": -1.707123,
        "name": "Renaissance",
        "code": 3909
      },
      "arrival": 32820,
      "departure": 32820
    },
    {
      "stop": {
        "id": "2_3910",
        "lat": 48.016959,
        "lon": -1.705245,
        "name": "Fontaine Blanche",
        "code": 3910
      },
      "arrival": 32880,
      "departure": 32880
    },
    {
      "stop": {
        "id": "2_3911",
        "lat": 48.01369,
        "lon": -1.707704,
        "name": "Rivaudière",
        "code": 3911
      },
      "arrival": 32940,
      "departure": 32940
    },
    {
      "stop": {
        "id": "2_3912",
        "lat": 48.010772,
        "lon": -1.706394,
        "name": "Pont Péan Mairie",
        "code": 3912
      },
      "arrival": 33000,
      "departure": 33000
    },
    {
      "stop": {
        "id": "2_3904",
        "lat": 48.012935,
        "lon": -1.702976,
        "name": "Chemin Vert",
        "code": 3904
      },
      "arrival": 33000,
      "departure": 33000
    },
    {
      "stop": {
        "id": "2_3914",
        "lat": 48.010354,
        "lon": -1.701141,
        "name": "Mouton Blanc",
        "code": 3914
      },
      "arrival": 33060,
      "departure": 33060
    },
    {
      "stop": {
        "id": "2_3915",
        "lat": 48.00551,
        "lon": -1.698233,
        "name": "Caliorne",
        "code": 3915
      },
      "arrival": 33120,
      "departure": 33120
    },
    {
      "stop": {
        "id": "2_3901",
        "lat": 47.999909,
        "lon": -1.696968,
        "name": "Bois Esnault",
        "code": 3901
      },
      "arrival": 33180,
      "departure": 33180
    }
  ],
  "route": {
    "id": "2_0072",
    "textColor": "FFFFFF",
    "color": "004293",
    "description": "Métropolitaine",
    "longName": "Rennes (Henri Fréville) \u003c\u003e Chartres-de-Bretagne / Pont-Péan / Laillé",
    "shortName": "72",
    "type": 3,
    "agencyId": "2"
  }
}