{
  "headsign": "72 | Rennes Henri Fréville via T. Tizon",
  "stopTimes": [
    {
      "stop": {
        "id": "2_3901",
        "lat": 47.99990845,
        "lon": -1.69693519,
        "name": "Bois Esnault",
        "code": 3901
      },
      "arrival": 57060,
      "departure": 57060
    },
    {
      "stop": {
        "id": "2_3902",
        "lat": 48.00647989,
        "lon": -1.69857206,
        "name": "Caliorne",
        "code": 3902
      },
      "arrival": 57120,
      "departure": 57120
    },
    {
      "stop": {
        "id": "2_3903",
        "lat": 48.01062006,
        "lon": -1.70099518,
        "name": "Mouton Blanc",
        "code": 3903
      },
      "arrival": 57180,
      "departure": 57180
    },
    {
      "stop": {
        "id": "2_3913",
        "lat": 48.01296314,
        "lon": -1.703044,
        "name": "Chemin Vert",
        "code": 3913
      },
      "arrival": 57240,
      "departure": 57240
    },
    {
      "stop": {
        "id": "2_3905",
        "lat": 48.01057926,
        "lon": -1.70697013,
        "name": "Pont Péan Mairie",
        "code": 3905
      },
      "arrival": 57300,
      "departure": 57300
    },
    {
      "stop": {
        "id": "2_3906",
        "lat": 48.0136449,
        "lon": -1.70763245,
        "name": "Rivaudière",
        "code": 3906
      },
      "arrival": 57360,
      "departure": 57360
    },
    {
      "stop": {
        "id": "2_3907",
        "lat": 48.01629245,
        "lon": -1.70567784,
        "name": "Fontaine Blanche",
        "code": 3907
      },
      "arrival": 57360,
      "departure": 57360
    },
    {
      "stop": {
        "id": "2_3908",
        "lat": 48.01989989,
        "lon": -1.70699303,
        "name": "Renaissance",
        "code": 3908
      },
      "arrival": 57420,
      "departure": 57420
    },
    {
      "stop": {
        "id": "2_2928",
        "lat": 48.03144516,
        "lon": -1.70886705,
        "name": "Constant Mérel",
        "code": 2928
      },
      "arrival": 57600,
      "departure": 57600
    },
    {
      "stop": {
        "id": "2_2911",
        "lat": 48.03319414,
        "lon": -1.70728888,
        "name": "Parc de Loisirs",
        "code": 2911
      },
      "arrival": 57660,
      "departure": 57660
    },
    {
      "stop": {
        "id": "2_2912",
        "lat": 48.03551346,
        "lon": -1.70632588,
        "name": "Argoat",
        "code": 2912
      },
      "arrival": 57720,
      "departure": 57720
    },
    {
      "stop": {
        "id": "2_2913",
        "lat": 48.03465949,
        "lon": -1.69950247,
        "name": "Cornouaille",
        "code": 2913
      },
      "arrival": 57840,
      "departure": 57840
    },
    {
      "stop": {
        "id": "2_2914",
        "lat": 48.03691975,
        "lon": -1.69708216,
        "name": "Vieux Bourg",
        "code": 2914
      },
      "arrival": 57900,
      "departure": 57900
    },
    {
      "stop": {
        "id": "2_2915",
        "lat": 48.04133261,
        "lon": -1.69832095,
        "name": "Collège Pôle Sud",
        "code": 2915
      },
      "arrival": 58020,
      "departure": 58020
    },
    {
      "stop": {
        "id": "2_2916",
        "lat": 48.0416478,
        "lon": -1.70262208,
        "name": "Auditoire",
        "code": 2916
      },
      "arrival": 58080,
      "departure": 58080
    },
    {
      "stop": {
        "id": "2_2917",
        "lat": 48.04230372,
        "lon": -1.70649993,
        "name": "Chartres Centre",
        "code": 2917
      },
      "arrival": 58140,
      "departure": 58140
    },
    {
      "stop": {
        "id": "2_2905",
        "lat": 48.04226025,
        "lon": -1.71208839,
        "name": "Callouët",
        "code": 2905
      },
      "arrival": 58260,
      "departure": 58260
    },
    {
      "stop": {
        "id": "2_2906",
        "lat": 48.04593291,
        "lon": -1.71017676,
        "name": "Croix aux Potiers",
        "code": 2906
      },
      "arrival": 58320,
      "departure": 58320
    },
    {
      "stop": {
        "id": "2_2749",
        "lat": 48.05590393,
        "lon": -1.70113068,
        "name": "Touche Tizon",
        "code": 2749
      },
      "arrival": 58440,
      "departure": 58440
    },
    {
      "stop": {
        "id": "2_2701",
        "lat": 48.05897113,
        "lon": -1.70107764,
        "name": "Janais",
        "code": 2701
      },
      "arrival": 58500,
      "departure": 58500
    },
    {
      "stop": {
        "id": "2_2702",
        "lat": 48.06829803,
        "lon": -1.69763551,
        "name": "Vallon",
        "code": 2702
      },
      "arrival": 58620,
      "departure": 58620
    },
    {
      "stop": {
        "id": "2_1267",
        "lat": 48.0857359,
        "lon": -1.69390359,
        "name": "Félix Eboué",
        "code": 1267
      },
      "arrival": 58860,
      "departure": 58860
    },
    {
      "stop": {
        "id": "2_1456",
        "lat": 48.08658018,
        "lon": -1.68739623,
        "name": "Coubertin",
        "code": 1456
      },
      "arrival": 58980,
      "departure": 58980
    },
    {
      "stop": {
        "id": "2_1457",
        "lat": 48.08679431,
        "lon": -1.6838896,
        "name": "Norvège",
        "code": 1457
      },
      "arrival": 59040,
      "departure": 59040
    },
    {
      "stop": {
        "id": "2_1534",
        "lat": 48.08831454,
        "lon": -1.67444337,
        "name": "Henri Fréville",
        "code": 1534
      },
      "arrival": 59220,
      "departure": 59220
    }
  ],
  "route": {
    "id": "2_0072",
    "textColor": "FFFFFF",
    "color": "004293",
    "description": "Métropolitaine",
    "longName": "Rennes (Henri Fréville) \u003c\u003e Chartres-de-Bretagne / Pont-Péan / Laillé",
    "shortName": "72",
    "type": 3,
    "agencyId": "2"
  }
}