{
  "headsign": "35 | Cesson-Sévigné Champs Blancs",
  "stopTimes": [
    {
      "stop": {
        "id": "2_2065",
        "lat": 48.11382762,
        "lon": -1.60314125,
        "name": "Cesson Gare",
        "code": 2065
      },
      "arrival": 33300,
      "departure": 33300
    },
    {
      "stop": {
        "id": "2_2015",
        "lat": 48.11422249,
        "lon": -1.616313,
        "name": "Hublais",
        "code": 2015
      },
      "arrival": 33420,
      "departure": 33420
    },
    {
      "stop": {
        "id": "2_2016",
        "lat": 48.11418172,
        "lon": -1.62194938,
        "name": "Taillis",
        "code": 2016
      },
      "arrival": 33480,
      "departure": 33480
    },
    {
      "stop": {
        "id": "2_2017",
        "lat": 48.11408545,
        "lon": -1.63036724,
        "name": "Champs Péans",
        "code": 2017
      },
      "arrival": 33600,
      "departure": 33600
    },
    {
      "stop": {
        "id": "2_1175",
        "lat": 48.11698398,
        "lon": -1.63390592,
        "name": "Beaulieu Chimie",
        "code": 1175
      },
      "arrival": 33660,
      "departure": 33660
    },
    {
      "stop": {
        "id": "2_1204",
        "lat": 48.11947652,
        "lon": -1.63539005,
        "name": "Beaulieu INSA",
        "code": 1204
      },
      "arrival": 33720,
      "departure": 33720
    },
    {
      "stop": {
        "id": "2_1313",
        "lat": 48.12187502,
        "lon": -1.63834696,
        "name": "Beaulieu Restau. U.",
        "code": 1313
      },
      "arrival": 33780,
      "departure": 33780
    },
    {
      "stop": {
        "id": "2_1314",
        "lat": 48.1250923,
        "lon": -1.63309609,
        "name": "IUT",
        "code": 1314
      },
      "arrival": 33840,
      "departure": 33840
    },
    {
      "stop": {
        "id": "2_1290",
        "lat": 48.12688601,
        "lon": -1.62954442,
        "name": "Clos Courtel",
        "code": 1290
      },
      "arrival": 33900,
      "departure": 33900
    },
    {
      "stop": {
        "id": "2_2003",
        "lat": 48.13011384,
        "lon": -1.62802968,
        "name": "Cesson Hôpital Privé",
        "code": 2003
      },
      "arrival": 34020,
      "departure": 34020
    },
    {
      "stop": {
        "id": "2_2112",
        "lat": 48.13075338,
        "lon": -1.62292888,
        "name": "Chêne Germain",
        "code": 2112
      },
      "arrival": 34080,
      "departure": 34080
    },
    {
      "stop": {
        "id": "2_2116",
        "lat": 48.13488248,
        "lon": -1.62068447,
        "name": "Champs Blancs",
        "code": 2116
      },
      "arrival": 34260,
      "departure": 34260
    }
  ],
  "route": {
    "id": "2_0035",
    "textColor": "DF171C",
    "color": "FEF466",
    "description": "Inter-quartiers",
    "longName": "Cesson-Sévigné (Champs Blancs) \u003c\u003e Cesson-Sévigné (Gare)",
    "shortName": "35",
    "type": 3,
    "agencyId": "2"
  }
}