{
  "headsign": "72 | Chartres Pont-Péan via T. Tizon",
  "stopTimes": [
    {
      "stop": {
        "id": "2_1534",
        "lat": 48.088549,
        "lon": -1.67439,
        "name": "Henri Fréville",
        "code": 1534
      },
      "arrival": 27000,
      "departure": 27000
    },
    {
      "stop": {
        "id": "2_1449",
        "lat": 48.086865,
        "lon": -1.683079,
        "name": "Norvège",
        "code": 1449
      },
      "arrival": 27180,
      "departure": 27180
    },
    {
      "stop": {
        "id": "2_1450",
        "lat": 48.08669,
        "lon": -1.688453,
        "name": "Coubertin",
        "code": 1450
      },
      "arrival": 27240,
      "departure": 27240
    },
    {
      "stop": {
        "id": "2_1270",
        "lat": 48.085811,
        "lon": -1.694039,
        "name": "Félix Eboué",
        "code": 1270
      },
      "arrival": 27300,
      "departure": 27300
    },
    {
      "stop": {
        "id": "2_2262",
        "lat": 48.068729,
        "lon": -1.697896,
        "name": "Vallon",
        "code": 2262
      },
      "arrival": 27600,
      "departure": 27600
    },
    {
      "stop": {
        "id": "2_2704",
        "lat": 48.059279,
        "lon": -1.7013,
        "name": "Janais",
        "code": 2704
      },
      "arrival": 27780,
      "departure": 27780
    },
    {
      "stop": {
        "id": "2_2749",
        "lat": 48.055865,
        "lon": -1.701124,
        "name": "Touche Tizon",
        "code": 2749
      },
      "arrival": 27900,
      "departure": 27900
    },
    {
      "stop": {
        "id": "2_2907",
        "lat": 48.045659,
        "lon": -1.710498,
        "name": "Croix aux Potiers",
        "code": 2907
      },
      "arrival": 28140,
      "departure": 28140
    },
    {
      "stop": {
        "id": "2_2918",
        "lat": 48.041976,
        "lon": -1.711045,
        "name": "Callouët",
        "code": 2918
      },
      "arrival": 28200,
      "departure": 28200
    },
    {
      "stop": {
        "id": "2_2919",
        "lat": 48.042323,
        "lon": -1.707466,
        "name": "Chartres Centre",
        "code": 2919
      },
      "arrival": 28260,
      "departure": 28260
    },
    {
      "stop": {
        "id": "2_2920",
        "lat": 48.041536,
        "lon": -1.702871,
        "name": "Auditoire",
        "code": 2920
      },
      "arrival": 28320,
      "departure": 28320
    },
    {
      "stop": {
        "id": "2_2921",
        "lat": 48.041222,
        "lon": -1.69777,
        "name": "Collège Pôle Sud",
        "code": 2921
      },
      "arrival": 28380,
      "departure": 28380
    },
    {
      "stop": {
        "id": "2_2922",
        "lat": 48.037057,
        "lon": -1.697209,
        "name": "Vieux Bourg",
        "code": 2922
      },
      "arrival": 28440,
      "departure": 28440
    },
    {
      "stop": {
        "id": "2_2923",
        "lat": 48.034735,
        "lon": -1.699894,
        "name": "Cornouaille",
        "code": 2923
      },
      "arrival": 28500,
      "departure": 28500
    },
    {
      "stop": {
        "id": "2_2924",
        "lat": 48.035534,
        "lon": -1.706095,
        "name": "Argoat",
        "code": 2924
      },
      "arrival": 28560,
      "departure": 28560
    },
    {
      "stop": {
        "id": "2_2927",
        "lat": 48.033169,
        "lon": -1.707484,
        "name": "Parc de Loisirs",
        "code": 2927
      },
      "arrival": 28620,
      "departure": 28620
    },
    {
      "stop": {
        "id": "2_2930",
        "lat": 48.031247,
        "lon": -1.709248,
        "name": "Constant Mérel",
        "code": 2930
      },
      "arrival": 28680,
      "departure": 28680
    },
    {
      "stop": {
        "id": "2_3909",
        "lat": 48.01986,
        "lon": -1.707123,
        "name": "Renaissance",
        "code": 3909
      },
      "arrival": 28800,
      "departure": 28800
    },
    {
      "stop": {
        "id": "2_3910",
        "lat": 48.016959,
        "lon": -1.705245,
        "name": "Fontaine Blanche",
        "code": 3910
      },
      "arrival": 28860,
      "departure": 28860
    },
    {
      "stop": {
        "id": "2_3911",
        "lat": 48.01369,
        "lon": -1.707704,
        "name": "Rivaudière",
        "code": 3911
      },
      "arrival": 28920,
      "departure": 28920
    },
    {
      "stop": {
        "id": "2_3912",
        "lat": 48.010772,
        "lon": -1.706394,
        "name": "Pont Péan Mairie",
        "code": 3912
      },
      "arrival": 28980,
      "departure": 28980
    },
    {
      "stop": {
        "id": "2_3904",
        "lat": 48.012935,
        "lon": -1.702976,
        "name": "Chemin Vert",
        "code": 3904
      },
      "arrival": 28980,
      "departure": 28980
    },
    {
      "stop": {
        "id": "2_3914",
        "lat": 48.010354,
        "lon": -1.701141,
        "name": "Mouton Blanc",
        "code": 3914
      },
      "arrival": 29040,
      "departure": 29040
    },
    {
      "stop": {
        "id": "2_3915",
        "lat": 48.006145,
        "lon": -1.698543,
        "name": "Caliorne",
        "code": 3915
      },
      "arrival": 29100,
      "departure": 29100
    },
    {
      "stop": {
        "id": "2_3901",
        "lat": 47.999909,
        "lon": -1.696968,
        "name": "Bois Esnault",
        "code": 3901
      },
      "arrival": 29160,
      "departure": 29160
    }
  ],
  "route": {
    "id": "2_0072",
    "textColor": "FFFFFF",
    "color": "004293",
    "description": "Métropolitaine",
    "longName": "Rennes (Henri Fréville) \u003c\u003e Chartres-de-Bretagne / Pont-Péan / Laillé",
    "shortName": "72",
    "type": 3,
    "agencyId": "2"
  }
}