{
  "headsign": "51 | Betton Champ Devant",
  "stopTimes": [
    {
      "stop": {
        "id": "2_1606",
        "lat": 48.11563108,
        "lon": -1.67670645,
        "name": "Hoche",
        "code": 1606
      },
      "arrival": 53400,
      "departure": 53400
    },
    {
      "stop": {
        "id": "2_1279",
        "lat": 48.11946401,
        "lon": -1.67448311,
        "name": "Rectorat",
        "code": 1279
      },
      "arrival": 53520,
      "departure": 53520
    },
    {
      "stop": {
        "id": "2_1280",
        "lat": 48.12141907,
        "lon": -1.67087311,
        "name": "Jules Ferry",
        "code": 1280
      },
      "arrival": 53580,
      "departure": 53580
    },
    {
      "stop": {
        "id": "2_1281",
        "lat": 48.12528439,
        "lon": -1.66636805,
        "name": "Volney",
        "code": 1281
      },
      "arrival": 53700,
      "departure": 53700
    },
    {
      "stop": {
        "id": "2_1282",
        "lat": 48.12661538,
        "lon": -1.66533269,
        "name": "Gros Chêne",
        "code": 1282
      },
      "arrival": 53760,
      "departure": 53760
    },
    {
      "stop": {
        "id": "2_1489",
        "lat": 48.13230626,
        "lon": -1.66158898,
        "name": "Patton Gast",
        "code": 1489
      },
      "arrival": 53880,
      "departure": 53880
    },
    {
      "stop": {
        "id": "2_1490",
        "lat": 48.13593467,
        "lon": -1.65918915,
        "name": "Hôtel de Région",
        "code": 1490
      },
      "arrival": 53940,
      "departure": 53940
    },
    {
      "stop": {
        "id": "2_1491",
        "lat": 48.13884258,
        "lon": -1.65836842,
        "name": "Saint-Laurent",
        "code": 1491
      },
      "arrival": 54000,
      "departure": 54000
    },
    {
      "stop": {
        "id": "2_2829",
        "lat": 48.14928398,
        "lon": -1.65646132,
        "name": "Maison Blanche",
        "code": 2829
      },
      "arrival": 54120,
      "departure": 54120
    },
    {
      "stop": {
        "id": "2_2412",
        "lat": 48.16199698,
        "lon": -1.64746497,
        "name": "Betton Vallée",
        "code": 2412
      },
      "arrival": 54240,
      "departure": 54240
    },
    {
      "stop": {
        "id": "2_2413",
        "lat": 48.17110928,
        "lon": -1.64175914,
        "name": "Enseigne Abbaye",
        "code": 2413
      },
      "arrival": 54360,
      "departure": 54360
    },
    {
      "stop": {
        "id": "2_2414",
        "lat": 48.17259986,
        "lon": -1.63732208,
        "name": "Housset",
        "code": 2414
      },
      "arrival": 54420,
      "departure": 54420
    },
    {
      "stop": {
        "id": "2_2415",
        "lat": 48.17681478,
        "lon": -1.63718049,
        "name": "Marronniers",
        "code": 2415
      },
      "arrival": 54540,
      "departure": 54540
    },
    {
      "stop": {
        "id": "2_2416",
        "lat": 48.18021697,
        "lon": -1.63478408,
        "name": "Haye Renaud Gare",
        "code": 2416
      },
      "arrival": 54600,
      "departure": 54600
    },
    {
      "stop": {
        "id": "2_2437",
        "lat": 48.18157224,
        "lon": -1.63928389,
        "name": "Betton Centre",
        "code": 2437
      },
      "arrival": 54720,
      "departure": 54720
    },
    {
      "stop": {
        "id": "2_2418",
        "lat": 48.18191158,
        "lon": -1.64120022,
        "name": "Betton Mairie",
        "code": 2418
      },
      "arrival": 54720,
      "departure": 54720
    },
    {
      "stop": {
        "id": "2_2419",
        "lat": 48.1831832,
        "lon": -1.64644735,
        "name": "Trégor",
        "code": 2419
      },
      "arrival": 54840,
      "departure": 54840
    },
    {
      "stop": {
        "id": "2_2420",
        "lat": 48.18060634,
        "lon": -1.65213707,
        "name": "Brocéliande",
        "code": 2420
      },
      "arrival": 54900,
      "departure": 54900
    },
    {
      "stop": {
        "id": "2_2421",
        "lat": 48.17922788,
        "lon": -1.65120686,
        "name": "Omblais",
        "code": 2421
      },
      "arrival": 54960,
      "departure": 54960
    },
    {
      "stop": {
        "id": "2_2401",
        "lat": 48.17703667,
        "lon": -1.65122928,
        "name": "Champ Devant",
        "code": 2401
      },
      "arrival": 55020,
      "departure": 55020
    }
  ],
  "route": {
    "id": "2_0051",
    "textColor": "FFFFFF",
    "color": "93117E",
    "description": "Métropolitaine",
    "longName": "Rennes (Hoche) \u003c\u003e Betton (Champ Devant)",
    "shortName": "51",
    "type": 3,
    "agencyId": "2"
  }
}