{
  "headsign": "238 | L\u0027Hermitage La Chapelle-Th.",
  "stopTimes": [
    {
      "stop": {
        "id": "2_2519",
        "lat": 48.10084549,
        "lon": -1.80690728,
        "name": "Lycée Monod",
        "code": 2519
      },
      "arrival": 45600,
      "departure": 45600
    },
    {
      "stop": {
        "id": "2_4307",
        "lat": 48.12346101,
        "lon": -1.80743913,
        "name": "Clairefontaine",
        "code": 4307
      },
      "arrival": 46200,
      "departure": 46200
    },
    {
      "stop": {
        "id": "2_4308",
        "lat": 48.12499565,
        "lon": -1.81290303,
        "name": "Village",
        "code": 4308
      },
      "arrival": 46260,
      "departure": 46260
    },
    {
      "stop": {
        "id": "2_4304",
        "lat": 48.12551567,
        "lon": -1.81606092,
        "name": "L\u0027Hermitage Centre",
        "code": 4304
      },
      "arrival": 46320,
      "departure": 46320
    },
    {
      "stop": {
        "id": "2_4310",
        "lat": 48.12373585,
        "lon": -1.81791833,
        "name": "L\u0027Hermitage Gare",
        "code": 4310
      },
      "arrival": 46380,
      "departure": 46380
    },
    {
      "stop": {
        "id": "2_4311",
        "lat": 48.12290007,
        "lon": -1.82093895,
        "name": "Hautière",
        "code": 4311
      },
      "arrival": 46440,
      "departure": 46440
    },
    {
      "stop": {
        "id": "2_4255",
        "lat": 48.12140881,
        "lon": -1.83774109,
        "name": "Grippière",
        "code": 4255
      },
      "arrival": 46560,
      "departure": 46560
    },
    {
      "stop": {
        "id": "2_4256",
        "lat": 48.1220314,
        "lon": -1.84628093,
        "name": "Piardière",
        "code": 4256
      },
      "arrival": 46620,
      "departure": 46620
    },
    {
      "stop": {
        "id": "2_4257",
        "lat": 48.1230881,
        "lon": -1.86080178,
        "name": "Rochers",
        "code": 4257
      },
      "arrival": 46740,
      "departure": 46740
    },
    {
      "stop": {
        "id": "2_4269",
        "lat": 48.12308598,
        "lon": -1.86604237,
        "name": "Place de la Mairie",
        "code": 4269
      },
      "arrival": 46800,
      "departure": 46800
    },
    {
      "stop": {
        "id": "2_4267",
        "lat": 48.12259522,
        "lon": -1.86836925,
        "name": "Ville aux Archers",
        "code": 4267
      },
      "arrival": 46860,
      "departure": 46860
    }
  ],
  "route": {
    "id": "2_0238",
    "textColor": "FFFFFF",
    "color": "BA67A6",
    "description": "Complémentaire",
    "longName": "La Chapelle-Thouarault (Ville aux Archers) \u003c\u003e Le Rheu (Lycée Théodore Monod)",
    "shortName": "238",
    "type": 3,
    "agencyId": "2"
  }
}