{
  "headsign": "78 | Saint-Grégoire Betton Centre",
  "stopTimes": [
    {
      "stop": {
        "id": "2_1497",
        "lat": 48.120973,
        "lon": -1.70298,
        "name": "Villejean-Université",
        "code": 1497
      },
      "arrival": 60000,
      "departure": 60000
    },
    {
      "stop": {
        "id": "2_1495",
        "lat": 48.126607,
        "lon": -1.693012,
        "name": "Lycée Basch",
        "code": 1495
      },
      "arrival": 60240,
      "departure": 60240
    },
    {
      "stop": {
        "id": "2_1537",
        "lat": 48.131596,
        "lon": -1.69166,
        "name": "Léonard",
        "code": 1537
      },
      "arrival": 60360,
      "departure": 60360
    },
    {
      "stop": {
        "id": "2_2826",
        "lat": 48.135601,
        "lon": -1.692926,
        "name": "Grand Quartier",
        "code": 2826
      },
      "arrival": 60480,
      "departure": 60480
    },
    {
      "stop": {
        "id": "2_2816",
        "lat": 48.138233,
        "lon": -1.686336,
        "name": "La Plesse",
        "code": 2816
      },
      "arrival": 60600,
      "departure": 60600
    },
    {
      "stop": {
        "id": "2_2814",
        "lat": 48.142967,
        "lon": -1.686622,
        "name": "CHP Saint-Grégoire",
        "code": 2814
      },
      "arrival": 60660,
      "departure": 60660
    },
    {
      "stop": {
        "id": "2_2851",
        "lat": 48.148089,
        "lon": -1.696862,
        "name": "Edonia",
        "code": 2851
      },
      "arrival": 60780,
      "departure": 60780
    },
    {
      "stop": {
        "id": "2_2839",
        "lat": 48.154392,
        "lon": -1.69664,
        "name": "Alphasis",
        "code": 2839
      },
      "arrival": 60900,
      "departure": 60900
    },
    {
      "stop": {
        "id": "2_2821",
        "lat": 48.153808,
        "lon": -1.691979,
        "name": "Paul-Emile Victor",
        "code": 2821
      },
      "arrival": 60960,
      "departure": 60960
    },
    {
      "stop": {
        "id": "2_2811",
        "lat": 48.151378,
        "lon": -1.691295,
        "name": "Cité des Jardins",
        "code": 2811
      },
      "arrival": 61020,
      "departure": 61020
    },
    {
      "stop": {
        "id": "2_2847",
        "lat": 48.151815,
        "lon": -1.684518,
        "name": "Forge",
        "code": 2847
      },
      "arrival": 61140,
      "departure": 61140
    },
    {
      "stop": {
        "id": "2_2832",
        "lat": 48.154635,
        "lon": -1.678763,
        "name": "Holywell",
        "code": 2832
      },
      "arrival": 61320,
      "departure": 61320
    },
    {
      "stop": {
        "id": "2_2834",
        "lat": 48.159961,
        "lon": -1.677102,
        "name": "Jean-Paul II",
        "code": 2834
      },
      "arrival": 61440,
      "departure": 61440
    },
    {
      "stop": {
        "id": "2_2453",
        "lat": 48.175463,
        "lon": -1.662268,
        "name": "Chaperonnais",
        "code": 2453
      },
      "arrival": 61620,
      "departure": 61620
    },
    {
      "stop": {
        "id": "2_2457",
        "lat": 48.17899,
        "lon": -1.660557,
        "name": "Pont Brand",
        "code": 2457
      },
      "arrival": 61680,
      "departure": 61680
    },
    {
      "stop": {
        "id": "2_2455",
        "lat": 48.183285,
        "lon": -1.65463,
        "name": "Renaudais",
        "code": 2455
      },
      "arrival": 61800,
      "departure": 61800
    },
    {
      "stop": {
        "id": "2_2441",
        "lat": 48.184947,
        "lon": -1.649817,
        "name": "Mézières",
        "code": 2441
      },
      "arrival": 61920,
      "departure": 61920
    },
    {
      "stop": {
        "id": "2_2449",
        "lat": 48.183594,
        "lon": -1.646306,
        "name": "Trégor",
        "code": 2449
      },
      "arrival": 61980,
      "departure": 61980
    },
    {
      "stop": {
        "id": "2_2405",
        "lat": 48.181894,
        "lon": -1.641783,
        "name": "Betton Mairie",
        "code": 2405
      },
      "arrival": 62100,
      "departure": 62100
    },
    {
      "stop": {
        "id": "2_2437",
        "lat": 48.181703,
        "lon": -1.639251,
        "name": "Betton Centre",
        "code": 2437
      },
      "arrival": 62160,
      "departure": 62160
    }
  ],
  "route": {
    "id": "2_0078",
    "textColor": "FFFFFF",
    "color": "E3006A",
    "description": "Métropolitaine",
    "longName": "Rennes (Villejean-Université) \u003c\u003e Saint-Grégoire / Betton (Centre)",
    "shortName": "78",
    "type": 3,
    "agencyId": "2"
  }
}