{
  "headsign": "72 | Rennes Henri Fréville",
  "stopTimes": [
    {
      "stop": {
        "id": "2_3901",
        "lat": 47.99990845,
        "lon": -1.69693519,
        "name": "Bois Esnault",
        "code": 3901
      },
      "arrival": 31500,
      "departure": 31500
    },
    {
      "stop": {
        "id": "2_3902",
        "lat": 48.00647989,
        "lon": -1.69857206,
        "name": "Caliorne",
        "code": 3902
      },
      "arrival": 31560,
      "departure": 31560
    },
    {
      "stop": {
        "id": "2_3903",
        "lat": 48.01062006,
        "lon": -1.70099518,
        "name": "Mouton Blanc",
        "code": 3903
      },
      "arrival": 31620,
      "departure": 31620
    },
    {
      "stop": {
        "id": "2_3913",
        "lat": 48.01296314,
        "lon": -1.703044,
        "name": "Chemin Vert",
        "code": 3913
      },
      "arrival": 31680,
      "departure": 31680
    },
    {
      "stop": {
        "id": "2_3905",
        "lat": 48.01057926,
        "lon": -1.70697013,
        "name": "Pont Péan Mairie",
        "code": 3905
      },
      "arrival": 31740,
      "departure": 31740
    },
    {
      "stop": {
        "id": "2_3906",
        "lat": 48.0136449,
        "lon": -1.70763245,
        "name": "Rivaudière",
        "code": 3906
      },
      "arrival": 31800,
      "departure": 31800
    },
    {
      "stop": {
        "id": "2_3907",
        "lat": 48.01629245,
        "lon": -1.70567784,
        "name": "Fontaine Blanche",
        "code": 3907
      },
      "arrival": 31860,
      "departure": 31860
    },
    {
      "stop": {
        "id": "2_3908",
        "lat": 48.01989989,
        "lon": -1.70699303,
        "name": "Renaissance",
        "code": 3908
      },
      "arrival": 31920,
      "departure": 31920
    },
    {
      "stop": {
        "id": "2_2928",
        "lat": 48.03144516,
        "lon": -1.70886705,
        "name": "Constant Mérel",
        "code": 2928
      },
      "arrival": 32100,
      "departure": 32100
    },
    {
      "stop": {
        "id": "2_2911",
        "lat": 48.03319414,
        "lon": -1.70728888,
        "name": "Parc de Loisirs",
        "code": 2911
      },
      "arrival": 32160,
      "departure": 32160
    },
    {
      "stop": {
        "id": "2_2912",
        "lat": 48.03551346,
        "lon": -1.70632588,
        "name": "Argoat",
        "code": 2912
      },
      "arrival": 32220,
      "departure": 32220
    },
    {
      "stop": {
        "id": "2_2913",
        "lat": 48.03465949,
        "lon": -1.69950247,
        "name": "Cornouaille",
        "code": 2913
      },
      "arrival": 32340,
      "departure": 32340
    },
    {
      "stop": {
        "id": "2_2914",
        "lat": 48.03691975,
        "lon": -1.69708216,
        "name": "Vieux Bourg",
        "code": 2914
      },
      "arrival": 32400,
      "departure": 32400
    },
    {
      "stop": {
        "id": "2_2915",
        "lat": 48.04133261,
        "lon": -1.69832095,
        "name": "Collège Pôle Sud",
        "code": 2915
      },
      "arrival": 32520,
      "departure": 32520
    },
    {
      "stop": {
        "id": "2_2916",
        "lat": 48.0416478,
        "lon": -1.70262208,
        "name": "Auditoire",
        "code": 2916
      },
      "arrival": 32580,
      "departure": 32580
    },
    {
      "stop": {
        "id": "2_2917",
        "lat": 48.04230372,
        "lon": -1.70649993,
        "name": "Chartres Centre",
        "code": 2917
      },
      "arrival": 32640,
      "departure": 32640
    },
    {
      "stop": {
        "id": "2_2905",
        "lat": 48.04226025,
        "lon": -1.71208839,
        "name": "Callouët",
        "code": 2905
      },
      "arrival": 32760,
      "departure": 32760
    },
    {
      "stop": {
        "id": "2_2906",
        "lat": 48.04593291,
        "lon": -1.71017676,
        "name": "Croix aux Potiers",
        "code": 2906
      },
      "arrival": 32820,
      "departure": 32820
    },
    {
      "stop": {
        "id": "2_2701",
        "lat": 48.05897113,
        "lon": -1.70107764,
        "name": "Janais",
        "code": 2701
      },
      "arrival": 33060,
      "departure": 33060
    },
    {
      "stop": {
        "id": "2_2702",
        "lat": 48.06829803,
        "lon": -1.69763551,
        "name": "Vallon",
        "code": 2702
      },
      "arrival": 33180,
      "departure": 33180
    },
    {
      "stop": {
        "id": "2_1267",
        "lat": 48.0857359,
        "lon": -1.69390359,
        "name": "Félix Eboué",
        "code": 1267
      },
      "arrival": 33480,
      "departure": 33480
    },
    {
      "stop": {
        "id": "2_1456",
        "lat": 48.08658018,
        "lon": -1.68739623,
        "name": "Coubertin",
        "code": 1456
      },
      "arrival": 33600,
      "departure": 33600
    },
    {
      "stop": {
        "id": "2_1457",
        "lat": 48.08679431,
        "lon": -1.6838896,
        "name": "Norvège",
        "code": 1457
      },
      "arrival": 33600,
      "departure": 33600
    },
    {
      "stop": {
        "id": "2_1534",
        "lat": 48.08831454,
        "lon": -1.67444337,
        "name": "Henri Fréville",
        "code": 1534
      },
      "arrival": 33780,
      "departure": 33780
    }
  ],
  "route": {
    "id": "2_0072",
    "textColor": "FFFFFF",
    "color": "004293",
    "description": "Métropolitaine",
    "longName": "Rennes (Henri Fréville) \u003c\u003e Chartres-de-Bretagne / Pont-Péan / Laillé",
    "shortName": "72",
    "type": 3,
    "agencyId": "2"
  }
}