{
  "headsign": "72 | Chartres Pont-Péan",
  "stopTimes": [
    {
      "stop": {
        "id": "2_1534",
        "lat": 48.08831454,
        "lon": -1.67444337,
        "name": "Henri Fréville",
        "code": 1534
      },
      "arrival": 65400,
      "departure": 65400
    },
    {
      "stop": {
        "id": "2_1449",
        "lat": 48.0868238,
        "lon": -1.6830757,
        "name": "Norvège",
        "code": 1449
      },
      "arrival": 65640,
      "departure": 65640
    },
    {
      "stop": {
        "id": "2_1450",
        "lat": 48.08665851,
        "lon": -1.68837187,
        "name": "Coubertin",
        "code": 1450
      },
      "arrival": 65760,
      "departure": 65760
    },
    {
      "stop": {
        "id": "2_1270",
        "lat": 48.08578354,
        "lon": -1.69404539,
        "name": "Félix Eboué",
        "code": 1270
      },
      "arrival": 65880,
      "departure": 65880
    },
    {
      "stop": {
        "id": "2_2262",
        "lat": 48.06879204,
        "lon": -1.69785635,
        "name": "Vallon",
        "code": 2262
      },
      "arrival": 66120,
      "departure": 66120
    },
    {
      "stop": {
        "id": "2_2704",
        "lat": 48.0593778,
        "lon": -1.70119071,
        "name": "Janais",
        "code": 2704
      },
      "arrival": 66240,
      "departure": 66240
    },
    {
      "stop": {
        "id": "2_2907",
        "lat": 48.04566035,
        "lon": -1.71043502,
        "name": "Croix aux Potiers",
        "code": 2907
      },
      "arrival": 66480,
      "departure": 66480
    },
    {
      "stop": {
        "id": "2_2918",
        "lat": 48.04201305,
        "lon": -1.71105813,
        "name": "Callouët",
        "code": 2918
      },
      "arrival": 66540,
      "departure": 66540
    },
    {
      "stop": {
        "id": "2_2919",
        "lat": 48.04229207,
        "lon": -1.70746679,
        "name": "Chartres Centre",
        "code": 2919
      },
      "arrival": 66600,
      "departure": 66600
    },
    {
      "stop": {
        "id": "2_2920",
        "lat": 48.04158293,
        "lon": -1.70288204,
        "name": "Auditoire",
        "code": 2920
      },
      "arrival": 66660,
      "departure": 66660
    },
    {
      "stop": {
        "id": "2_2921",
        "lat": 48.04125574,
        "lon": -1.69776297,
        "name": "Collège Pôle Sud",
        "code": 2921
      },
      "arrival": 66720,
      "departure": 66720
    },
    {
      "stop": {
        "id": "2_2922",
        "lat": 48.03705289,
        "lon": -1.69713431,
        "name": "Vieux Bourg",
        "code": 2922
      },
      "arrival": 66840,
      "departure": 66840
    },
    {
      "stop": {
        "id": "2_2923",
        "lat": 48.03470268,
        "lon": -1.69977512,
        "name": "Cornouaille",
        "code": 2923
      },
      "arrival": 66900,
      "departure": 66900
    },
    {
      "stop": {
        "id": "2_2924",
        "lat": 48.03549509,
        "lon": -1.70610918,
        "name": "Argoat",
        "code": 2924
      },
      "arrival": 67020,
      "departure": 67020
    },
    {
      "stop": {
        "id": "2_2927",
        "lat": 48.03317189,
        "lon": -1.70739442,
        "name": "Parc de Loisirs",
        "code": 2927
      },
      "arrival": 67080,
      "departure": 67080
    },
    {
      "stop": {
        "id": "2_2930",
        "lat": 48.03121562,
        "lon": -1.70919607,
        "name": "Constant Mérel",
        "code": 2930
      },
      "arrival": 67140,
      "departure": 67140
    },
    {
      "stop": {
        "id": "2_3909",
        "lat": 48.01988823,
        "lon": -1.70705918,
        "name": "Renaissance",
        "code": 3909
      },
      "arrival": 67320,
      "departure": 67320
    },
    {
      "stop": {
        "id": "2_3910",
        "lat": 48.0169427,
        "lon": -1.7051982,
        "name": "Fontaine Blanche",
        "code": 3910
      },
      "arrival": 67380,
      "departure": 67380
    },
    {
      "stop": {
        "id": "2_3911",
        "lat": 48.01367132,
        "lon": -1.70764824,
        "name": "Rivaudière",
        "code": 3911
      },
      "arrival": 67380,
      "departure": 67380
    },
    {
      "stop": {
        "id": "2_3912",
        "lat": 48.01082475,
        "lon": -1.706468,
        "name": "Pont Péan Mairie",
        "code": 3912
      },
      "arrival": 67440,
      "departure": 67440
    },
    {
      "stop": {
        "id": "2_3904",
        "lat": 48.01295576,
        "lon": -1.70300304,
        "name": "Chemin Vert",
        "code": 3904
      },
      "arrival": 67500,
      "departure": 67500
    },
    {
      "stop": {
        "id": "2_3914",
        "lat": 48.01038435,
        "lon": -1.70102798,
        "name": "Mouton Blanc",
        "code": 3914
      },
      "arrival": 67560,
      "departure": 67560
    },
    {
      "stop": {
        "id": "2_3915",
        "lat": 48.00553207,
        "lon": -1.69815207,
        "name": "Caliorne",
        "code": 3915
      },
      "arrival": 67620,
      "departure": 67620
    },
    {
      "stop": {
        "id": "2_3901",
        "lat": 47.99990845,
        "lon": -1.69693519,
        "name": "Bois Esnault",
        "code": 3901
      },
      "arrival": 67680,
      "departure": 67680
    }
  ],
  "route": {
    "id": "2_0072",
    "textColor": "FFFFFF",
    "color": "004293",
    "description": "Métropolitaine",
    "longName": "Rennes (Henri Fréville) \u003c\u003e Chartres-de-Bretagne / Pont-Péan / Laillé",
    "shortName": "72",
    "type": 3,
    "agencyId": "2"
  }
}