{
  "headsign": "72 | Rennes Henri Fréville",
  "stopTimes": [
    {
      "stop": {
        "id": "2_4708",
        "lat": 47.98011176,
        "lon": -1.73091351,
        "name": "Gingouillère",
        "code": 4708
      },
      "arrival": 27240,
      "departure": 27240
    },
    {
      "stop": {
        "id": "2_4706",
        "lat": 47.97919538,
        "lon": -1.72431463,
        "name": "Châtaigneraie",
        "code": 4706
      },
      "arrival": 27300,
      "departure": 27300
    },
    {
      "stop": {
        "id": "2_4704",
        "lat": 47.97811777,
        "lon": -1.72042832,
        "name": "Laillé Eglise",
        "code": 4704
      },
      "arrival": 27360,
      "departure": 27360
    },
    {
      "stop": {
        "id": "2_4702",
        "lat": 47.97544241,
        "lon": -1.71712085,
        "name": "Orée du Bois",
        "code": 4702
      },
      "arrival": 27420,
      "departure": 27420
    },
    {
      "stop": {
        "id": "2_4700",
        "lat": 47.97844407,
        "lon": -1.71368953,
        "name": "Point du Jour",
        "code": 4700
      },
      "arrival": 27540,
      "departure": 27540
    },
    {
      "stop": {
        "id": "2_3924",
        "lat": 47.99991179,
        "lon": -1.69692096,
        "name": "Bois Esnault",
        "code": 3924
      },
      "arrival": 27900,
      "departure": 27900
    },
    {
      "stop": {
        "id": "2_3902",
        "lat": 48.00647989,
        "lon": -1.69857206,
        "name": "Caliorne",
        "code": 3902
      },
      "arrival": 28020,
      "departure": 28020
    },
    {
      "stop": {
        "id": "2_3903",
        "lat": 48.01062006,
        "lon": -1.70099518,
        "name": "Mouton Blanc",
        "code": 3903
      },
      "arrival": 28080,
      "departure": 28080
    },
    {
      "stop": {
        "id": "2_3913",
        "lat": 48.01296314,
        "lon": -1.703044,
        "name": "Chemin Vert",
        "code": 3913
      },
      "arrival": 28140,
      "departure": 28140
    },
    {
      "stop": {
        "id": "2_3905",
        "lat": 48.01057926,
        "lon": -1.70697013,
        "name": "Pont Péan Mairie",
        "code": 3905
      },
      "arrival": 28200,
      "departure": 28200
    },
    {
      "stop": {
        "id": "2_3906",
        "lat": 48.0136449,
        "lon": -1.70763245,
        "name": "Rivaudière",
        "code": 3906
      },
      "arrival": 28260,
      "departure": 28260
    },
    {
      "stop": {
        "id": "2_3907",
        "lat": 48.01629245,
        "lon": -1.70567784,
        "name": "Fontaine Blanche",
        "code": 3907
      },
      "arrival": 28260,
      "departure": 28260
    },
    {
      "stop": {
        "id": "2_3908",
        "lat": 48.01989989,
        "lon": -1.70699303,
        "name": "Renaissance",
        "code": 3908
      },
      "arrival": 28320,
      "departure": 28320
    },
    {
      "stop": {
        "id": "2_2928",
        "lat": 48.03144516,
        "lon": -1.70886705,
        "name": "Constant Mérel",
        "code": 2928
      },
      "arrival": 28500,
      "departure": 28500
    },
    {
      "stop": {
        "id": "2_2911",
        "lat": 48.03319414,
        "lon": -1.70728888,
        "name": "Parc de Loisirs",
        "code": 2911
      },
      "arrival": 28560,
      "departure": 28560
    },
    {
      "stop": {
        "id": "2_2912",
        "lat": 48.03551346,
        "lon": -1.70632588,
        "name": "Argoat",
        "code": 2912
      },
      "arrival": 28620,
      "departure": 28620
    },
    {
      "stop": {
        "id": "2_2913",
        "lat": 48.03465949,
        "lon": -1.69950247,
        "name": "Cornouaille",
        "code": 2913
      },
      "arrival": 28680,
      "departure": 28680
    },
    {
      "stop": {
        "id": "2_2914",
        "lat": 48.03691975,
        "lon": -1.69708216,
        "name": "Vieux Bourg",
        "code": 2914
      },
      "arrival": 28740,
      "departure": 28740
    },
    {
      "stop": {
        "id": "2_2915",
        "lat": 48.04133261,
        "lon": -1.69832095,
        "name": "Collège Pôle Sud",
        "code": 2915
      },
      "arrival": 28860,
      "departure": 28860
    },
    {
      "stop": {
        "id": "2_2916",
        "lat": 48.0416478,
        "lon": -1.70262208,
        "name": "Auditoire",
        "code": 2916
      },
      "arrival": 28920,
      "departure": 28920
    },
    {
      "stop": {
        "id": "2_2917",
        "lat": 48.04230372,
        "lon": -1.70649993,
        "name": "Chartres Centre",
        "code": 2917
      },
      "arrival": 28980,
      "departure": 28980
    },
    {
      "stop": {
        "id": "2_2905",
        "lat": 48.04226025,
        "lon": -1.71208839,
        "name": "Callouët",
        "code": 2905
      },
      "arrival": 29040,
      "departure": 29040
    },
    {
      "stop": {
        "id": "2_2906",
        "lat": 48.04593291,
        "lon": -1.71017676,
        "name": "Croix aux Potiers",
        "code": 2906
      },
      "arrival": 29100,
      "departure": 29100
    },
    {
      "stop": {
        "id": "2_2701",
        "lat": 48.05897113,
        "lon": -1.70107764,
        "name": "Janais",
        "code": 2701
      },
      "arrival": 29220,
      "departure": 29220
    },
    {
      "stop": {
        "id": "2_2702",
        "lat": 48.06829803,
        "lon": -1.69763551,
        "name": "Vallon",
        "code": 2702
      },
      "arrival": 29340,
      "departure": 29340
    },
    {
      "stop": {
        "id": "2_1267",
        "lat": 48.0857359,
        "lon": -1.69390359,
        "name": "Félix Eboué",
        "code": 1267
      },
      "arrival": 29520,
      "departure": 29520
    },
    {
      "stop": {
        "id": "2_1456",
        "lat": 48.08658018,
        "lon": -1.68739623,
        "name": "Coubertin",
        "code": 1456
      },
      "arrival": 29640,
      "departure": 29640
    },
    {
      "stop": {
        "id": "2_1457",
        "lat": 48.08679431,
        "lon": -1.6838896,
        "name": "Norvège",
        "code": 1457
      },
      "arrival": 29640,
      "departure": 29640
    },
    {
      "stop": {
        "id": "2_1534",
        "lat": 48.08831454,
        "lon": -1.67444337,
        "name": "Henri Fréville",
        "code": 1534
      },
      "arrival": 29820,
      "departure": 29820
    }
  ],
  "route": {
    "id": "2_0072",
    "textColor": "FFFFFF",
    "color": "004293",
    "description": "Métropolitaine",
    "longName": "Rennes (Henri Fréville) \u003c\u003e Chartres-de-Bretagne / Pont-Péan / Laillé",
    "shortName": "72",
    "type": 3,
    "agencyId": "2"
  }
}