{
  "headsign": "72 | Chartres Pont-Péan Laillé",
  "stopTimes": [
    {
      "stop": {
        "id": "2_1315",
        "lat": 48.109698,
        "lon": -1.678048,
        "name": "République",
        "code": 1315
      },
      "arrival": 86400,
      "departure": 86400
    },
    {
      "stop": {
        "id": "2_1534",
        "lat": 48.088549,
        "lon": -1.67439,
        "name": "Henri Fréville",
        "code": 1534
      },
      "arrival": 86880,
      "departure": 86880
    },
    {
      "stop": {
        "id": "2_1449",
        "lat": 48.086865,
        "lon": -1.683079,
        "name": "Norvège",
        "code": 1449
      },
      "arrival": 87060,
      "departure": 87060
    },
    {
      "stop": {
        "id": "2_1450",
        "lat": 48.08669,
        "lon": -1.688453,
        "name": "Coubertin",
        "code": 1450
      },
      "arrival": 87120,
      "departure": 87120
    },
    {
      "stop": {
        "id": "2_1270",
        "lat": 48.085811,
        "lon": -1.694039,
        "name": "Félix Eboué",
        "code": 1270
      },
      "arrival": 87180,
      "departure": 87180
    },
    {
      "stop": {
        "id": "2_2262",
        "lat": 48.068729,
        "lon": -1.697896,
        "name": "Vallon",
        "code": 2262
      },
      "arrival": 87360,
      "departure": 87360
    },
    {
      "stop": {
        "id": "2_2704",
        "lat": 48.059279,
        "lon": -1.7013,
        "name": "Janais",
        "code": 2704
      },
      "arrival": 87420,
      "departure": 87420
    },
    {
      "stop": {
        "id": "2_2907",
        "lat": 48.045659,
        "lon": -1.710498,
        "name": "Croix aux Potiers",
        "code": 2907
      },
      "arrival": 87600,
      "departure": 87600
    },
    {
      "stop": {
        "id": "2_2918",
        "lat": 48.041976,
        "lon": -1.711045,
        "name": "Callouët",
        "code": 2918
      },
      "arrival": 87660,
      "departure": 87660
    },
    {
      "stop": {
        "id": "2_2919",
        "lat": 48.042323,
        "lon": -1.707466,
        "name": "Chartres Centre",
        "code": 2919
      },
      "arrival": 87720,
      "departure": 87720
    },
    {
      "stop": {
        "id": "2_2920",
        "lat": 48.041536,
        "lon": -1.702871,
        "name": "Auditoire",
        "code": 2920
      },
      "arrival": 87780,
      "departure": 87780
    },
    {
      "stop": {
        "id": "2_2921",
        "lat": 48.041222,
        "lon": -1.69777,
        "name": "Collège Pôle Sud",
        "code": 2921
      },
      "arrival": 87840,
      "departure": 87840
    },
    {
      "stop": {
        "id": "2_2922",
        "lat": 48.037057,
        "lon": -1.697209,
        "name": "Vieux Bourg",
        "code": 2922
      },
      "arrival": 87960,
      "departure": 87960
    },
    {
      "stop": {
        "id": "2_2923",
        "lat": 48.034735,
        "lon": -1.699894,
        "name": "Cornouaille",
        "code": 2923
      },
      "arrival": 88020,
      "departure": 88020
    },
    {
      "stop": {
        "id": "2_2924",
        "lat": 48.035534,
        "lon": -1.706095,
        "name": "Argoat",
        "code": 2924
      },
      "arrival": 88080,
      "departure": 88080
    },
    {
      "stop": {
        "id": "2_2927",
        "lat": 48.033169,
        "lon": -1.707484,
        "name": "Parc de Loisirs",
        "code": 2927
      },
      "arrival": 88140,
      "departure": 88140
    },
    {
      "stop": {
        "id": "2_2930",
        "lat": 48.031247,
        "lon": -1.709248,
        "name": "Constant Mérel",
        "code": 2930
      },
      "arrival": 88200,
      "departure": 88200
    },
    {
      "stop": {
        "id": "2_3909",
        "lat": 48.01986,
        "lon": -1.707123,
        "name": "Renaissance",
        "code": 3909
      },
      "arrival": 88380,
      "departure": 88380
    },
    {
      "stop": {
        "id": "2_3910",
        "lat": 48.016959,
        "lon": -1.705245,
        "name": "Fontaine Blanche",
        "code": 3910
      },
      "arrival": 88440,
      "departure": 88440
    },
    {
      "stop": {
        "id": "2_3911",
        "lat": 48.01369,
        "lon": -1.707704,
        "name": "Rivaudière",
        "code": 3911
      },
      "arrival": 88440,
      "departure": 88440
    },
    {
      "stop": {
        "id": "2_3912",
        "lat": 48.010772,
        "lon": -1.706394,
        "name": "Pont Péan Mairie",
        "code": 3912
      },
      "arrival": 88500,
      "departure": 88500
    },
    {
      "stop": {
        "id": "2_3904",
        "lat": 48.012935,
        "lon": -1.702976,
        "name": "Chemin Vert",
        "code": 3904
      },
      "arrival": 88560,
      "departure": 88560
    },
    {
      "stop": {
        "id": "2_3914",
        "lat": 48.010354,
        "lon": -1.701141,
        "name": "Mouton Blanc",
        "code": 3914
      },
      "arrival": 88620,
      "departure": 88620
    },
    {
      "stop": {
        "id": "2_3915",
        "lat": 48.00551,
        "lon": -1.698233,
        "name": "Caliorne",
        "code": 3915
      },
      "arrival": 88680,
      "departure": 88680
    },
    {
      "stop": {
        "id": "2_3901",
        "lat": 47.999909,
        "lon": -1.696968,
        "name": "Bois Esnault",
        "code": 3901
      },
      "arrival": 88740,
      "departure": 88740
    },
    {
      "stop": {
        "id": "2_4701",
        "lat": 47.978606,
        "lon": -1.712988,
        "name": "Point du Jour",
        "code": 4701
      },
      "arrival": 89100,
      "departure": 89100
    },
    {
      "stop": {
        "id": "2_4703",
        "lat": 47.975507,
        "lon": -1.717175,
        "name": "Orée du Bois",
        "code": 4703
      },
      "arrival": 89160,
      "departure": 89160
    },
    {
      "stop": {
        "id": "2_4705",
        "lat": 47.977983,
        "lon": -1.719683,
        "name": "Laillé Eglise",
        "code": 4705
      },
      "arrival": 89220,
      "departure": 89220
    },
    {
      "stop": {
        "id": "2_4707",
        "lat": 47.979287,
        "lon": -1.724331,
        "name": "Châtaigneraie",
        "code": 4707
      },
      "arrival": 89280,
      "departure": 89280
    },
    {
      "stop": {
        "id": "2_4708",
        "lat": 47.980092,
        "lon": -1.730909,
        "name": "Gingouillère",
        "code": 4708
      },
      "arrival": 89340,
      "departure": 89340
    }
  ],
  "route": {
    "id": "2_0072",
    "textColor": "FFFFFF",
    "color": "004293",
    "description": "Métropolitaine",
    "longName": "Rennes (Henri Fréville) \u003c\u003e Chartres-de-Bretagne / Pont-Péan / Laillé",
    "shortName": "72",
    "type": 3,
    "agencyId": "2"
  }
}