{
  "headsign": "228 | Rennes Lycée Mendès-France",
  "stopTimes": [
    {
      "stop": {
        "id": "2_4069",
        "lat": 48.18315711,
        "lon": -1.72604447,
        "name": "Besneraie",
        "code": 4069
      },
      "arrival": 27660,
      "departure": 27660
    },
    {
      "stop": {
        "id": "2_4053",
        "lat": 48.17949446,
        "lon": -1.72926703,
        "name": "Métairie",
        "code": 4053
      },
      "arrival": 27780,
      "departure": 27780
    },
    {
      "stop": {
        "id": "2_4054",
        "lat": 48.17710926,
        "lon": -1.73209913,
        "name": "Mairie",
        "code": 4054
      },
      "arrival": 27960,
      "departure": 27960
    },
    {
      "stop": {
        "id": "2_4055",
        "lat": 48.17409345,
        "lon": -1.73514392,
        "name": "Viennais",
        "code": 4055
      },
      "arrival": 28020,
      "departure": 28020
    },
    {
      "stop": {
        "id": "2_4056",
        "lat": 48.17016448,
        "lon": -1.73615498,
        "name": "Sénestrais",
        "code": 4056
      },
      "arrival": 28080,
      "departure": 28080
    },
    {
      "stop": {
        "id": "2_3500",
        "lat": 48.16399131,
        "lon": -1.73170413,
        "name": "Silandière",
        "code": 3500
      },
      "arrival": 28140,
      "departure": 28140
    },
    {
      "stop": {
        "id": "2_3514",
        "lat": 48.15717858,
        "lon": -1.7233011,
        "name": "Fougerolle",
        "code": 3514
      },
      "arrival": 28260,
      "departure": 28260
    },
    {
      "stop": {
        "id": "2_3502",
        "lat": 48.15565719,
        "lon": -1.72061072,
        "name": "Pierre Texier",
        "code": 3502
      },
      "arrival": 28320,
      "departure": 28320
    },
    {
      "stop": {
        "id": "2_3503",
        "lat": 48.15574059,
        "lon": -1.71658864,
        "name": "Montgermont Mairie",
        "code": 3503
      },
      "arrival": 28440,
      "departure": 28440
    },
    {
      "stop": {
        "id": "2_3504",
        "lat": 48.15726126,
        "lon": -1.71446656,
        "name": "Courtines",
        "code": 3504
      },
      "arrival": 28500,
      "departure": 28500
    },
    {
      "stop": {
        "id": "2_3505",
        "lat": 48.15531129,
        "lon": -1.7108321,
        "name": "Belle Epine",
        "code": 3505
      },
      "arrival": 28560,
      "departure": 28560
    },
    {
      "stop": {
        "id": "2_3506",
        "lat": 48.15311386,
        "lon": -1.706642,
        "name": "Décoparc",
        "code": 3506
      },
      "arrival": 28680,
      "departure": 28680
    },
    {
      "stop": {
        "id": "2_1578",
        "lat": 48.13335043,
        "lon": -1.6838999,
        "name": "Lycée Mendès France",
        "code": 1578
      },
      "arrival": 29100,
      "departure": 29100
    }
  ],
  "route": {
    "id": "2_0228",
    "textColor": "1A171B",
    "color": "71BF44",
    "description": "Complémentaire",
    "longName": "La Chapelle-des-Fougeretz (Besneraie) \u003c\u003e Rennes (Lycée Mendès-France)",
    "shortName": "228",
    "type": 3,
    "agencyId": "2"
  }
}