{
  "headsign": "216 | Cesson-Sévigné Base de Loisirs",
  "stopTimes": [
    {
      "stop": {
        "id": "2_1429",
        "lat": 48.1276684,
        "lon": -1.65098708,
        "name": "Joliot-Curie",
        "code": 1429
      },
      "arrival": 61200,
      "departure": 61200
    },
    {
      "stop": {
        "id": "2_1033",
        "lat": 48.12132369,
        "lon": -1.65499372,
        "name": "Assomption",
        "code": 1033
      },
      "arrival": 61380,
      "departure": 61380
    },
    {
      "stop": {
        "id": "2_1111",
        "lat": 48.12024278,
        "lon": -1.65071004,
        "name": "Docteur Quentin",
        "code": 1111
      },
      "arrival": 61500,
      "departure": 61500
    },
    {
      "stop": {
        "id": "2_1314",
        "lat": 48.1250923,
        "lon": -1.63309609,
        "name": "IUT",
        "code": 1314
      },
      "arrival": 61800,
      "departure": 61800
    },
    {
      "stop": {
        "id": "2_2048",
        "lat": 48.12448542,
        "lon": -1.61761618,
        "name": "Cormier",
        "code": 2048
      },
      "arrival": 62100,
      "departure": 62100
    },
    {
      "stop": {
        "id": "2_2042",
        "lat": 48.1246853,
        "lon": -1.61314833,
        "name": "Les Lacs",
        "code": 2042
      },
      "arrival": 62160,
      "departure": 62160
    },
    {
      "stop": {
        "id": "2_2075",
        "lat": 48.12338128,
        "lon": -1.61123041,
        "name": "Mare Pavée",
        "code": 2075
      },
      "arrival": 62220,
      "departure": 62220
    },
    {
      "stop": {
        "id": "2_2027",
        "lat": 48.12349148,
        "lon": -1.60818399,
        "name": "Fontenelle",
        "code": 2027
      },
      "arrival": 62280,
      "departure": 62280
    },
    {
      "stop": {
        "id": "2_2028",
        "lat": 48.12353418,
        "lon": -1.60409505,
        "name": "La Coulée",
        "code": 2028
      },
      "arrival": 62340,
      "departure": 62340
    },
    {
      "stop": {
        "id": "2_2029",
        "lat": 48.12314683,
        "lon": -1.60062832,
        "name": "Bourgchevreuil",
        "code": 2029
      },
      "arrival": 62400,
      "departure": 62400
    },
    {
      "stop": {
        "id": "2_2030",
        "lat": 48.12481844,
        "lon": -1.5968293,
        "name": "Petits Champs",
        "code": 2030
      },
      "arrival": 62460,
      "departure": 62460
    },
    {
      "stop": {
        "id": "2_2031",
        "lat": 48.1239136,
        "lon": -1.59345217,
        "name": "Grand Domaine",
        "code": 2031
      },
      "arrival": 62520,
      "departure": 62520
    },
    {
      "stop": {
        "id": "2_2088",
        "lat": 48.12464409,
        "lon": -1.59098871,
        "name": "Base de Loisirs",
        "code": 2088
      },
      "arrival": 62580,
      "departure": 62580
    }
  ],
  "route": {
    "id": "2_0216",
    "textColor": "1A171B",
    "color": "F29FC5",
    "description": "Complémentaire",
    "longName": "Cesson-Sévigné (Base de Loisirs) \u003c\u003e Rennes (Lycée Assomption)",
    "shortName": "216",
    "type": 3,
    "agencyId": "2"
  }
}