{
  "headsign": "72 | Rennes Henri Fréville",
  "stopTimes": [
    {
      "stop": {
        "id": "2_4708",
        "lat": 47.980092,
        "lon": -1.730909,
        "name": "Gingouillère",
        "code": 4708
      },
      "arrival": 67140,
      "departure": 67140
    },
    {
      "stop": {
        "id": "2_4706",
        "lat": 47.97919,
        "lon": -1.724314,
        "name": "Châtaigneraie",
        "code": 4706
      },
      "arrival": 67200,
      "departure": 67200
    },
    {
      "stop": {
        "id": "2_4704",
        "lat": 47.978117,
        "lon": -1.72041,
        "name": "Laillé Eglise",
        "code": 4704
      },
      "arrival": 67260,
      "departure": 67260
    },
    {
      "stop": {
        "id": "2_4702",
        "lat": 47.975433,
        "lon": -1.717111,
        "name": "Orée du Bois",
        "code": 4702
      },
      "arrival": 67320,
      "departure": 67320
    },
    {
      "stop": {
        "id": "2_4700",
        "lat": 47.978438,
        "lon": -1.713688,
        "name": "Point du Jour",
        "code": 4700
      },
      "arrival": 67440,
      "departure": 67440
    },
    {
      "stop": {
        "id": "2_3924",
        "lat": 48.000008,
        "lon": -1.696769,
        "name": "Bois Esnault",
        "code": 3924
      },
      "arrival": 67800,
      "departure": 67800
    },
    {
      "stop": {
        "id": "2_3902",
        "lat": 48.006505,
        "lon": -1.69847,
        "name": "Caliorne",
        "code": 3902
      },
      "arrival": 67920,
      "departure": 67920
    },
    {
      "stop": {
        "id": "2_3903",
        "lat": 48.010649,
        "lon": -1.700885,
        "name": "Mouton Blanc",
        "code": 3903
      },
      "arrival": 67980,
      "departure": 67980
    },
    {
      "stop": {
        "id": "2_3913",
        "lat": 48.013,
        "lon": -1.703093,
        "name": "Chemin Vert",
        "code": 3913
      },
      "arrival": 68040,
      "departure": 68040
    },
    {
      "stop": {
        "id": "2_3905",
        "lat": 48.010604,
        "lon": -1.707005,
        "name": "Pont Péan Mairie",
        "code": 3905
      },
      "arrival": 68100,
      "departure": 68100
    },
    {
      "stop": {
        "id": "2_3906",
        "lat": 48.013631,
        "lon": -1.707588,
        "name": "Rivaudière",
        "code": 3906
      },
      "arrival": 68160,
      "departure": 68160
    },
    {
      "stop": {
        "id": "2_3907",
        "lat": 48.016278,
        "lon": -1.705639,
        "name": "Fontaine Blanche",
        "code": 3907
      },
      "arrival": 68160,
      "departure": 68160
    },
    {
      "stop": {
        "id": "2_3908",
        "lat": 48.019925,
        "lon": -1.706935,
        "name": "Renaissance",
        "code": 3908
      },
      "arrival": 68220,
      "departure": 68220
    },
    {
      "stop": {
        "id": "2_2928",
        "lat": 48.031429,
        "lon": -1.708755,
        "name": "Constant Mérel",
        "code": 2928
      },
      "arrival": 68400,
      "departure": 68400
    },
    {
      "stop": {
        "id": "2_2911",
        "lat": 48.033268,
        "lon": -1.707228,
        "name": "Parc de Loisirs",
        "code": 2911
      },
      "arrival": 68460,
      "departure": 68460
    },
    {
      "stop": {
        "id": "2_2912",
        "lat": 48.035455,
        "lon": -1.70627,
        "name": "Argoat",
        "code": 2912
      },
      "arrival": 68520,
      "departure": 68520
    },
    {
      "stop": {
        "id": "2_2913",
        "lat": 48.034611,
        "lon": -1.69941,
        "name": "Cornouaille",
        "code": 2913
      },
      "arrival": 68580,
      "departure": 68580
    },
    {
      "stop": {
        "id": "2_2914",
        "lat": 48.036918,
        "lon": -1.697008,
        "name": "Vieux Bourg",
        "code": 2914
      },
      "arrival": 68640,
      "departure": 68640
    },
    {
      "stop": {
        "id": "2_2915",
        "lat": 48.041376,
        "lon": -1.698416,
        "name": "Collège Pôle Sud",
        "code": 2915
      },
      "arrival": 68760,
      "departure": 68760
    },
    {
      "stop": {
        "id": "2_2916",
        "lat": 48.04169,
        "lon": -1.702632,
        "name": "Auditoire",
        "code": 2916
      },
      "arrival": 68820,
      "departure": 68820
    },
    {
      "stop": {
        "id": "2_2917",
        "lat": 48.042349,
        "lon": -1.706501,
        "name": "Chartres Centre",
        "code": 2917
      },
      "arrival": 68880,
      "departure": 68880
    },
    {
      "stop": {
        "id": "2_2905",
        "lat": 48.042325,
        "lon": -1.712032,
        "name": "Callouët",
        "code": 2905
      },
      "arrival": 68940,
      "departure": 68940
    },
    {
      "stop": {
        "id": "2_2906",
        "lat": 48.045906,
        "lon": -1.710086,
        "name": "Croix aux Potiers",
        "code": 2906
      },
      "arrival": 69000,
      "departure": 69000
    },
    {
      "stop": {
        "id": "2_2701",
        "lat": 48.059075,
        "lon": -1.700988,
        "name": "Janais",
        "code": 2701
      },
      "arrival": 69120,
      "departure": 69120
    },
    {
      "stop": {
        "id": "2_2702",
        "lat": 48.06843,
        "lon": -1.697574,
        "name": "Vallon",
        "code": 2702
      },
      "arrival": 69240,
      "departure": 69240
    },
    {
      "stop": {
        "id": "2_1267",
        "lat": 48.085707,
        "lon": -1.693903,
        "name": "Félix Eboué",
        "code": 1267
      },
      "arrival": 69420,
      "departure": 69420
    },
    {
      "stop": {
        "id": "2_1456",
        "lat": 48.086541,
        "lon": -1.687451,
        "name": "Coubertin",
        "code": 1456
      },
      "arrival": 69540,
      "departure": 69540
    },
    {
      "stop": {
        "id": "2_1457",
        "lat": 48.086765,
        "lon": -1.683887,
        "name": "Norvège",
        "code": 1457
      },
      "arrival": 69600,
      "departure": 69600
    },
    {
      "stop": {
        "id": "2_1534",
        "lat": 48.088549,
        "lon": -1.67439,
        "name": "Henri Fréville",
        "code": 1534
      },
      "arrival": 69720,
      "departure": 69720
    }
  ],
  "route": {
    "id": "2_0072",
    "textColor": "FFFFFF",
    "color": "004293",
    "description": "Métropolitaine",
    "longName": "Rennes (Henri Fréville) \u003c\u003e Chartres-de-Bretagne / Pont-Péan / Laillé",
    "shortName": "72",
    "type": 3,
    "agencyId": "2"
  }
}