{
  "headsign": "74 | Rennes Henri Fréville",
  "stopTimes": [
    {
      "stop": {
        "id": "2_3208",
        "lat": 47.993928,
        "lon": -1.665547,
        "name": "Chateaubriand",
        "code": 3208
      },
      "arrival": 59220,
      "departure": 59220
    },
    {
      "stop": {
        "id": "2_3209",
        "lat": 47.992472,
        "lon": -1.668757,
        "name": "Surcouf",
        "code": 3209
      },
      "arrival": 59340,
      "departure": 59340
    },
    {
      "stop": {
        "id": "2_3210",
        "lat": 47.995,
        "lon": -1.670694,
        "name": "Coteau",
        "code": 3210
      },
      "arrival": 59400,
      "departure": 59400
    },
    {
      "stop": {
        "id": "2_3211",
        "lat": 47.997273,
        "lon": -1.668431,
        "name": "Groupe Scolaire",
        "code": 3211
      },
      "arrival": 59460,
      "departure": 59460
    },
    {
      "stop": {
        "id": "2_3212",
        "lat": 48.000737,
        "lon": -1.666758,
        "name": "Levant",
        "code": 3212
      },
      "arrival": 59520,
      "departure": 59520
    },
    {
      "stop": {
        "id": "2_3213",
        "lat": 48.00908,
        "lon": -1.666351,
        "name": "Plardière",
        "code": 3213
      },
      "arrival": 59580,
      "departure": 59580
    },
    {
      "stop": {
        "id": "2_3250",
        "lat": 48.014928,
        "lon": -1.663838,
        "name": "Orgerblon",
        "code": 3250
      },
      "arrival": 59640,
      "departure": 59640
    },
    {
      "stop": {
        "id": "2_4356",
        "lat": 48.017076,
        "lon": -1.664587,
        "name": "Croix du Pigeonnet",
        "code": 4356
      },
      "arrival": 59640,
      "departure": 59640
    },
    {
      "stop": {
        "id": "2_1510",
        "lat": 48.087784,
        "lon": -1.674415,
        "name": "Henri Fréville",
        "code": 1510
      },
      "arrival": 60360,
      "departure": 60360
    }
  ],
  "route": {
    "id": "2_0074",
    "textColor": "1A171B",
    "color": "FCC000",
    "description": "Métropolitaine",
    "longName": "Rennes (Henri Fréville) \u003c\u003e Orgères / Bourgbarré",
    "shortName": "74",
    "type": 3,
    "agencyId": "2"
  }
}