{
  "headsign": "79 | Rennes Henri Fréville",
  "stopTimes": [
    {
      "stop": {
        "id": "2_4708",
        "lat": 47.980092,
        "lon": -1.730909,
        "name": "Gingouillère",
        "code": 4708
      },
      "arrival": 43200,
      "departure": 43200
    },
    {
      "stop": {
        "id": "2_4706",
        "lat": 47.97919,
        "lon": -1.724314,
        "name": "Châtaigneraie",
        "code": 4706
      },
      "arrival": 43260,
      "departure": 43260
    },
    {
      "stop": {
        "id": "2_4704",
        "lat": 47.978117,
        "lon": -1.72041,
        "name": "Laillé Eglise",
        "code": 4704
      },
      "arrival": 43320,
      "departure": 43320
    },
    {
      "stop": {
        "id": "2_4702",
        "lat": 47.975433,
        "lon": -1.717111,
        "name": "Orée du Bois",
        "code": 4702
      },
      "arrival": 43380,
      "departure": 43380
    },
    {
      "stop": {
        "id": "2_4700",
        "lat": 47.978438,
        "lon": -1.713688,
        "name": "Point du Jour",
        "code": 4700
      },
      "arrival": 43440,
      "departure": 43440
    },
    {
      "stop": {
        "id": "2_3903",
        "lat": 48.010649,
        "lon": -1.700885,
        "name": "Mouton Blanc",
        "code": 3903
      },
      "arrival": 43920,
      "departure": 43920
    },
    {
      "stop": {
        "id": "2_3913",
        "lat": 48.013,
        "lon": -1.703093,
        "name": "Chemin Vert",
        "code": 3913
      },
      "arrival": 43980,
      "departure": 43980
    },
    {
      "stop": {
        "id": "2_3905",
        "lat": 48.010604,
        "lon": -1.707005,
        "name": "Pont Péan Mairie",
        "code": 3905
      },
      "arrival": 44040,
      "departure": 44040
    },
    {
      "stop": {
        "id": "2_3906",
        "lat": 48.013631,
        "lon": -1.707588,
        "name": "Rivaudière",
        "code": 3906
      },
      "arrival": 44100,
      "departure": 44100
    },
    {
      "stop": {
        "id": "2_3907",
        "lat": 48.016278,
        "lon": -1.705639,
        "name": "Fontaine Blanche",
        "code": 3907
      },
      "arrival": 44160,
      "departure": 44160
    },
    {
      "stop": {
        "id": "2_1534",
        "lat": 48.088549,
        "lon": -1.67439,
        "name": "Henri Fréville",
        "code": 1534
      },
      "arrival": 44820,
      "departure": 44820
    }
  ],
  "route": {
    "id": "2_0079",
    "textColor": "26171B",
    "color": "62C3D5",
    "description": "Métropolitaine",
    "longName": "Rennes (Henri Fréville) \u003c\u003e Laillé",
    "shortName": "79",
    "type": 3,
    "agencyId": "2"
  }
}