{
  "headsign": "71 | Rennes Hoche",
  "stopTimes": [
    {
      "stop": {
        "id": "2_4604",
        "lat": 48.21008788,
        "lon": -1.62587418,
        "name": "Pommiers",
        "code": 4604
      },
      "arrival": 63600,
      "departure": 63600
    },
    {
      "stop": {
        "id": "2_4605",
        "lat": 48.21442422,
        "lon": -1.62878295,
        "name": "Fonderies",
        "code": 4605
      },
      "arrival": 63720,
      "departure": 63720
    },
    {
      "stop": {
        "id": "2_4606",
        "lat": 48.21193255,
        "lon": -1.63026334,
        "name": "Chevaigné Mairie",
        "code": 4606
      },
      "arrival": 63780,
      "departure": 63780
    },
    {
      "stop": {
        "id": "2_4607",
        "lat": 48.20764802,
        "lon": -1.63080398,
        "name": "Chevaigné Gare",
        "code": 4607
      },
      "arrival": 63840,
      "departure": 63840
    },
    {
      "stop": {
        "id": "2_4609",
        "lat": 48.19917578,
        "lon": -1.62757919,
        "name": "Chopinais",
        "code": 4609
      },
      "arrival": 64020,
      "departure": 64020
    },
    {
      "stop": {
        "id": "2_2451",
        "lat": 48.19085557,
        "lon": -1.62920813,
        "name": "Gentilhommière",
        "code": 2451
      },
      "arrival": 64140,
      "departure": 64140
    },
    {
      "stop": {
        "id": "2_2432",
        "lat": 48.18633047,
        "lon": -1.63325395,
        "name": "J. Sébastien Bach",
        "code": 2432
      },
      "arrival": 64200,
      "departure": 64200
    },
    {
      "stop": {
        "id": "2_2431",
        "lat": 48.18305974,
        "lon": -1.63721735,
        "name": "Mozart",
        "code": 2431
      },
      "arrival": 64320,
      "departure": 64320
    },
    {
      "stop": {
        "id": "2_2406",
        "lat": 48.18119826,
        "lon": -1.6380241,
        "name": "Betton Centre",
        "code": 2406
      },
      "arrival": 64320,
      "departure": 64320
    },
    {
      "stop": {
        "id": "2_2430",
        "lat": 48.17604548,
        "lon": -1.6395521,
        "name": "Betton Rue de Rennes",
        "code": 2430
      },
      "arrival": 64440,
      "departure": 64440
    },
    {
      "stop": {
        "id": "2_2410",
        "lat": 48.17135339,
        "lon": -1.64196927,
        "name": "Enseigne Abbaye",
        "code": 2410
      },
      "arrival": 64500,
      "departure": 64500
    },
    {
      "stop": {
        "id": "2_2411",
        "lat": 48.16179617,
        "lon": -1.64775716,
        "name": "Betton Vallée",
        "code": 2411
      },
      "arrival": 64560,
      "departure": 64560
    },
    {
      "stop": {
        "id": "2_2827",
        "lat": 48.14906521,
        "lon": -1.65652284,
        "name": "Maison Blanche",
        "code": 2827
      },
      "arrival": 64680,
      "departure": 64680
    },
    {
      "stop": {
        "id": "2_1485",
        "lat": 48.13797172,
        "lon": -1.65873598,
        "name": "Saint-Laurent",
        "code": 1485
      },
      "arrival": 64800,
      "departure": 64800
    },
    {
      "stop": {
        "id": "2_1486",
        "lat": 48.13482757,
        "lon": -1.65983208,
        "name": "Hôtel de Région",
        "code": 1486
      },
      "arrival": 64860,
      "departure": 64860
    },
    {
      "stop": {
        "id": "2_1261",
        "lat": 48.12528168,
        "lon": -1.66666402,
        "name": "Volney",
        "code": 1261
      },
      "arrival": 65100,
      "departure": 65100
    },
    {
      "stop": {
        "id": "2_1011",
        "lat": 48.11830509,
        "lon": -1.67120349,
        "name": "Fac de Droit",
        "code": 1011
      },
      "arrival": 65520,
      "departure": 65520
    },
    {
      "stop": {
        "id": "2_1606",
        "lat": 48.11563108,
        "lon": -1.67670645,
        "name": "Hoche",
        "code": 1606
      },
      "arrival": 65640,
      "departure": 65640
    }
  ],
  "route": {
    "id": "2_0071",
    "textColor": "FFFFFF",
    "color": "A9701E",
    "description": "Métropolitaine",
    "longName": "Rennes (Hoche) \u003c\u003e Betton / Chevaigné",
    "shortName": "71",
    "type": 3,
    "agencyId": "2"
  }
}