{
  "headsign": "74 | Rennes Henri Fréville",
  "stopTimes": [
    {
      "stop": {
        "id": "2_3801",
        "lat": 47.99009528,
        "lon": -1.6138293,
        "name": "Centre de Loisirs",
        "code": 3801
      },
      "arrival": 25200,
      "departure": 25200
    },
    {
      "stop": {
        "id": "2_3802",
        "lat": 47.99488016,
        "lon": -1.61426966,
        "name": "Bourgbarré Mairie",
        "code": 3802
      },
      "arrival": 25320,
      "departure": 25320
    },
    {
      "stop": {
        "id": "2_3803",
        "lat": 47.99607325,
        "lon": -1.61723784,
        "name": "La Motte",
        "code": 3803
      },
      "arrival": 25380,
      "departure": 25380
    },
    {
      "stop": {
        "id": "2_3804",
        "lat": 47.99514007,
        "lon": -1.62423419,
        "name": "La Basse Erable",
        "code": 3804
      },
      "arrival": 25440,
      "departure": 25440
    },
    {
      "stop": {
        "id": "2_3805",
        "lat": 47.99450137,
        "lon": -1.63152471,
        "name": "Perelle",
        "code": 3805
      },
      "arrival": 25500,
      "departure": 25500
    },
    {
      "stop": {
        "id": "2_3208",
        "lat": 47.99395077,
        "lon": -1.66549531,
        "name": "Chateaubriand",
        "code": 3208
      },
      "arrival": 25800,
      "departure": 25800
    },
    {
      "stop": {
        "id": "2_3209",
        "lat": 47.99249678,
        "lon": -1.66873811,
        "name": "Surcouf",
        "code": 3209
      },
      "arrival": 25920,
      "departure": 25920
    },
    {
      "stop": {
        "id": "2_3210",
        "lat": 47.99502137,
        "lon": -1.67075631,
        "name": "Coteau",
        "code": 3210
      },
      "arrival": 25980,
      "departure": 25980
    },
    {
      "stop": {
        "id": "2_3211",
        "lat": 47.99730201,
        "lon": -1.66850378,
        "name": "Groupe Scolaire",
        "code": 3211
      },
      "arrival": 26040,
      "departure": 26040
    },
    {
      "stop": {
        "id": "2_3212",
        "lat": 48.00074048,
        "lon": -1.66681908,
        "name": "Levant",
        "code": 3212
      },
      "arrival": 26100,
      "departure": 26100
    },
    {
      "stop": {
        "id": "2_3213",
        "lat": 48.00909705,
        "lon": -1.66635235,
        "name": "Plardière",
        "code": 3213
      },
      "arrival": 26220,
      "departure": 26220
    },
    {
      "stop": {
        "id": "2_3250",
        "lat": 48.01492514,
        "lon": -1.66387719,
        "name": "Orgerblon",
        "code": 3250
      },
      "arrival": 26280,
      "departure": 26280
    },
    {
      "stop": {
        "id": "2_4356",
        "lat": 48.01707559,
        "lon": -1.66458634,
        "name": "Croix du Pigeonnet",
        "code": 4356
      },
      "arrival": 26280,
      "departure": 26280
    },
    {
      "stop": {
        "id": "2_1510",
        "lat": 48.08777948,
        "lon": -1.67446532,
        "name": "Henri Fréville",
        "code": 1510
      },
      "arrival": 26940,
      "departure": 26940
    }
  ],
  "route": {
    "id": "2_0074",
    "textColor": "1A171B",
    "color": "FCC000",
    "description": "Métropolitaine",
    "longName": "Rennes (Henri Fréville) \u003c\u003e Orgères / Bourgbarré",
    "shortName": "74",
    "type": 3,
    "agencyId": "2"
  }
}