{
  "headsign": "59 | Vern-sur-Seiche",
  "stopTimes": [
    {
      "stop": {
        "id": "2_2372",
        "lat": 48.029045,
        "lon": -1.752705,
        "name": "Bruz Gare",
        "code": 2372
      },
      "arrival": 21900,
      "departure": 21900
    },
    {
      "stop": {
        "id": "2_2374",
        "lat": 48.024146,
        "lon": -1.752978,
        "name": "Châteliers",
        "code": 2374
      },
      "arrival": 22020,
      "departure": 22020
    },
    {
      "stop": {
        "id": "2_2331",
        "lat": 48.021416,
        "lon": -1.752313,
        "name": "Noë",
        "code": 2331
      },
      "arrival": 22080,
      "departure": 22080
    },
    {
      "stop": {
        "id": "2_2332",
        "lat": 48.019493,
        "lon": -1.744988,
        "name": "Epalet",
        "code": 2332
      },
      "arrival": 22140,
      "departure": 22140
    },
    {
      "stop": {
        "id": "2_2353",
        "lat": 48.023379,
        "lon": -1.742999,
        "name": "Bruz Centre",
        "code": 2353
      },
      "arrival": 22320,
      "departure": 22320
    },
    {
      "stop": {
        "id": "2_2334",
        "lat": 48.023814,
        "lon": -1.736056,
        "name": "Pasteur",
        "code": 2334
      },
      "arrival": 22380,
      "departure": 22380
    },
    {
      "stop": {
        "id": "2_2335",
        "lat": 48.02629,
        "lon": -1.734494,
        "name": "Bobinais",
        "code": 2335
      },
      "arrival": 22440,
      "departure": 22440
    },
    {
      "stop": {
        "id": "2_2336",
        "lat": 48.030226,
        "lon": -1.734384,
        "name": "Champ Niguel",
        "code": 2336
      },
      "arrival": 22500,
      "departure": 22500
    },
    {
      "stop": {
        "id": "2_2337",
        "lat": 48.032956,
        "lon": -1.733031,
        "name": "Lavoisier",
        "code": 2337
      },
      "arrival": 22500,
      "departure": 22500
    },
    {
      "stop": {
        "id": "2_2359",
        "lat": 48.035782,
        "lon": -1.723214,
        "name": "Doublé",
        "code": 2359
      },
      "arrival": 22560,
      "departure": 22560
    },
    {
      "stop": {
        "id": "2_2901",
        "lat": 48.046733,
        "lon": -1.710633,
        "name": "Croix aux Potiers",
        "code": 2901
      },
      "arrival": 22740,
      "departure": 22740
    },
    {
      "stop": {
        "id": "2_2701",
        "lat": 48.059075,
        "lon": -1.700988,
        "name": "Janais",
        "code": 2701
      },
      "arrival": 22920,
      "departure": 22920
    },
    {
      "stop": {
        "id": "2_2702",
        "lat": 48.06843,
        "lon": -1.697574,
        "name": "Vallon",
        "code": 2702
      },
      "arrival": 22980,
      "departure": 22980
    },
    {
      "stop": {
        "id": "2_1267",
        "lat": 48.085707,
        "lon": -1.693903,
        "name": "Félix Eboué",
        "code": 1267
      },
      "arrival": 23220,
      "departure": 23220
    },
    {
      "stop": {
        "id": "2_1456",
        "lat": 48.086541,
        "lon": -1.687451,
        "name": "Coubertin",
        "code": 1456
      },
      "arrival": 23340,
      "departure": 23340
    },
    {
      "stop": {
        "id": "2_1457",
        "lat": 48.086765,
        "lon": -1.683887,
        "name": "Norvège",
        "code": 1457
      },
      "arrival": 23400,
      "departure": 23400
    },
    {
      "stop": {
        "id": "2_1647",
        "lat": 48.087443,
        "lon": -1.674436,
        "name": "Henri Fréville",
        "code": 1647
      },
      "arrival": 23580,
      "departure": 23580
    },
    {
      "stop": {
        "id": "2_1350",
        "lat": 48.083546,
        "lon": -1.672175,
        "name": "Portugal",
        "code": 1350
      },
      "arrival": 23760,
      "departure": 23760
    },
    {
      "stop": {
        "id": "2_1351",
        "lat": 48.083459,
        "lon": -1.667367,
        "name": "Douro",
        "code": 1351
      },
      "arrival": 23820,
      "departure": 23820
    },
    {
      "stop": {
        "id": "2_1352",
        "lat": 48.083386,
        "lon": -1.66316,
        "name": "Tage",
        "code": 1352
      },
      "arrival": 23820,
      "departure": 23820
    },
    {
      "stop": {
        "id": "2_1353",
        "lat": 48.084535,
        "lon": -1.657962,
        "name": "Torigné",
        "code": 1353
      },
      "arrival": 23940,
      "departure": 23940
    },
    {
      "stop": {
        "id": "2_1354",
        "lat": 48.084457,
        "lon": -1.653185,
        "name": "Hôpital Sud",
        "code": 1354
      },
      "arrival": 24000,
      "departure": 24000
    },
    {
      "stop": {
        "id": "2_1355",
        "lat": 48.085001,
        "lon": -1.650812,
        "name": "Sainte-Elisabeth",
        "code": 1355
      },
      "arrival": 24000,
      "departure": 24000
    },
    {
      "stop": {
        "id": "2_1356",
        "lat": 48.087458,
        "lon": -1.649853,
        "name": "Galicie",
        "code": 1356
      },
      "arrival": 24060,
      "departure": 24060
    },
    {
      "stop": {
        "id": "2_1533",
        "lat": 48.087637,
        "lon": -1.643479,
        "name": "La Poterie",
        "code": 1533
      },
      "arrival": 24180,
      "departure": 24180
    },
    {
      "stop": {
        "id": "2_3025",
        "lat": 48.076742,
        "lon": -1.631836,
        "name": "Martinière",
        "code": 3025
      },
      "arrival": 24360,
      "departure": 24360
    },
    {
      "stop": {
        "id": "2_2612",
        "lat": 48.072287,
        "lon": -1.628754,
        "name": "Hallerais",
        "code": 2612
      },
      "arrival": 24420,
      "departure": 24420
    },
    {
      "stop": {
        "id": "2_2613",
        "lat": 48.067551,
        "lon": -1.625667,
        "name": "Garenne",
        "code": 2613
      },
      "arrival": 24480,
      "departure": 24480
    },
    {
      "stop": {
        "id": "2_2614",
        "lat": 48.06396,
        "lon": -1.622917,
        "name": "Val d\u0027Orson",
        "code": 2614
      },
      "arrival": 24540,
      "departure": 24540
    },
    {
      "stop": {
        "id": "2_2615",
        "lat": 48.059028,
        "lon": -1.616719,
        "name": "Bretonnière",
        "code": 2615
      },
      "arrival": 24660,
      "departure": 24660
    },
    {
      "stop": {
        "id": "2_2616",
        "lat": 48.052587,
        "lon": -1.614072,
        "name": "Haute Abbaye",
        "code": 2616
      },
      "arrival": 24780,
      "departure": 24780
    },
    {
      "stop": {
        "id": "2_2637",
        "lat": 48.049663,
        "lon": -1.61536,
        "name": "Solidor",
        "code": 2637
      },
      "arrival": 24840,
      "departure": 24840
    },
    {
      "stop": {
        "id": "2_2605",
        "lat": 48.049414,
        "lon": -1.609809,
        "name": "Fosse Gauchère",
        "code": 2605
      },
      "arrival": 24900,
      "departure": 24900
    },
    {
      "stop": {
        "id": "2_2618",
        "lat": 48.049113,
        "lon": -1.606026,
        "name": "Croix Rouge",
        "code": 2618
      },
      "arrival": 24960,
      "departure": 24960
    },
    {
      "stop": {
        "id": "2_2634",
        "lat": 48.047102,
        "lon": -1.602707,
        "name": "Vern Eglise",
        "code": 2634
      },
      "arrival": 25020,
      "departure": 25020
    },
    {
      "stop": {
        "id": "2_2620",
        "lat": 48.043558,
        "lon": -1.601784,
        "name": "Bel Air",
        "code": 2620
      },
      "arrival": 25080,
      "departure": 25080
    },
    {
      "stop": {
        "id": "2_2621",
        "lat": 48.040905,
        "lon": -1.602366,
        "name": "Vern La Touche",
        "code": 2621
      },
      "arrival": 25140,
      "departure": 25140
    },
    {
      "stop": {
        "id": "2_2601",
        "lat": 48.038508,
        "lon": -1.602504,
        "name": "Croix Malinge",
        "code": 2601
      },
      "arrival": 25200,
      "departure": 25200
    }
  ],
  "route": {
    "id": "2_0059",
    "textColor": "1A171B",
    "color": "F19FC1",
    "description": "Métropolitaine",
    "longName": "Vern-sur-Seiche \u003c\u003e Rennes (La Poterie) / Rennes (Henri Fréville) \u003c\u003e Bruz (Gare)",
    "shortName": "59",
    "type": 3,
    "agencyId": "2"
  }
}