{
  "headsign": "61 | Rennes Henri Fréville",
  "stopTimes": [
    {
      "stop": {
        "id": "2_3801",
        "lat": 47.990142,
        "lon": -1.613855,
        "name": "Centre de Loisirs",
        "code": 3801
      },
      "arrival": 64800,
      "departure": 64800
    },
    {
      "stop": {
        "id": "2_3802",
        "lat": 47.994926,
        "lon": -1.614233,
        "name": "Bourgbarré Mairie",
        "code": 3802
      },
      "arrival": 64920,
      "departure": 64920
    },
    {
      "stop": {
        "id": "2_3803",
        "lat": 47.996101,
        "lon": -1.617264,
        "name": "La Motte",
        "code": 3803
      },
      "arrival": 64980,
      "departure": 64980
    },
    {
      "stop": {
        "id": "2_3804",
        "lat": 47.995183,
        "lon": -1.624234,
        "name": "La Basse Erable",
        "code": 3804
      },
      "arrival": 65040,
      "departure": 65040
    },
    {
      "stop": {
        "id": "2_3805",
        "lat": 47.994576,
        "lon": -1.631502,
        "name": "Perelle",
        "code": 3805
      },
      "arrival": 65100,
      "departure": 65100
    },
    {
      "stop": {
        "id": "2_3208",
        "lat": 47.993928,
        "lon": -1.665547,
        "name": "Chateaubriand",
        "code": 3208
      },
      "arrival": 65400,
      "departure": 65400
    },
    {
      "stop": {
        "id": "2_3209",
        "lat": 47.992472,
        "lon": -1.668757,
        "name": "Surcouf",
        "code": 3209
      },
      "arrival": 65520,
      "departure": 65520
    },
    {
      "stop": {
        "id": "2_3210",
        "lat": 47.995,
        "lon": -1.670694,
        "name": "Coteau",
        "code": 3210
      },
      "arrival": 65580,
      "departure": 65580
    },
    {
      "stop": {
        "id": "2_3211",
        "lat": 47.997273,
        "lon": -1.668431,
        "name": "Groupe Scolaire",
        "code": 3211
      },
      "arrival": 65640,
      "departure": 65640
    },
    {
      "stop": {
        "id": "2_3212",
        "lat": 48.000737,
        "lon": -1.666758,
        "name": "Levant",
        "code": 3212
      },
      "arrival": 65700,
      "departure": 65700
    },
    {
      "stop": {
        "id": "2_3213",
        "lat": 48.00908,
        "lon": -1.666351,
        "name": "Plardière",
        "code": 3213
      },
      "arrival": 65820,
      "departure": 65820
    },
    {
      "stop": {
        "id": "2_3250",
        "lat": 48.014928,
        "lon": -1.663838,
        "name": "Orgerblon",
        "code": 3250
      },
      "arrival": 65880,
      "departure": 65880
    },
    {
      "stop": {
        "id": "2_4356",
        "lat": 48.017076,
        "lon": -1.664587,
        "name": "Croix du Pigeonnet",
        "code": 4356
      },
      "arrival": 65940,
      "departure": 65940
    },
    {
      "stop": {
        "id": "2_4351",
        "lat": 48.01727,
        "lon": -1.660332,
        "name": "Parc d\u0027Activités",
        "code": 4351
      },
      "arrival": 66000,
      "departure": 66000
    },
    {
      "stop": {
        "id": "2_4352",
        "lat": 48.018873,
        "lon": -1.657716,
        "name": "Champ Mulon",
        "code": 4352
      },
      "arrival": 66060,
      "departure": 66060
    },
    {
      "stop": {
        "id": "2_4353",
        "lat": 48.017654,
        "lon": -1.654585,
        "name": "Paul Féval",
        "code": 4353
      },
      "arrival": 66120,
      "departure": 66120
    },
    {
      "stop": {
        "id": "2_4362",
        "lat": 48.016196,
        "lon": -1.651517,
        "name": "Alexandre Gilois",
        "code": 4362
      },
      "arrival": 66120,
      "departure": 66120
    },
    {
      "stop": {
        "id": "2_4358",
        "lat": 48.017644,
        "lon": -1.649467,
        "name": "Croix Faucheux",
        "code": 4358
      },
      "arrival": 66180,
      "departure": 66180
    },
    {
      "stop": {
        "id": "2_4359",
        "lat": 48.021537,
        "lon": -1.653502,
        "name": "Leuzières",
        "code": 4359
      },
      "arrival": 66240,
      "departure": 66240
    },
    {
      "stop": {
        "id": "2_2705",
        "lat": 48.02908,
        "lon": -1.659799,
        "name": "Bray",
        "code": 2705
      },
      "arrival": 66360,
      "departure": 66360
    },
    {
      "stop": {
        "id": "2_2734",
        "lat": 48.034436,
        "lon": -1.663421,
        "name": "Côteaux",
        "code": 2734
      },
      "arrival": 66420,
      "departure": 66420
    },
    {
      "stop": {
        "id": "2_2727",
        "lat": 48.038446,
        "lon": -1.666525,
        "name": "Pont",
        "code": 2727
      },
      "arrival": 66480,
      "departure": 66480
    },
    {
      "stop": {
        "id": "2_2706",
        "lat": 48.038455,
        "lon": -1.670722,
        "name": "Molène",
        "code": 2706
      },
      "arrival": 66540,
      "departure": 66540
    },
    {
      "stop": {
        "id": "2_2707",
        "lat": 48.040768,
        "lon": -1.671907,
        "name": "Potiers",
        "code": 2707
      },
      "arrival": 66600,
      "departure": 66600
    },
    {
      "stop": {
        "id": "2_2708",
        "lat": 48.042386,
        "lon": -1.665537,
        "name": "Centre",
        "code": 2708
      },
      "arrival": 66660,
      "departure": 66660
    },
    {
      "stop": {
        "id": "2_2709",
        "lat": 48.044053,
        "lon": -1.661183,
        "name": "Salle Polyvalente",
        "code": 2709
      },
      "arrival": 66720,
      "departure": 66720
    },
    {
      "stop": {
        "id": "2_2710",
        "lat": 48.047169,
        "lon": -1.661203,
        "name": "Petite Saudrais",
        "code": 2710
      },
      "arrival": 66780,
      "departure": 66780
    },
    {
      "stop": {
        "id": "2_2711",
        "lat": 48.056658,
        "lon": -1.663721,
        "name": "Croix Fleurie",
        "code": 2711
      },
      "arrival": 66900,
      "departure": 66900
    },
    {
      "stop": {
        "id": "2_2712",
        "lat": 48.06368,
        "lon": -1.66369,
        "name": "Mail Lancé",
        "code": 2712
      },
      "arrival": 66960,
      "departure": 66960
    },
    {
      "stop": {
        "id": "2_2713",
        "lat": 48.068453,
        "lon": -1.665713,
        "name": "Petit Beaulieu",
        "code": 2713
      },
      "arrival": 66960,
      "departure": 66960
    },
    {
      "stop": {
        "id": "2_2714",
        "lat": 48.077187,
        "lon": -1.661021,
        "name": "Hil-Bintinais",
        "code": 2714
      },
      "arrival": 67080,
      "departure": 67080
    },
    {
      "stop": {
        "id": "2_1441",
        "lat": 48.08608,
        "lon": -1.660855,
        "name": "Triangle",
        "code": 1441
      },
      "arrival": 67200,
      "departure": 67200
    },
    {
      "stop": {
        "id": "2_1510",
        "lat": 48.087784,
        "lon": -1.674415,
        "name": "Henri Fréville",
        "code": 1510
      },
      "arrival": 67380,
      "departure": 67380
    }
  ],
  "route": {
    "id": "2_0061",
    "textColor": "FFFFFF",
    "color": "E6396C",
    "description": "Métropolitaine",
    "longName": "Rennes (Henri Fréville) \u003c\u003e Noyal-Châtillon-sur-Seiche / Saint-Erblon",
    "shortName": "61",
    "type": 3,
    "agencyId": "2"
  }
}