{
  "headsign": "159 | Bruz Gare",
  "stopTimes": [
    {
      "stop": {
        "id": "2_1564",
        "lat": 48.088114,
        "lon": -1.674405,
        "name": "Henri Fréville",
        "code": 1564
      },
      "arrival": 63900,
      "departure": 63900
    },
    {
      "stop": {
        "id": "2_2339",
        "lat": 48.028337,
        "lon": -1.73564,
        "name": "Champ Niguel",
        "code": 2339
      },
      "arrival": 64920,
      "departure": 64920
    },
    {
      "stop": {
        "id": "2_2340",
        "lat": 48.025982,
        "lon": -1.734563,
        "name": "Bobinais",
        "code": 2340
      },
      "arrival": 64980,
      "departure": 64980
    },
    {
      "stop": {
        "id": "2_2341",
        "lat": 48.023636,
        "lon": -1.736267,
        "name": "Pasteur",
        "code": 2341
      },
      "arrival": 65040,
      "departure": 65040
    },
    {
      "stop": {
        "id": "2_2348",
        "lat": 48.023484,
        "lon": -1.743371,
        "name": "Bruz Centre",
        "code": 2348
      },
      "arrival": 65160,
      "departure": 65160
    },
    {
      "stop": {
        "id": "2_2343",
        "lat": 48.019598,
        "lon": -1.744633,
        "name": "Epalet",
        "code": 2343
      },
      "arrival": 65340,
      "departure": 65340
    },
    {
      "stop": {
        "id": "2_2344",
        "lat": 48.021674,
        "lon": -1.752317,
        "name": "Noë",
        "code": 2344
      },
      "arrival": 65460,
      "departure": 65460
    },
    {
      "stop": {
        "id": "2_2375",
        "lat": 48.024186,
        "lon": -1.75284,
        "name": "Châteliers",
        "code": 2375
      },
      "arrival": 65520,
      "departure": 65520
    },
    {
      "stop": {
        "id": "2_2372",
        "lat": 48.029045,
        "lon": -1.752705,
        "name": "Bruz Gare",
        "code": 2372
      },
      "arrival": 65640,
      "departure": 65640
    }
  ],
  "route": {
    "id": "2_0159",
    "textColor": "3D3C3F",
    "color": "FFDD00",
    "description": "Express métropolitaine",
    "longName": "Rennes (Henri Fréville) \u003c\u003e Bruz (Gare)",
    "shortName": "159",
    "type": 3,
    "agencyId": "2"
  }
}