{
  "headsign": "59 | Bruz Centre",
  "stopTimes": [
    {
      "stop": {
        "id": "2_2601",
        "lat": 48.03852387,
        "lon": -1.60247514,
        "name": "Croix Malinge",
        "code": 2601
      },
      "arrival": 30600,
      "departure": 30600
    },
    {
      "stop": {
        "id": "2_2602",
        "lat": 48.04342114,
        "lon": -1.60171837,
        "name": "Bel Air",
        "code": 2602
      },
      "arrival": 30720,
      "departure": 30720
    },
    {
      "stop": {
        "id": "2_2629",
        "lat": 48.04719054,
        "lon": -1.60258313,
        "name": "Vern Eglise",
        "code": 2629
      },
      "arrival": 30780,
      "departure": 30780
    },
    {
      "stop": {
        "id": "2_2604",
        "lat": 48.04948516,
        "lon": -1.60615819,
        "name": "Croix Rouge",
        "code": 2604
      },
      "arrival": 30900,
      "departure": 30900
    },
    {
      "stop": {
        "id": "2_2617",
        "lat": 48.04943835,
        "lon": -1.61103426,
        "name": "Fosse Gauchère",
        "code": 2617
      },
      "arrival": 31020,
      "departure": 31020
    },
    {
      "stop": {
        "id": "2_2606",
        "lat": 48.05064249,
        "lon": -1.61503808,
        "name": "Solidor",
        "code": 2606
      },
      "arrival": 31080,
      "departure": 31080
    },
    {
      "stop": {
        "id": "2_2607",
        "lat": 48.05261593,
        "lon": -1.61390617,
        "name": "Haute Abbaye",
        "code": 2607
      },
      "arrival": 31140,
      "departure": 31140
    },
    {
      "stop": {
        "id": "2_2608",
        "lat": 48.05927096,
        "lon": -1.61659799,
        "name": "Bretonnière",
        "code": 2608
      },
      "arrival": 31260,
      "departure": 31260
    },
    {
      "stop": {
        "id": "2_2609",
        "lat": 48.06408177,
        "lon": -1.62309646,
        "name": "Val d\u0027Orson",
        "code": 2609
      },
      "arrival": 31380,
      "departure": 31380
    },
    {
      "stop": {
        "id": "2_2610",
        "lat": 48.06773616,
        "lon": -1.62575611,
        "name": "Garenne",
        "code": 2610
      },
      "arrival": 31440,
      "departure": 31440
    },
    {
      "stop": {
        "id": "2_2611",
        "lat": 48.07239609,
        "lon": -1.62874628,
        "name": "Hallerais",
        "code": 2611
      },
      "arrival": 31500,
      "departure": 31500
    },
    {
      "stop": {
        "id": "2_3024",
        "lat": 48.0769249,
        "lon": -1.63186001,
        "name": "Martinière",
        "code": 3024
      },
      "arrival": 31560,
      "departure": 31560
    },
    {
      "stop": {
        "id": "2_1343",
        "lat": 48.08761374,
        "lon": -1.64610727,
        "name": "La Poterie",
        "code": 1343
      },
      "arrival": 31860,
      "departure": 31860
    },
    {
      "stop": {
        "id": "2_1344",
        "lat": 48.0876653,
        "lon": -1.65003592,
        "name": "Galicie",
        "code": 1344
      },
      "arrival": 31920,
      "departure": 31920
    },
    {
      "stop": {
        "id": "2_1345",
        "lat": 48.0848815,
        "lon": -1.65113631,
        "name": "Sainte-Elisabeth",
        "code": 1345
      },
      "arrival": 31980,
      "departure": 31980
    },
    {
      "stop": {
        "id": "2_1346",
        "lat": 48.08468763,
        "lon": -1.65512833,
        "name": "Hôpital Sud",
        "code": 1346
      },
      "arrival": 32040,
      "departure": 32040
    },
    {
      "stop": {
        "id": "2_1347",
        "lat": 48.08473481,
        "lon": -1.6578097,
        "name": "Torigné",
        "code": 1347
      },
      "arrival": 32100,
      "departure": 32100
    },
    {
      "stop": {
        "id": "2_1348",
        "lat": 48.08362139,
        "lon": -1.66384619,
        "name": "Tage",
        "code": 1348
      },
      "arrival": 32220,
      "departure": 32220
    },
    {
      "stop": {
        "id": "2_1349",
        "lat": 48.08367369,
        "lon": -1.66817147,
        "name": "Douro",
        "code": 1349
      },
      "arrival": 32280,
      "departure": 32280
    },
    {
      "stop": {
        "id": "2_1535",
        "lat": 48.08377891,
        "lon": -1.67237599,
        "name": "Portugal",
        "code": 1535
      },
      "arrival": 32340,
      "departure": 32340
    },
    {
      "stop": {
        "id": "2_1564",
        "lat": 48.08782223,
        "lon": -1.67459024,
        "name": "Henri Fréville",
        "code": 1564
      },
      "arrival": 32460,
      "departure": 32460
    },
    {
      "stop": {
        "id": "2_1449",
        "lat": 48.0868238,
        "lon": -1.6830757,
        "name": "Norvège",
        "code": 1449
      },
      "arrival": 32640,
      "departure": 32640
    },
    {
      "stop": {
        "id": "2_1450",
        "lat": 48.08665851,
        "lon": -1.68837187,
        "name": "Coubertin",
        "code": 1450
      },
      "arrival": 32700,
      "departure": 32700
    },
    {
      "stop": {
        "id": "2_1270",
        "lat": 48.08578354,
        "lon": -1.69404539,
        "name": "Félix Eboué",
        "code": 1270
      },
      "arrival": 32820,
      "departure": 32820
    },
    {
      "stop": {
        "id": "2_2262",
        "lat": 48.06879204,
        "lon": -1.69785635,
        "name": "Vallon",
        "code": 2262
      },
      "arrival": 33060,
      "departure": 33060
    },
    {
      "stop": {
        "id": "2_2704",
        "lat": 48.0593778,
        "lon": -1.70119071,
        "name": "Janais",
        "code": 2704
      },
      "arrival": 33180,
      "departure": 33180
    },
    {
      "stop": {
        "id": "2_2902",
        "lat": 48.04786309,
        "lon": -1.71352147,
        "name": "Croix aux Potiers",
        "code": 2902
      },
      "arrival": 33360,
      "departure": 33360
    },
    {
      "stop": {
        "id": "2_2328",
        "lat": 48.03490665,
        "lon": -1.72460581,
        "name": "Doublé",
        "code": 2328
      },
      "arrival": 33540,
      "departure": 33540
    },
    {
      "stop": {
        "id": "2_2338",
        "lat": 48.03327206,
        "lon": -1.7330462,
        "name": "Lavoisier",
        "code": 2338
      },
      "arrival": 33600,
      "departure": 33600
    },
    {
      "stop": {
        "id": "2_2339",
        "lat": 48.02837459,
        "lon": -1.73561585,
        "name": "Champ Niguel",
        "code": 2339
      },
      "arrival": 33660,
      "departure": 33660
    },
    {
      "stop": {
        "id": "2_2340",
        "lat": 48.02603219,
        "lon": -1.73454161,
        "name": "Bobinais",
        "code": 2340
      },
      "arrival": 33660,
      "departure": 33660
    },
    {
      "stop": {
        "id": "2_2341",
        "lat": 48.02366722,
        "lon": -1.73621021,
        "name": "Pasteur",
        "code": 2341
      },
      "arrival": 33720,
      "departure": 33720
    },
    {
      "stop": {
        "id": "2_2342",
        "lat": 48.02092838,
        "lon": -1.73825365,
        "name": "Du Guesclin",
        "code": 2342
      },
      "arrival": 33780,
      "departure": 33780
    },
    {
      "stop": {
        "id": "2_2343",
        "lat": 48.01957852,
        "lon": -1.74458947,
        "name": "Epalet",
        "code": 2343
      },
      "arrival": 33840,
      "departure": 33840
    },
    {
      "stop": {
        "id": "2_2344",
        "lat": 48.02159326,
        "lon": -1.75228218,
        "name": "Noë",
        "code": 2344
      },
      "arrival": 33960,
      "departure": 33960
    },
    {
      "stop": {
        "id": "2_2325",
        "lat": 48.02481885,
        "lon": -1.75055599,
        "name": "Herverie",
        "code": 2325
      },
      "arrival": 34020,
      "departure": 34020
    },
    {
      "stop": {
        "id": "2_2301",
        "lat": 48.02452888,
        "lon": -1.74523499,
        "name": "Bruz Centre",
        "code": 2301
      },
      "arrival": 34080,
      "departure": 34080
    }
  ],
  "route": {
    "id": "2_0059",
    "textColor": "1A171B",
    "color": "F19FC1",
    "description": "Métropolitaine",
    "longName": "Vern-sur-Seiche \u003c\u003e Rennes (La Poterie) / Rennes (Henri Fréville) \u003c\u003e Bruz (Centre)",
    "shortName": "59",
    "type": 3,
    "agencyId": "2"
  }
}