{
  "headsign": "61 | Noyal-Châtillon Saint-Erblon",
  "stopTimes": [
    {
      "stop": {
        "id": "2_1510",
        "lat": 48.087784,
        "lon": -1.674415,
        "name": "Henri Fréville",
        "code": 1510
      },
      "arrival": 31800,
      "departure": 31800
    },
    {
      "stop": {
        "id": "2_1465",
        "lat": 48.086117,
        "lon": -1.661119,
        "name": "Triangle",
        "code": 1465
      },
      "arrival": 32040,
      "departure": 32040
    },
    {
      "stop": {
        "id": "2_2715",
        "lat": 48.078644,
        "lon": -1.661365,
        "name": "Hil-Bintinais",
        "code": 2715
      },
      "arrival": 32280,
      "departure": 32280
    },
    {
      "stop": {
        "id": "2_2716",
        "lat": 48.068609,
        "lon": -1.66607,
        "name": "Petit Beaulieu",
        "code": 2716
      },
      "arrival": 32400,
      "departure": 32400
    },
    {
      "stop": {
        "id": "2_2717",
        "lat": 48.063637,
        "lon": -1.663952,
        "name": "Mail Lancé",
        "code": 2717
      },
      "arrival": 32400,
      "departure": 32400
    },
    {
      "stop": {
        "id": "2_2718",
        "lat": 48.055987,
        "lon": -1.664262,
        "name": "Croix Fleurie",
        "code": 2718
      },
      "arrival": 32520,
      "departure": 32520
    },
    {
      "stop": {
        "id": "2_2719",
        "lat": 48.047008,
        "lon": -1.661005,
        "name": "Petite Saudrais",
        "code": 2719
      },
      "arrival": 32580,
      "departure": 32580
    },
    {
      "stop": {
        "id": "2_2720",
        "lat": 48.044129,
        "lon": -1.661407,
        "name": "Salle Polyvalente",
        "code": 2720
      },
      "arrival": 32640,
      "departure": 32640
    },
    {
      "stop": {
        "id": "2_2721",
        "lat": 48.042439,
        "lon": -1.66572,
        "name": "Centre",
        "code": 2721
      },
      "arrival": 32700,
      "departure": 32700
    },
    {
      "stop": {
        "id": "2_2722",
        "lat": 48.040814,
        "lon": -1.672158,
        "name": "Potiers",
        "code": 2722
      },
      "arrival": 32760,
      "departure": 32760
    },
    {
      "stop": {
        "id": "2_2723",
        "lat": 48.038355,
        "lon": -1.670616,
        "name": "Molène",
        "code": 2723
      },
      "arrival": 32820,
      "departure": 32820
    },
    {
      "stop": {
        "id": "2_2732",
        "lat": 48.038628,
        "lon": -1.66691,
        "name": "Pont",
        "code": 2732
      },
      "arrival": 32880,
      "departure": 32880
    },
    {
      "stop": {
        "id": "2_2733",
        "lat": 48.034843,
        "lon": -1.664151,
        "name": "Côteaux",
        "code": 2733
      },
      "arrival": 32940,
      "departure": 32940
    },
    {
      "stop": {
        "id": "2_2724",
        "lat": 48.028619,
        "lon": -1.659907,
        "name": "Bray",
        "code": 2724
      },
      "arrival": 33000,
      "departure": 33000
    },
    {
      "stop": {
        "id": "2_4360",
        "lat": 48.021547,
        "lon": -1.653716,
        "name": "Leuzières",
        "code": 4360
      },
      "arrival": 33120,
      "departure": 33120
    },
    {
      "stop": {
        "id": "2_4361",
        "lat": 48.01773,
        "lon": -1.649634,
        "name": "Croix Faucheux",
        "code": 4361
      },
      "arrival": 33180,
      "departure": 33180
    },
    {
      "stop": {
        "id": "2_4363",
        "lat": 48.016323,
        "lon": -1.651341,
        "name": "Alexandre Gilois",
        "code": 4363
      },
      "arrival": 33240,
      "departure": 33240
    },
    {
      "stop": {
        "id": "2_4354",
        "lat": 48.017653,
        "lon": -1.654401,
        "name": "Paul Féval",
        "code": 4354
      },
      "arrival": 33240,
      "departure": 33240
    },
    {
      "stop": {
        "id": "2_4355",
        "lat": 48.018871,
        "lon": -1.657701,
        "name": "Champ Mulon",
        "code": 4355
      },
      "arrival": 33300,
      "departure": 33300
    },
    {
      "stop": {
        "id": "2_4351",
        "lat": 48.01727,
        "lon": -1.660332,
        "name": "Parc d\u0027Activités",
        "code": 4351
      },
      "arrival": 33360,
      "departure": 33360
    }
  ],
  "route": {
    "id": "2_0061",
    "textColor": "FFFFFF",
    "color": "E6396C",
    "description": "Métropolitaine",
    "longName": "Rennes (Henri Fréville) \u003c\u003e Noyal-Châtillon-sur-Seiche / Saint-Erblon",
    "shortName": "61",
    "type": 3,
    "agencyId": "2"
  }
}