{
  "headsign": "64 | Acigné",
  "stopTimes": [
    {
      "stop": {
        "id": "2_1167",
        "lat": 48.10936738,
        "lon": -1.678658,
        "name": "République Pré Botté",
        "code": 1167
      },
      "arrival": 31500,
      "departure": 31500
    },
    {
      "stop": {
        "id": "2_1169",
        "lat": 48.10985334,
        "lon": -1.67452094,
        "name": "Musée Beaux Arts",
        "code": 1169
      },
      "arrival": 31680,
      "departure": 31680
    },
    {
      "stop": {
        "id": "2_1172",
        "lat": 48.11007924,
        "lon": -1.65919453,
        "name": "Robidou",
        "code": 1172
      },
      "arrival": 31860,
      "departure": 31860
    },
    {
      "stop": {
        "id": "2_1515",
        "lat": 48.11350079,
        "lon": -1.64755396,
        "name": "Moulin de Joué",
        "code": 1515
      },
      "arrival": 31980,
      "departure": 31980
    },
    {
      "stop": {
        "id": "2_1516",
        "lat": 48.11595285,
        "lon": -1.64840733,
        "name": "Bois Perrin",
        "code": 1516
      },
      "arrival": 32040,
      "departure": 32040
    },
    {
      "stop": {
        "id": "2_1201",
        "lat": 48.11911266,
        "lon": -1.64919701,
        "name": "Vitré Foulon",
        "code": 1201
      },
      "arrival": 32100,
      "departure": 32100
    },
    {
      "stop": {
        "id": "2_1202",
        "lat": 48.12062049,
        "lon": -1.64433521,
        "name": "Beaulieu Cité U.",
        "code": 1202
      },
      "arrival": 32160,
      "departure": 32160
    },
    {
      "stop": {
        "id": "2_1203",
        "lat": 48.12203302,
        "lon": -1.6395994,
        "name": "Beaulieu Restau. U.",
        "code": 1203
      },
      "arrival": 32220,
      "departure": 32220
    },
    {
      "stop": {
        "id": "2_2046",
        "lat": 48.12733271,
        "lon": -1.62783456,
        "name": "Clos Courtel",
        "code": 2046
      },
      "arrival": 32340,
      "departure": 32340
    },
    {
      "stop": {
        "id": "2_2047",
        "lat": 48.12725633,
        "lon": -1.62413052,
        "name": "Belle Fontaine",
        "code": 2047
      },
      "arrival": 32400,
      "departure": 32400
    },
    {
      "stop": {
        "id": "2_2081",
        "lat": 48.1268256,
        "lon": -1.61994598,
        "name": "Bouriande",
        "code": 2081
      },
      "arrival": 32400,
      "departure": 32400
    },
    {
      "stop": {
        "id": "2_2083",
        "lat": 48.12696193,
        "lon": -1.61439739,
        "name": "Gaudais",
        "code": 2083
      },
      "arrival": 32460,
      "departure": 32460
    },
    {
      "stop": {
        "id": "2_2084",
        "lat": 48.12903982,
        "lon": -1.60483093,
        "name": "Verger",
        "code": 2084
      },
      "arrival": 32580,
      "departure": 32580
    },
    {
      "stop": {
        "id": "2_3316",
        "lat": 48.13215303,
        "lon": -1.59643107,
        "name": "Saint-Etienne",
        "code": 3316
      },
      "arrival": 32640,
      "departure": 32640
    },
    {
      "stop": {
        "id": "2_3318",
        "lat": 48.14093339,
        "lon": -1.57346681,
        "name": "Pâtis du Moulinet",
        "code": 3318
      },
      "arrival": 32820,
      "departure": 32820
    },
    {
      "stop": {
        "id": "2_4008",
        "lat": 48.13908696,
        "lon": -1.55947698,
        "name": "Boulais",
        "code": 4008
      },
      "arrival": 32880,
      "departure": 32880
    },
    {
      "stop": {
        "id": "2_4009",
        "lat": 48.13686615,
        "lon": -1.54860696,
        "name": "Pont d\u0027Ohin",
        "code": 4009
      },
      "arrival": 32940,
      "departure": 32940
    },
    {
      "stop": {
        "id": "2_4010",
        "lat": 48.13448301,
        "lon": -1.54192503,
        "name": "Lande",
        "code": 4010
      },
      "arrival": 33000,
      "departure": 33000
    },
    {
      "stop": {
        "id": "2_4011",
        "lat": 48.13388288,
        "lon": -1.53762999,
        "name": "Foyer",
        "code": 4011
      },
      "arrival": 33060,
      "departure": 33060
    },
    {
      "stop": {
        "id": "2_4012",
        "lat": 48.13417021,
        "lon": -1.5347181,
        "name": "Acigné Mairie",
        "code": 4012
      },
      "arrival": 33120,
      "departure": 33120
    },
    {
      "stop": {
        "id": "2_4013",
        "lat": 48.13716321,
        "lon": -1.53294519,
        "name": "Verdaudais",
        "code": 4013
      },
      "arrival": 33180,
      "departure": 33180
    },
    {
      "stop": {
        "id": "2_4001",
        "lat": 48.13701918,
        "lon": -1.52637517,
        "name": "Timonière",
        "code": 4001
      },
      "arrival": 33300,
      "departure": 33300
    }
  ],
  "route": {
    "id": "2_0064",
    "textColor": "ffffff",
    "color": "008dd6",
    "description": "Métropolitaine",
    "longName": "Rennes (République) \u003c\u003e Acigné",
    "shortName": "64",
    "type": 3,
    "agencyId": "2"
  }
}