{
  "headsign": "61 | Rennes Henri Fréville",
  "stopTimes": [
    {
      "stop": {
        "id": "2_4351",
        "lat": 48.01725669,
        "lon": -1.66042889,
        "name": "Parc d\u0027Activités",
        "code": 4351
      },
      "arrival": 26400,
      "departure": 26400
    },
    {
      "stop": {
        "id": "2_4352",
        "lat": 48.01883453,
        "lon": -1.65769241,
        "name": "Champ Mulon",
        "code": 4352
      },
      "arrival": 26460,
      "departure": 26460
    },
    {
      "stop": {
        "id": "2_4353",
        "lat": 48.01766237,
        "lon": -1.65451232,
        "name": "Paul Féval",
        "code": 4353
      },
      "arrival": 26520,
      "departure": 26520
    },
    {
      "stop": {
        "id": "2_4362",
        "lat": 48.01622131,
        "lon": -1.65152108,
        "name": "Alexandre Gilois",
        "code": 4362
      },
      "arrival": 26520,
      "departure": 26520
    },
    {
      "stop": {
        "id": "2_4358",
        "lat": 48.01767454,
        "lon": -1.64942104,
        "name": "Croix Faucheux",
        "code": 4358
      },
      "arrival": 26580,
      "departure": 26580
    },
    {
      "stop": {
        "id": "2_4359",
        "lat": 48.02152221,
        "lon": -1.65356188,
        "name": "Leuzières",
        "code": 4359
      },
      "arrival": 26640,
      "departure": 26640
    },
    {
      "stop": {
        "id": "2_2705",
        "lat": 48.02898231,
        "lon": -1.65980879,
        "name": "Bray",
        "code": 2705
      },
      "arrival": 26760,
      "departure": 26760
    },
    {
      "stop": {
        "id": "2_2734",
        "lat": 48.03439807,
        "lon": -1.66349817,
        "name": "Côteaux",
        "code": 2734
      },
      "arrival": 26820,
      "departure": 26820
    },
    {
      "stop": {
        "id": "2_2727",
        "lat": 48.03842301,
        "lon": -1.66656825,
        "name": "Pont",
        "code": 2727
      },
      "arrival": 26880,
      "departure": 26880
    },
    {
      "stop": {
        "id": "2_2706",
        "lat": 48.03841781,
        "lon": -1.67071213,
        "name": "Molène",
        "code": 2706
      },
      "arrival": 26940,
      "departure": 26940
    },
    {
      "stop": {
        "id": "2_2707",
        "lat": 48.04080291,
        "lon": -1.6719381,
        "name": "Potiers",
        "code": 2707
      },
      "arrival": 27000,
      "departure": 27000
    },
    {
      "stop": {
        "id": "2_2708",
        "lat": 48.04239862,
        "lon": -1.66565541,
        "name": "Centre",
        "code": 2708
      },
      "arrival": 27060,
      "departure": 27060
    },
    {
      "stop": {
        "id": "2_2709",
        "lat": 48.0440963,
        "lon": -1.66126141,
        "name": "Salle Polyvalente",
        "code": 2709
      },
      "arrival": 27120,
      "departure": 27120
    },
    {
      "stop": {
        "id": "2_2710",
        "lat": 48.0471142,
        "lon": -1.66108375,
        "name": "Petite Saudrais",
        "code": 2710
      },
      "arrival": 27180,
      "departure": 27180
    },
    {
      "stop": {
        "id": "2_2711",
        "lat": 48.05658786,
        "lon": -1.66382824,
        "name": "Croix Fleurie",
        "code": 2711
      },
      "arrival": 27300,
      "departure": 27300
    },
    {
      "stop": {
        "id": "2_2712",
        "lat": 48.06366666,
        "lon": -1.66376685,
        "name": "Mail Lancé",
        "code": 2712
      },
      "arrival": 27360,
      "departure": 27360
    },
    {
      "stop": {
        "id": "2_2713",
        "lat": 48.06835652,
        "lon": -1.66575417,
        "name": "Petit Beaulieu",
        "code": 2713
      },
      "arrival": 27360,
      "departure": 27360
    },
    {
      "stop": {
        "id": "2_2714",
        "lat": 48.07719318,
        "lon": -1.66114018,
        "name": "Hil-Bintinais",
        "code": 2714
      },
      "arrival": 27480,
      "departure": 27480
    },
    {
      "stop": {
        "id": "2_1441",
        "lat": 48.08606219,
        "lon": -1.66094033,
        "name": "Triangle",
        "code": 1441
      },
      "arrival": 27600,
      "departure": 27600
    },
    {
      "stop": {
        "id": "2_1510",
        "lat": 48.08777948,
        "lon": -1.67446532,
        "name": "Henri Fréville",
        "code": 1510
      },
      "arrival": 27840,
      "departure": 27840
    }
  ],
  "route": {
    "id": "2_0061",
    "textColor": "FFFFFF",
    "color": "E6396C",
    "description": "Métropolitaine",
    "longName": "Rennes (Henri Fréville) \u003c\u003e Noyal-Châtillon-sur-Seiche / Saint-Erblon",
    "shortName": "61",
    "type": 3,
    "agencyId": "2"
  }
}