{
  "headsign": "74 | Orgères Moc Souris",
  "stopTimes": [
    {
      "stop": {
        "id": "2_1510",
        "lat": 48.087784,
        "lon": -1.674415,
        "name": "Henri Fréville",
        "code": 1510
      },
      "arrival": 27600,
      "departure": 27600
    },
    {
      "stop": {
        "id": "2_4357",
        "lat": 48.017063,
        "lon": -1.664746,
        "name": "Croix du Pigeonnet",
        "code": 4357
      },
      "arrival": 28380,
      "departure": 28380
    },
    {
      "stop": {
        "id": "2_3249",
        "lat": 48.014928,
        "lon": -1.663969,
        "name": "Orgerblon",
        "code": 3249
      },
      "arrival": 28380,
      "departure": 28380
    },
    {
      "stop": {
        "id": "2_3216",
        "lat": 48.009134,
        "lon": -1.666375,
        "name": "Plardière",
        "code": 3216
      },
      "arrival": 28440,
      "departure": 28440
    },
    {
      "stop": {
        "id": "2_3217",
        "lat": 48.000471,
        "lon": -1.667155,
        "name": "Levant",
        "code": 3217
      },
      "arrival": 28560,
      "departure": 28560
    },
    {
      "stop": {
        "id": "2_3218",
        "lat": 47.996919,
        "lon": -1.669051,
        "name": "Groupe Scolaire",
        "code": 3218
      },
      "arrival": 28620,
      "departure": 28620
    },
    {
      "stop": {
        "id": "2_3219",
        "lat": 47.994968,
        "lon": -1.670982,
        "name": "Coteau",
        "code": 3219
      },
      "arrival": 28680,
      "departure": 28680
    },
    {
      "stop": {
        "id": "2_3220",
        "lat": 47.992216,
        "lon": -1.6679,
        "name": "Surcouf",
        "code": 3220
      },
      "arrival": 28740,
      "departure": 28740
    },
    {
      "stop": {
        "id": "2_3221",
        "lat": 47.993743,
        "lon": -1.665206,
        "name": "Chateaubriand",
        "code": 3221
      },
      "arrival": 28860,
      "departure": 28860
    },
    {
      "stop": {
        "id": "2_3204",
        "lat": 47.983239,
        "lon": -1.660165,
        "name": "Télégraphe",
        "code": 3204
      },
      "arrival": 28980,
      "departure": 28980
    },
    {
      "stop": {
        "id": "2_3205",
        "lat": 47.976081,
        "lon": -1.657175,
        "name": "Petite Rochelle",
        "code": 3205
      },
      "arrival": 29100,
      "departure": 29100
    },
    {
      "stop": {
        "id": "2_3206",
        "lat": 47.975464,
        "lon": -1.652399,
        "name": "Frogerais",
        "code": 3206
      },
      "arrival": 29100,
      "departure": 29100
    },
    {
      "stop": {
        "id": "2_3207",
        "lat": 47.969624,
        "lon": -1.645797,
        "name": "Fort Joual",
        "code": 3207
      },
      "arrival": 29220,
      "departure": 29220
    },
    {
      "stop": {
        "id": "2_3811",
        "lat": 47.959573,
        "lon": -1.63703,
        "name": "Sept Fours",
        "code": 3811
      },
      "arrival": 29340,
      "departure": 29340
    },
    {
      "stop": {
        "id": "2_3810",
        "lat": 47.960038,
        "lon": -1.632394,
        "name": "Moc Souris",
        "code": 3810
      },
      "arrival": 29400,
      "departure": 29400
    }
  ],
  "route": {
    "id": "2_0074",
    "textColor": "1A171B",
    "color": "FCC000",
    "description": "Métropolitaine",
    "longName": "Rennes (Henri Fréville) \u003c\u003e Orgères / Bourgbarré",
    "shortName": "74",
    "type": 3,
    "agencyId": "2"
  }
}