{
  "headsign": "6 | Cesson-Sévigné Rigourdière",
  "stopTimes": [
    {
      "stop": {
        "id": "2_2201",
        "lat": 48.07546226,
        "lon": -1.71635318,
        "name": "Morinais",
        "code": 2201
      },
      "arrival": 89700,
      "departure": 89700
    },
    {
      "stop": {
        "id": "2_2202",
        "lat": 48.07734959,
        "lon": -1.71582209,
        "name": "Collège Jean Moulin",
        "code": 2202
      },
      "arrival": 89760,
      "departure": 89760
    },
    {
      "stop": {
        "id": "2_2214",
        "lat": 48.07988244,
        "lon": -1.71560415,
        "name": "Médiathèque",
        "code": 2214
      },
      "arrival": 89820,
      "departure": 89820
    },
    {
      "stop": {
        "id": "2_2204",
        "lat": 48.08256009,
        "lon": -1.71537221,
        "name": "Jean Marin",
        "code": 2204
      },
      "arrival": 89820,
      "departure": 89820
    },
    {
      "stop": {
        "id": "2_2263",
        "lat": 48.08257363,
        "lon": -1.71233295,
        "name": "Jean Jaurès",
        "code": 2263
      },
      "arrival": 89880,
      "departure": 89880
    },
    {
      "stop": {
        "id": "2_2205",
        "lat": 48.08320903,
        "lon": -1.71019669,
        "name": "Blosne",
        "code": 2205
      },
      "arrival": 89940,
      "departure": 89940
    },
    {
      "stop": {
        "id": "2_2206",
        "lat": 48.08751801,
        "lon": -1.70704222,
        "name": "Gaité",
        "code": 2206
      },
      "arrival": 90000,
      "departure": 90000
    },
    {
      "stop": {
        "id": "2_2258",
        "lat": 48.09350731,
        "lon": -1.70438279,
        "name": "Dominos",
        "code": 2258
      },
      "arrival": 90120,
      "departure": 90120
    },
    {
      "stop": {
        "id": "2_1588",
        "lat": 48.0980357,
        "lon": -1.70376856,
        "name": "Jules Maniez",
        "code": 1588
      },
      "arrival": 90240,
      "departure": 90240
    },
    {
      "stop": {
        "id": "2_1570",
        "lat": 48.098484,
        "lon": -1.69753316,
        "name": "Cœur de Courrouze",
        "code": 1570
      },
      "arrival": 90240,
      "departure": 90240
    },
    {
      "stop": {
        "id": "2_1590",
        "lat": 48.09891225,
        "lon": -1.69355023,
        "name": "Jules Verne",
        "code": 1590
      },
      "arrival": 90300,
      "departure": 90300
    },
    {
      "stop": {
        "id": "2_1612",
        "lat": 48.10354601,
        "lon": -1.6884609,
        "name": "Saint-Conwoïon",
        "code": 1612
      },
      "arrival": 90420,
      "departure": 90420
    },
    {
      "stop": {
        "id": "2_1401",
        "lat": 48.10562192,
        "lon": -1.68776692,
        "name": "Redon",
        "code": 1401
      },
      "arrival": 90480,
      "departure": 90480
    },
    {
      "stop": {
        "id": "2_1587",
        "lat": 48.10591411,
        "lon": -1.68447094,
        "name": "Cité Judiciaire",
        "code": 1587
      },
      "arrival": 90540,
      "departure": 90540
    },
    {
      "stop": {
        "id": "2_1091",
        "lat": 48.10977886,
        "lon": -1.68388248,
        "name": "Place de Bretagne",
        "code": 1091
      },
      "arrival": 90660,
      "departure": 90660
    },
    {
      "stop": {
        "id": "2_1168",
        "lat": 48.10980866,
        "lon": -1.67882417,
        "name": "République",
        "code": 1168
      },
      "arrival": 90840,
      "departure": 92100
    },
    {
      "stop": {
        "id": "2_1169",
        "lat": 48.10985335,
        "lon": -1.67452094,
        "name": "Musée Beaux Arts",
        "code": 1169
      },
      "arrival": 92160,
      "departure": 92160
    },
    {
      "stop": {
        "id": "2_1170",
        "lat": 48.11003344,
        "lon": -1.66907214,
        "name": "Paul Bert",
        "code": 1170
      },
      "arrival": 92280,
      "departure": 92280
    },
    {
      "stop": {
        "id": "2_1171",
        "lat": 48.11006771,
        "lon": -1.66358483,
        "name": "Pont de Châteaudun",
        "code": 1171
      },
      "arrival": 92340,
      "departure": 92340
    },
    {
      "stop": {
        "id": "2_1172",
        "lat": 48.11007924,
        "lon": -1.65919453,
        "name": "Robidou",
        "code": 1172
      },
      "arrival": 92400,
      "departure": 92400
    },
    {
      "stop": {
        "id": "2_1173",
        "lat": 48.11008942,
        "lon": -1.65614253,
        "name": "Pont de Strasbourg",
        "code": 1173
      },
      "arrival": 92400,
      "departure": 92400
    },
    {
      "stop": {
        "id": "2_1174",
        "lat": 48.11246664,
        "lon": -1.64290057,
        "name": "Plaine de Baud",
        "code": 1174
      },
      "arrival": 92520,
      "departure": 92520
    },
    {
      "stop": {
        "id": "2_1604",
        "lat": 48.11354849,
        "lon": -1.64100035,
        "name": "Les Préales",
        "code": 1604
      },
      "arrival": 92580,
      "departure": 92580
    },
    {
      "stop": {
        "id": "2_1610",
        "lat": 48.11406057,
        "lon": -1.63602668,
        "name": "Tournebride",
        "code": 1610
      },
      "arrival": 92640,
      "departure": 92640
    },
    {
      "stop": {
        "id": "2_2019",
        "lat": 48.1140789,
        "lon": -1.62801107,
        "name": "Champs Péans",
        "code": 2019
      },
      "arrival": 92760,
      "departure": 92760
    },
    {
      "stop": {
        "id": "2_2020",
        "lat": 48.11415,
        "lon": -1.62183892,
        "name": "Taillis",
        "code": 2020
      },
      "arrival": 92820,
      "departure": 92820
    },
    {
      "stop": {
        "id": "2_2021",
        "lat": 48.11421457,
        "lon": -1.61375483,
        "name": "Hublais",
        "code": 2021
      },
      "arrival": 92880,
      "departure": 92880
    },
    {
      "stop": {
        "id": "2_2022",
        "lat": 48.11467541,
        "lon": -1.60958194,
        "name": "Place Sévigné",
        "code": 2022
      },
      "arrival": 92940,
      "departure": 92940
    },
    {
      "stop": {
        "id": "2_2023",
        "lat": 48.11561362,
        "lon": -1.60698111,
        "name": "Vilaine",
        "code": 2023
      },
      "arrival": 93000,
      "departure": 93000
    },
    {
      "stop": {
        "id": "2_2024",
        "lat": 48.1184475,
        "lon": -1.60837086,
        "name": "Muguet",
        "code": 2024
      },
      "arrival": 93000,
      "departure": 93000
    },
    {
      "stop": {
        "id": "2_2025",
        "lat": 48.12123195,
        "lon": -1.6099523,
        "name": "Maison d\u0027Accueil",
        "code": 2025
      },
      "arrival": 93060,
      "departure": 93060
    },
    {
      "stop": {
        "id": "2_2026",
        "lat": 48.1227656,
        "lon": -1.61084009,
        "name": "Mare Pavée",
        "code": 2026
      },
      "arrival": 93120,
      "departure": 93120
    },
    {
      "stop": {
        "id": "2_2027",
        "lat": 48.12349148,
        "lon": -1.60818399,
        "name": "Fontenelle",
        "code": 2027
      },
      "arrival": 93120,
      "departure": 93120
    },
    {
      "stop": {
        "id": "2_2028",
        "lat": 48.12353418,
        "lon": -1.60409505,
        "name": "La Coulée",
        "code": 2028
      },
      "arrival": 93180,
      "departure": 93180
    },
    {
      "stop": {
        "id": "2_2029",
        "lat": 48.12314683,
        "lon": -1.60062832,
        "name": "Bourgchevreuil",
        "code": 2029
      },
      "arrival": 93240,
      "departure": 93240
    },
    {
      "stop": {
        "id": "2_2041",
        "lat": 48.12057735,
        "lon": -1.59948907,
        "name": "Cesson Collège",
        "code": 2041
      },
      "arrival": 93300,
      "departure": 93300
    },
    {
      "stop": {
        "id": "2_2051",
        "lat": 48.11583583,
        "lon": -1.60065105,
        "name": "Chalotais",
        "code": 2051
      },
      "arrival": 93360,
      "departure": 93360
    },
    {
      "stop": {
        "id": "2_2086",
        "lat": 48.11430452,
        "lon": -1.60048414,
        "name": "Bordage",
        "code": 2086
      },
      "arrival": 93360,
      "departure": 93360
    },
    {
      "stop": {
        "id": "2_2089",
        "lat": 48.11358949,
        "lon": -1.59050027,
        "name": "Rigourdière",
        "code": 2089
      },
      "arrival": 93480,
      "departure": 93480
    }
  ],
  "route": {
    "id": "2_0006",
    "textColor": "1A171B",
    "color": "62C3D5",
    "description": "Majeure",
    "longName": "Cesson-Sévigné (Rigourdière) \u003c\u003e Saint-Jacques-de-la-Lande (Morinais)",
    "shortName": "6",
    "type": 3,
    "agencyId": "2"
  }
}