{
  "headsign": "61 | Rennes Henri Fréville",
  "stopTimes": [
    {
      "stop": {
        "id": "2_4351",
        "lat": 48.01727,
        "lon": -1.660332,
        "name": "Parc d\u0027Activités",
        "code": 4351
      },
      "arrival": 28380,
      "departure": 28380
    },
    {
      "stop": {
        "id": "2_4352",
        "lat": 48.018873,
        "lon": -1.657716,
        "name": "Champ Mulon",
        "code": 4352
      },
      "arrival": 28440,
      "departure": 28440
    },
    {
      "stop": {
        "id": "2_4353",
        "lat": 48.017654,
        "lon": -1.654585,
        "name": "Paul Féval",
        "code": 4353
      },
      "arrival": 28500,
      "departure": 28500
    },
    {
      "stop": {
        "id": "2_4362",
        "lat": 48.016196,
        "lon": -1.651517,
        "name": "Alexandre Gilois",
        "code": 4362
      },
      "arrival": 28560,
      "departure": 28560
    },
    {
      "stop": {
        "id": "2_4358",
        "lat": 48.017644,
        "lon": -1.649467,
        "name": "Croix Faucheux",
        "code": 4358
      },
      "arrival": 28620,
      "departure": 28620
    },
    {
      "stop": {
        "id": "2_4359",
        "lat": 48.021537,
        "lon": -1.653502,
        "name": "Leuzières",
        "code": 4359
      },
      "arrival": 28680,
      "departure": 28680
    },
    {
      "stop": {
        "id": "2_2705",
        "lat": 48.02908,
        "lon": -1.659799,
        "name": "Bray",
        "code": 2705
      },
      "arrival": 28800,
      "departure": 28800
    },
    {
      "stop": {
        "id": "2_2734",
        "lat": 48.034436,
        "lon": -1.663421,
        "name": "Côteaux",
        "code": 2734
      },
      "arrival": 28920,
      "departure": 28920
    },
    {
      "stop": {
        "id": "2_2727",
        "lat": 48.038446,
        "lon": -1.666525,
        "name": "Pont",
        "code": 2727
      },
      "arrival": 28980,
      "departure": 28980
    },
    {
      "stop": {
        "id": "2_2706",
        "lat": 48.038455,
        "lon": -1.670722,
        "name": "Molène",
        "code": 2706
      },
      "arrival": 29100,
      "departure": 29100
    },
    {
      "stop": {
        "id": "2_2707",
        "lat": 48.040768,
        "lon": -1.671907,
        "name": "Potiers",
        "code": 2707
      },
      "arrival": 29160,
      "departure": 29160
    },
    {
      "stop": {
        "id": "2_2708",
        "lat": 48.042386,
        "lon": -1.665537,
        "name": "Centre",
        "code": 2708
      },
      "arrival": 29280,
      "departure": 29280
    },
    {
      "stop": {
        "id": "2_2709",
        "lat": 48.044053,
        "lon": -1.661183,
        "name": "Salle Polyvalente",
        "code": 2709
      },
      "arrival": 29340,
      "departure": 29340
    },
    {
      "stop": {
        "id": "2_2710",
        "lat": 48.047169,
        "lon": -1.661203,
        "name": "Petite Saudrais",
        "code": 2710
      },
      "arrival": 29400,
      "departure": 29400
    },
    {
      "stop": {
        "id": "2_2711",
        "lat": 48.056658,
        "lon": -1.663721,
        "name": "Croix Fleurie",
        "code": 2711
      },
      "arrival": 29520,
      "departure": 29520
    },
    {
      "stop": {
        "id": "2_2712",
        "lat": 48.06368,
        "lon": -1.66369,
        "name": "Mail Lancé",
        "code": 2712
      },
      "arrival": 29580,
      "departure": 29580
    },
    {
      "stop": {
        "id": "2_2713",
        "lat": 48.068453,
        "lon": -1.665713,
        "name": "Petit Beaulieu",
        "code": 2713
      },
      "arrival": 29640,
      "departure": 29640
    },
    {
      "stop": {
        "id": "2_2714",
        "lat": 48.077187,
        "lon": -1.661021,
        "name": "Hil-Bintinais",
        "code": 2714
      },
      "arrival": 29760,
      "departure": 29760
    },
    {
      "stop": {
        "id": "2_1441",
        "lat": 48.08608,
        "lon": -1.660855,
        "name": "Triangle",
        "code": 1441
      },
      "arrival": 29940,
      "departure": 29940
    },
    {
      "stop": {
        "id": "2_1510",
        "lat": 48.087784,
        "lon": -1.674415,
        "name": "Henri Fréville",
        "code": 1510
      },
      "arrival": 30180,
      "departure": 30180
    }
  ],
  "route": {
    "id": "2_0061",
    "textColor": "FFFFFF",
    "color": "E6396C",
    "description": "Métropolitaine",
    "longName": "Rennes (Henri Fréville) \u003c\u003e Noyal-Châtillon-sur-Seiche / Saint-Erblon",
    "shortName": "61",
    "type": 3,
    "agencyId": "2"
  }
}