{
  "headsign": "30 | Stade Rennais",
  "stopTimes": [
    {
      "stop": {
        "id": "2_2089",
        "lat": 48.11357205,
        "lon": -1.59052033,
        "name": "Rigourdière",
        "code": 2089
      },
      "arrival": 64920,
      "departure": 64920
    },
    {
      "stop": {
        "id": "2_2039",
        "lat": 48.11441474,
        "lon": -1.60044452,
        "name": "Bordage",
        "code": 2039
      },
      "arrival": 65100,
      "departure": 65100
    },
    {
      "stop": {
        "id": "2_2040",
        "lat": 48.11617658,
        "lon": -1.60046536,
        "name": "Chalotais",
        "code": 2040
      },
      "arrival": 65100,
      "departure": 65100
    },
    {
      "stop": {
        "id": "2_2050",
        "lat": 48.12011703,
        "lon": -1.59927397,
        "name": "Cesson Collège",
        "code": 2050
      },
      "arrival": 65160,
      "departure": 65160
    },
    {
      "stop": {
        "id": "2_2007",
        "lat": 48.12311351,
        "lon": -1.6005581,
        "name": "Bourgchevreuil",
        "code": 2007
      },
      "arrival": 65220,
      "departure": 65220
    },
    {
      "stop": {
        "id": "2_2008",
        "lat": 48.12358605,
        "lon": -1.60438229,
        "name": "La Coulée",
        "code": 2008
      },
      "arrival": 65280,
      "departure": 65280
    },
    {
      "stop": {
        "id": "2_2009",
        "lat": 48.12352951,
        "lon": -1.60813346,
        "name": "Fontenelle",
        "code": 2009
      },
      "arrival": 65280,
      "departure": 65280
    },
    {
      "stop": {
        "id": "2_2074",
        "lat": 48.12353242,
        "lon": -1.611284,
        "name": "Mare Pavée",
        "code": 2074
      },
      "arrival": 65340,
      "departure": 65340
    },
    {
      "stop": {
        "id": "2_2049",
        "lat": 48.12439647,
        "lon": -1.61407898,
        "name": "Les Lacs",
        "code": 2049
      },
      "arrival": 65400,
      "departure": 65400
    },
    {
      "stop": {
        "id": "2_2043",
        "lat": 48.12431542,
        "lon": -1.61844738,
        "name": "Cormier",
        "code": 2043
      },
      "arrival": 65400,
      "departure": 65400
    },
    {
      "stop": {
        "id": "2_2044",
        "lat": 48.1273076,
        "lon": -1.62420233,
        "name": "Belle Fontaine",
        "code": 2044
      },
      "arrival": 65520,
      "departure": 65520
    },
    {
      "stop": {
        "id": "2_2045",
        "lat": 48.12734821,
        "lon": -1.62821813,
        "name": "Clos Courtel",
        "code": 2045
      },
      "arrival": 65580,
      "departure": 65580
    },
    {
      "stop": {
        "id": "2_1291",
        "lat": 48.12475494,
        "lon": -1.63388412,
        "name": "IUT",
        "code": 1291
      },
      "arrival": 65640,
      "departure": 65640
    },
    {
      "stop": {
        "id": "2_1177",
        "lat": 48.12187978,
        "lon": -1.640286,
        "name": "Beaulieu Restau. U.",
        "code": 1177
      },
      "arrival": 65760,
      "departure": 65760
    },
    {
      "stop": {
        "id": "2_1178",
        "lat": 48.12078326,
        "lon": -1.64386488,
        "name": "Beaulieu Cité U.",
        "code": 1178
      },
      "arrival": 65760,
      "departure": 65760
    },
    {
      "stop": {
        "id": "2_1408",
        "lat": 48.11971485,
        "lon": -1.65129628,
        "name": "Vitré Péguy",
        "code": 1408
      },
      "arrival": 65880,
      "departure": 65880
    },
    {
      "stop": {
        "id": "2_1007",
        "lat": 48.12141888,
        "lon": -1.65505801,
        "name": "Assomption",
        "code": 1007
      },
      "arrival": 65940,
      "departure": 65940
    },
    {
      "stop": {
        "id": "2_1430",
        "lat": 48.12365829,
        "lon": -1.65939845,
        "name": "Painlevé",
        "code": 1430
      },
      "arrival": 66000,
      "departure": 66000
    },
    {
      "stop": {
        "id": "2_1532",
        "lat": 48.12705844,
        "lon": -1.65273754,
        "name": "Joliot-Curie",
        "code": 1532
      },
      "arrival": 66120,
      "departure": 66120
    },
    {
      "stop": {
        "id": "2_1405",
        "lat": 48.12834452,
        "lon": -1.65714602,
        "name": "Europe",
        "code": 1405
      },
      "arrival": 66240,
      "departure": 66240
    },
    {
      "stop": {
        "id": "2_1406",
        "lat": 48.13074039,
        "lon": -1.65650905,
        "name": "Gast",
        "code": 1406
      },
      "arrival": 66300,
      "departure": 66300
    },
    {
      "stop": {
        "id": "2_1407",
        "lat": 48.13305845,
        "lon": -1.65670003,
        "name": "Longs Prés",
        "code": 1407
      },
      "arrival": 66300,
      "departure": 66300
    },
    {
      "stop": {
        "id": "2_1428",
        "lat": 48.13448589,
        "lon": -1.65867078,
        "name": "Hôtel de Région",
        "code": 1428
      },
      "arrival": 66360,
      "departure": 66360
    },
    {
      "stop": {
        "id": "2_1410",
        "lat": 48.1364873,
        "lon": -1.66253723,
        "name": "Hélias",
        "code": 1410
      },
      "arrival": 66420,
      "departure": 66420
    },
    {
      "stop": {
        "id": "2_1253",
        "lat": 48.13666007,
        "lon": -1.66750822,
        "name": "Monts d\u0027Arrée",
        "code": 1253
      },
      "arrival": 66480,
      "departure": 66480
    },
    {
      "stop": {
        "id": "2_1254",
        "lat": 48.13675375,
        "lon": -1.67105825,
        "name": "Neruda",
        "code": 1254
      },
      "arrival": 66480,
      "departure": 66480
    },
    {
      "stop": {
        "id": "2_1255",
        "lat": 48.13455033,
        "lon": -1.67297749,
        "name": "Condate",
        "code": 1255
      },
      "arrival": 66540,
      "departure": 66540
    },
    {
      "stop": {
        "id": "2_1411",
        "lat": 48.13216462,
        "lon": -1.67290099,
        "name": "Bellangerais",
        "code": 1411
      },
      "arrival": 66600,
      "departure": 66600
    },
    {
      "stop": {
        "id": "2_1041",
        "lat": 48.12884165,
        "lon": -1.68371536,
        "name": "Trois Croix",
        "code": 1041
      },
      "arrival": 66720,
      "departure": 66720
    },
    {
      "stop": {
        "id": "2_1102",
        "lat": 48.13115995,
        "lon": -1.68458083,
        "name": "Donelière",
        "code": 1102
      },
      "arrival": 66780,
      "departure": 66780
    },
    {
      "stop": {
        "id": "2_1371",
        "lat": 48.13300291,
        "lon": -1.68506819,
        "name": "Lycée Mendès France",
        "code": 1371
      },
      "arrival": 66840,
      "departure": 66840
    },
    {
      "stop": {
        "id": "2_2803",
        "lat": 48.13739455,
        "lon": -1.6885143,
        "name": "La Plesse",
        "code": 2803
      },
      "arrival": 66960,
      "departure": 66960
    },
    {
      "stop": {
        "id": "2_2801",
        "lat": 48.13580524,
        "lon": -1.69311343,
        "name": "Grand Quartier",
        "code": 2801
      },
      "arrival": 67080,
      "departure": 67080
    },
    {
      "stop": {
        "id": "2_1537",
        "lat": 48.13157495,
        "lon": -1.69170144,
        "name": "Léonard",
        "code": 1537
      },
      "arrival": 67200,
      "departure": 67200
    },
    {
      "stop": {
        "id": "2_1303",
        "lat": 48.12832572,
        "lon": -1.69414225,
        "name": "Préfecture",
        "code": 1303
      },
      "arrival": 67260,
      "departure": 67260
    },
    {
      "stop": {
        "id": "2_1300",
        "lat": 48.12858619,
        "lon": -1.69873296,
        "name": "Cucillé",
        "code": 1300
      },
      "arrival": 67320,
      "departure": 67320
    },
    {
      "stop": {
        "id": "2_1305",
        "lat": 48.12765808,
        "lon": -1.70324184,
        "name": "Olympe de Gouges",
        "code": 1305
      },
      "arrival": 67440,
      "departure": 67440
    },
    {
      "stop": {
        "id": "2_1306",
        "lat": 48.12533687,
        "lon": -1.70312933,
        "name": "IRTS",
        "code": 1306
      },
      "arrival": 67500,
      "departure": 67500
    },
    {
      "stop": {
        "id": "2_1307",
        "lat": 48.12192614,
        "lon": -1.70388916,
        "name": "Villejean-Université",
        "code": 1307
      },
      "arrival": 67560,
      "departure": 67560
    },
    {
      "stop": {
        "id": "2_1412",
        "lat": 48.12134176,
        "lon": -1.70777107,
        "name": "Cours Kennedy",
        "code": 1412
      },
      "arrival": 67620,
      "departure": 67620
    },
    {
      "stop": {
        "id": "2_1423",
        "lat": 48.11853035,
        "lon": -1.70811008,
        "name": "Villejean-Churchill",
        "code": 1423
      },
      "arrival": 67740,
      "departure": 67740
    },
    {
      "stop": {
        "id": "2_1414",
        "lat": 48.11638524,
        "lon": -1.71215936,
        "name": "Merlin",
        "code": 1414
      },
      "arrival": 67860,
      "departure": 67860
    },
    {
      "stop": {
        "id": "2_1499",
        "lat": 48.11626024,
        "lon": -1.71595794,
        "name": "Colin",
        "code": 1499
      },
      "arrival": 67860,
      "departure": 67860
    },
    {
      "stop": {
        "id": "2_1421",
        "lat": 48.11470189,
        "lon": -1.71562282,
        "name": "Chambre Agriculture",
        "code": 1421
      },
      "arrival": 67920,
      "departure": 67920
    },
    {
      "stop": {
        "id": "2_1416",
        "lat": 48.11351144,
        "lon": -1.71436637,
        "name": "Atalante Champeaux",
        "code": 1416
      },
      "arrival": 67980,
      "departure": 67980
    },
    {
      "stop": {
        "id": "2_1419",
        "lat": 48.11116252,
        "lon": -1.71291833,
        "name": "Les Arts",
        "code": 1419
      },
      "arrival": 68040,
      "departure": 68040
    },
    {
      "stop": {
        "id": "2_1221",
        "lat": 48.10886588,
        "lon": -1.71061365,
        "name": "Géniaux",
        "code": 1221
      },
      "arrival": 68100,
      "departure": 68100
    },
    {
      "stop": {
        "id": "2_1222",
        "lat": 48.10807385,
        "lon": -1.71396182,
        "name": "Stade Rennais",
        "code": 1222
      },
      "arrival": 68160,
      "departure": 68160
    }
  ],
  "route": {
    "id": "2_0030",
    "textColor": "df171c",
    "color": "fef466",
    "description": "Inter-quartiers",
    "longName": "Stade Rennais \u003c\u003e Cesson-Sévigné (Rigourdière)",
    "shortName": "30",
    "type": 3,
    "agencyId": "2"
  }
}