{
  "headsign": "72 | Chartres Pont-Péan",
  "stopTimes": [
    {
      "stop": {
        "id": "2_1534",
        "lat": 48.088549,
        "lon": -1.67439,
        "name": "Henri Fréville",
        "code": 1534
      },
      "arrival": 60480,
      "departure": 60480
    },
    {
      "stop": {
        "id": "2_1449",
        "lat": 48.086865,
        "lon": -1.683079,
        "name": "Norvège",
        "code": 1449
      },
      "arrival": 60720,
      "departure": 60720
    },
    {
      "stop": {
        "id": "2_1450",
        "lat": 48.08669,
        "lon": -1.688453,
        "name": "Coubertin",
        "code": 1450
      },
      "arrival": 60780,
      "departure": 60780
    },
    {
      "stop": {
        "id": "2_1270",
        "lat": 48.085811,
        "lon": -1.694039,
        "name": "Félix Eboué",
        "code": 1270
      },
      "arrival": 60900,
      "departure": 60900
    },
    {
      "stop": {
        "id": "2_2262",
        "lat": 48.068729,
        "lon": -1.697896,
        "name": "Vallon",
        "code": 2262
      },
      "arrival": 61140,
      "departure": 61140
    },
    {
      "stop": {
        "id": "2_2704",
        "lat": 48.059279,
        "lon": -1.7013,
        "name": "Janais",
        "code": 2704
      },
      "arrival": 61260,
      "departure": 61260
    },
    {
      "stop": {
        "id": "2_2907",
        "lat": 48.045659,
        "lon": -1.710498,
        "name": "Croix aux Potiers",
        "code": 2907
      },
      "arrival": 61440,
      "departure": 61440
    },
    {
      "stop": {
        "id": "2_2918",
        "lat": 48.041976,
        "lon": -1.711045,
        "name": "Callouët",
        "code": 2918
      },
      "arrival": 61500,
      "departure": 61500
    },
    {
      "stop": {
        "id": "2_2919",
        "lat": 48.042323,
        "lon": -1.707466,
        "name": "Chartres Centre",
        "code": 2919
      },
      "arrival": 61560,
      "departure": 61560
    },
    {
      "stop": {
        "id": "2_2920",
        "lat": 48.041536,
        "lon": -1.702871,
        "name": "Auditoire",
        "code": 2920
      },
      "arrival": 61620,
      "departure": 61620
    },
    {
      "stop": {
        "id": "2_2921",
        "lat": 48.041222,
        "lon": -1.69777,
        "name": "Collège Pôle Sud",
        "code": 2921
      },
      "arrival": 61680,
      "departure": 61680
    },
    {
      "stop": {
        "id": "2_2922",
        "lat": 48.037057,
        "lon": -1.697209,
        "name": "Vieux Bourg",
        "code": 2922
      },
      "arrival": 61800,
      "departure": 61800
    },
    {
      "stop": {
        "id": "2_2923",
        "lat": 48.034735,
        "lon": -1.699894,
        "name": "Cornouaille",
        "code": 2923
      },
      "arrival": 61860,
      "departure": 61860
    },
    {
      "stop": {
        "id": "2_2924",
        "lat": 48.035534,
        "lon": -1.706095,
        "name": "Argoat",
        "code": 2924
      },
      "arrival": 61980,
      "departure": 61980
    },
    {
      "stop": {
        "id": "2_2927",
        "lat": 48.033169,
        "lon": -1.707484,
        "name": "Parc de Loisirs",
        "code": 2927
      },
      "arrival": 62040,
      "departure": 62040
    },
    {
      "stop": {
        "id": "2_2930",
        "lat": 48.031247,
        "lon": -1.709248,
        "name": "Constant Mérel",
        "code": 2930
      },
      "arrival": 62100,
      "departure": 62100
    },
    {
      "stop": {
        "id": "2_3909",
        "lat": 48.01986,
        "lon": -1.707123,
        "name": "Renaissance",
        "code": 3909
      },
      "arrival": 62280,
      "departure": 62280
    },
    {
      "stop": {
        "id": "2_3910",
        "lat": 48.016959,
        "lon": -1.705245,
        "name": "Fontaine Blanche",
        "code": 3910
      },
      "arrival": 62340,
      "departure": 62340
    },
    {
      "stop": {
        "id": "2_3911",
        "lat": 48.01369,
        "lon": -1.707704,
        "name": "Rivaudière",
        "code": 3911
      },
      "arrival": 62400,
      "departure": 62400
    },
    {
      "stop": {
        "id": "2_3912",
        "lat": 48.010772,
        "lon": -1.706394,
        "name": "Pont Péan Mairie",
        "code": 3912
      },
      "arrival": 62460,
      "departure": 62460
    },
    {
      "stop": {
        "id": "2_3904",
        "lat": 48.012935,
        "lon": -1.702976,
        "name": "Chemin Vert",
        "code": 3904
      },
      "arrival": 62520,
      "departure": 62520
    },
    {
      "stop": {
        "id": "2_3914",
        "lat": 48.010354,
        "lon": -1.701141,
        "name": "Mouton Blanc",
        "code": 3914
      },
      "arrival": 62580,
      "departure": 62580
    },
    {
      "stop": {
        "id": "2_3915",
        "lat": 48.006145,
        "lon": -1.698543,
        "name": "Caliorne",
        "code": 3915
      },
      "arrival": 62640,
      "departure": 62640
    },
    {
      "stop": {
        "id": "2_3901",
        "lat": 47.999909,
        "lon": -1.696968,
        "name": "Bois Esnault",
        "code": 3901
      },
      "arrival": 62700,
      "departure": 62700
    }
  ],
  "route": {
    "id": "2_0072",
    "textColor": "FFFFFF",
    "color": "004293",
    "description": "Métropolitaine",
    "longName": "Rennes (Henri Fréville) \u003c\u003e Chartres-de-Bretagne / Pont-Péan / Laillé",
    "shortName": "72",
    "type": 3,
    "agencyId": "2"
  }
}