{
  "headsign": "223 | Betton Chevaigné",
  "stopTimes": [
    {
      "stop": {
        "id": "2_2841",
        "lat": 48.16047975,
        "lon": -1.67677367,
        "name": "Parking scolaire Jean-Paul II",
        "code": 2841
      },
      "arrival": 44400,
      "departure": 44400
    },
    {
      "stop": {
        "id": "2_2417",
        "lat": 48.18170386,
        "lon": -1.63855109,
        "name": "Betton Centre",
        "code": 2417
      },
      "arrival": 44820,
      "departure": 44820
    },
    {
      "stop": {
        "id": "2_4610",
        "lat": 48.19918212,
        "lon": -1.62764716,
        "name": "Chopinais",
        "code": 4610
      },
      "arrival": 45120,
      "departure": 45120
    },
    {
      "stop": {
        "id": "2_4608",
        "lat": 48.20787045,
        "lon": -1.63064822,
        "name": "Chevaigné Gare",
        "code": 4608
      },
      "arrival": 45240,
      "departure": 45240
    },
    {
      "stop": {
        "id": "2_4601",
        "lat": 48.21171751,
        "lon": -1.63046022,
        "name": "Chevaigné Mairie",
        "code": 4601
      },
      "arrival": 45360,
      "departure": 45360
    },
    {
      "stop": {
        "id": "2_4602",
        "lat": 48.21431434,
        "lon": -1.62905651,
        "name": "Fonderies",
        "code": 4602
      },
      "arrival": 45420,
      "departure": 45420
    },
    {
      "stop": {
        "id": "2_4603",
        "lat": 48.21095412,
        "lon": -1.62602395,
        "name": "Pommiers",
        "code": 4603
      },
      "arrival": 45540,
      "departure": 45540
    }
  ],
  "route": {
    "id": "2_0223",
    "textColor": "FFFFFF",
    "color": "94C11F",
    "description": "Complémentaire",
    "longName": "Chevaigné (Pommiers) \u003c\u003e Saint-Grégoire (Lycée Jean-Paul II)",
    "shortName": "223",
    "type": 3,
    "agencyId": "2"
  }
}