{
  "headsign": "91 | Noyal-Châtillon-sur-Seiche",
  "stopTimes": [
    {
      "stop": {
        "id": "2_2327",
        "lat": 48.005026,
        "lon": -1.77502,
        "name": "Pont-Réan",
        "code": 2327
      },
      "arrival": 28380,
      "departure": 28380
    },
    {
      "stop": {
        "id": "2_2346",
        "lat": 48.008586,
        "lon": -1.773845,
        "name": "Croix Vaisserelle",
        "code": 2346
      },
      "arrival": 28500,
      "departure": 28500
    },
    {
      "stop": {
        "id": "2_2330",
        "lat": 48.024043,
        "lon": -1.761602,
        "name": "Rabine",
        "code": 2330
      },
      "arrival": 28980,
      "departure": 28980
    },
    {
      "stop": {
        "id": "2_2324",
        "lat": 48.024584,
        "lon": -1.757229,
        "name": "Haut Launay",
        "code": 2324
      },
      "arrival": 29040,
      "departure": 29040
    },
    {
      "stop": {
        "id": "2_2374",
        "lat": 48.024146,
        "lon": -1.752978,
        "name": "Châteliers",
        "code": 2374
      },
      "arrival": 29160,
      "departure": 29160
    },
    {
      "stop": {
        "id": "2_2353",
        "lat": 48.023379,
        "lon": -1.742999,
        "name": "Bruz Centre",
        "code": 2353
      },
      "arrival": 29400,
      "departure": 29400
    },
    {
      "stop": {
        "id": "2_2334",
        "lat": 48.023814,
        "lon": -1.736056,
        "name": "Pasteur",
        "code": 2334
      },
      "arrival": 29520,
      "departure": 29520
    },
    {
      "stop": {
        "id": "2_2335",
        "lat": 48.02629,
        "lon": -1.734494,
        "name": "Bobinais",
        "code": 2335
      },
      "arrival": 29580,
      "departure": 29580
    },
    {
      "stop": {
        "id": "2_2336",
        "lat": 48.030226,
        "lon": -1.734384,
        "name": "Champ Niguel",
        "code": 2336
      },
      "arrival": 29640,
      "departure": 29640
    },
    {
      "stop": {
        "id": "2_2337",
        "lat": 48.032956,
        "lon": -1.733031,
        "name": "Lavoisier",
        "code": 2337
      },
      "arrival": 29700,
      "departure": 29700
    },
    {
      "stop": {
        "id": "2_2326",
        "lat": 48.034154,
        "lon": -1.723867,
        "name": "Doublé",
        "code": 2326
      },
      "arrival": 29820,
      "departure": 29820
    },
    {
      "stop": {
        "id": "2_2350",
        "lat": 48.029373,
        "lon": -1.719131,
        "name": "Mare de la Salle",
        "code": 2350
      },
      "arrival": 30000,
      "departure": 30000
    },
    {
      "stop": {
        "id": "2_2903",
        "lat": 48.033355,
        "lon": -1.71163,
        "name": "Chaussairie",
        "code": 2903
      },
      "arrival": 30060,
      "departure": 30060
    },
    {
      "stop": {
        "id": "2_2904",
        "lat": 48.037002,
        "lon": -1.712353,
        "name": "Taillebois",
        "code": 2904
      },
      "arrival": 30120,
      "departure": 30120
    },
    {
      "stop": {
        "id": "2_2918",
        "lat": 48.041976,
        "lon": -1.711045,
        "name": "Callouët",
        "code": 2918
      },
      "arrival": 30180,
      "departure": 30180
    },
    {
      "stop": {
        "id": "2_2919",
        "lat": 48.042323,
        "lon": -1.707466,
        "name": "Chartres Centre",
        "code": 2919
      },
      "arrival": 30240,
      "departure": 30240
    },
    {
      "stop": {
        "id": "2_2920",
        "lat": 48.041536,
        "lon": -1.702871,
        "name": "Auditoire",
        "code": 2920
      },
      "arrival": 30300,
      "departure": 30300
    },
    {
      "stop": {
        "id": "2_2926",
        "lat": 48.041691,
        "lon": -1.696068,
        "name": "Collège Pôle Sud",
        "code": 2926
      },
      "arrival": 30420,
      "departure": 30420
    },
    {
      "stop": {
        "id": "2_2751",
        "lat": 48.039386,
        "lon": -1.680127,
        "name": "Monts Gaultier",
        "code": 2751
      },
      "arrival": 30600,
      "departure": 30600
    },
    {
      "stop": {
        "id": "2_2725",
        "lat": 48.03955,
        "lon": -1.676476,
        "name": "Guyomerais",
        "code": 2725
      },
      "arrival": 30660,
      "departure": 30660
    },
    {
      "stop": {
        "id": "2_2707",
        "lat": 48.040768,
        "lon": -1.671907,
        "name": "Potiers",
        "code": 2707
      },
      "arrival": 30720,
      "departure": 30720
    },
    {
      "stop": {
        "id": "2_2708",
        "lat": 48.042386,
        "lon": -1.665537,
        "name": "Centre",
        "code": 2708
      },
      "arrival": 30840,
      "departure": 30840
    },
    {
      "stop": {
        "id": "2_2709",
        "lat": 48.044053,
        "lon": -1.661183,
        "name": "Salle Polyvalente",
        "code": 2709
      },
      "arrival": 30900,
      "departure": 30900
    },
    {
      "stop": {
        "id": "2_2710",
        "lat": 48.047169,
        "lon": -1.661203,
        "name": "Petite Saudrais",
        "code": 2710
      },
      "arrival": 30960,
      "departure": 30960
    }
  ],
  "route": {
    "id": "2_0091",
    "textColor": "1A171B",
    "color": "AECC52",
    "description": "Intercommunale",
    "longName": "Bruz / Chartres \u003c\u003e Noyal-Châtillon-sur-Seiche",
    "shortName": "91",
    "type": 3,
    "agencyId": "2"
  }
}