{
  "headsign": "11 | ZI Ouest",
  "stopTimes": [
    {
      "stop": {
        "id": "2_1208",
        "lat": 48.104165,
        "lon": -1.637787,
        "name": "Saint-Saëns",
        "code": 1208
      },
      "arrival": 40080,
      "departure": 40080
    },
    {
      "stop": {
        "id": "2_1209",
        "lat": 48.105033,
        "lon": -1.64458,
        "name": "Pavie",
        "code": 1209
      },
      "arrival": 40140,
      "departure": 40140
    },
    {
      "stop": {
        "id": "2_1210",
        "lat": 48.10431,
        "lon": -1.64971,
        "name": "Cimetière de l\u0027Est",
        "code": 1210
      },
      "arrival": 40200,
      "departure": 40200
    },
    {
      "stop": {
        "id": "2_1245",
        "lat": 48.103213,
        "lon": -1.652536,
        "name": "Serpette",
        "code": 1245
      },
      "arrival": 40260,
      "departure": 40260
    },
    {
      "stop": {
        "id": "2_1212",
        "lat": 48.101949,
        "lon": -1.656538,
        "name": "Mouézy",
        "code": 1212
      },
      "arrival": 40320,
      "departure": 40320
    },
    {
      "stop": {
        "id": "2_1213",
        "lat": 48.102902,
        "lon": -1.661403,
        "name": "Croix Saint-Hélier",
        "code": 1213
      },
      "arrival": 40380,
      "departure": 40380
    },
    {
      "stop": {
        "id": "2_1057",
        "lat": 48.104747,
        "lon": -1.667176,
        "name": "Laënnec",
        "code": 1057
      },
      "arrival": 40500,
      "departure": 40500
    },
    {
      "stop": {
        "id": "2_1056",
        "lat": 48.103956,
        "lon": -1.673185,
        "name": "Gares",
        "code": 1056
      },
      "arrival": 40620,
      "departure": 40620
    },
    {
      "stop": {
        "id": "2_1055",
        "lat": 48.106057,
        "lon": -1.67401,
        "name": "Champs Libres",
        "code": 1055
      },
      "arrival": 40740,
      "departure": 40740
    },
    {
      "stop": {
        "id": "2_1054",
        "lat": 48.107564,
        "lon": -1.675176,
        "name": "Liberté TNB",
        "code": 1054
      },
      "arrival": 40800,
      "departure": 40800
    },
    {
      "stop": {
        "id": "2_1214",
        "lat": 48.109932,
        "lon": -1.679644,
        "name": "République",
        "code": 1214
      },
      "arrival": 40980,
      "departure": 40980
    },
    {
      "stop": {
        "id": "2_1051",
        "lat": 48.109888,
        "lon": -1.68328,
        "name": "Place de Bretagne",
        "code": 1051
      },
      "arrival": 41040,
      "departure": 41040
    },
    {
      "stop": {
        "id": "2_1216",
        "lat": 48.109176,
        "lon": -1.690514,
        "name": "Le Mail",
        "code": 1216
      },
      "arrival": 41160,
      "departure": 41160
    },
    {
      "stop": {
        "id": "2_1217",
        "lat": 48.108252,
        "lon": -1.694511,
        "name": "Chèques Postaux",
        "code": 1217
      },
      "arrival": 41220,
      "departure": 41220
    },
    {
      "stop": {
        "id": "2_1218",
        "lat": 48.109099,
        "lon": -1.697997,
        "name": "Guilloux Lorient",
        "code": 1218
      },
      "arrival": 41340,
      "departure": 41340
    },
    {
      "stop": {
        "id": "2_1219",
        "lat": 48.108274,
        "lon": -1.703743,
        "name": "Papeteries",
        "code": 1219
      },
      "arrival": 41400,
      "departure": 41400
    },
    {
      "stop": {
        "id": "2_1220",
        "lat": 48.109162,
        "lon": -1.706366,
        "name": "Kerviler",
        "code": 1220
      },
      "arrival": 41460,
      "departure": 41460
    },
    {
      "stop": {
        "id": "2_1221",
        "lat": 48.108871,
        "lon": -1.710766,
        "name": "Géniaux",
        "code": 1221
      },
      "arrival": 41520,
      "departure": 41520
    },
    {
      "stop": {
        "id": "2_1222",
        "lat": 48.108107,
        "lon": -1.714065,
        "name": "Stade Rennais",
        "code": 1222
      },
      "arrival": 41580,
      "departure": 41580
    },
    {
      "stop": {
        "id": "2_1223",
        "lat": 48.106212,
        "lon": -1.723891,
        "name": "Le Hô",
        "code": 1223
      },
      "arrival": 41760,
      "departure": 41760
    },
    {
      "stop": {
        "id": "2_1224",
        "lat": 48.102975,
        "lon": -1.7234,
        "name": "Robinot de St-Cyr",
        "code": 1224
      },
      "arrival": 41820,
      "departure": 41820
    },
    {
      "stop": {
        "id": "2_1225",
        "lat": 48.10213,
        "lon": -1.727062,
        "name": "Jardin Moderne",
        "code": 1225
      },
      "arrival": 41820,
      "departure": 41820
    },
    {
      "stop": {
        "id": "2_1226",
        "lat": 48.101258,
        "lon": -1.731769,
        "name": "Servigné",
        "code": 1226
      },
      "arrival": 41880,
      "departure": 41880
    },
    {
      "stop": {
        "id": "2_3768",
        "lat": 48.104219,
        "lon": -1.735894,
        "name": "Marais",
        "code": 3768
      },
      "arrival": 41940,
      "departure": 41940
    },
    {
      "stop": {
        "id": "2_3753",
        "lat": 48.10575,
        "lon": -1.740014,
        "name": "Trois Marches",
        "code": 3753
      },
      "arrival": 42000,
      "departure": 42000
    },
    {
      "stop": {
        "id": "2_3751",
        "lat": 48.107431,
        "lon": -1.739281,
        "name": "ZI Ouest",
        "code": 3751
      },
      "arrival": 42060,
      "departure": 42060
    }
  ],
  "route": {
    "id": "2_0011",
    "textColor": "FFFFFF",
    "color": "DD84B1",
    "description": "Urbaine",
    "longName": "ZI Ouest / Stade Rennais \u003c\u003e Saint-Saëns / La Poterie",
    "shortName": "11",
    "type": 3,
    "agencyId": "2"
  }
}