{
  "headsign": "2 | Haut Sancé",
  "stopTimes": [
    {
      "stop": {
        "id": "2_2801",
        "lat": 48.13580525,
        "lon": -1.69311343,
        "name": "Grand Quartier",
        "code": 2801
      },
      "arrival": 80820,
      "departure": 80820
    },
    {
      "stop": {
        "id": "2_2815",
        "lat": 48.13721048,
        "lon": -1.68638899,
        "name": "La Plesse",
        "code": 2815
      },
      "arrival": 80940,
      "departure": 80940
    },
    {
      "stop": {
        "id": "2_1328",
        "lat": 48.1332141,
        "lon": -1.68528827,
        "name": "Lycée Mendès France",
        "code": 1328
      },
      "arrival": 81000,
      "departure": 81000
    },
    {
      "stop": {
        "id": "2_1040",
        "lat": 48.13006097,
        "lon": -1.6843352,
        "name": "Donelière",
        "code": 1040
      },
      "arrival": 81060,
      "departure": 81060
    },
    {
      "stop": {
        "id": "2_1101",
        "lat": 48.1272746,
        "lon": -1.68322628,
        "name": "Trois Croix",
        "code": 1101
      },
      "arrival": 81060,
      "departure": 81060
    },
    {
      "stop": {
        "id": "2_1042",
        "lat": 48.12442016,
        "lon": -1.68178832,
        "name": "Cimetière Nord",
        "code": 1042
      },
      "arrival": 81120,
      "departure": 81120
    },
    {
      "stop": {
        "id": "2_1043",
        "lat": 48.12359497,
        "lon": -1.68417898,
        "name": "Saint-Martin",
        "code": 1043
      },
      "arrival": 81180,
      "departure": 81180
    },
    {
      "stop": {
        "id": "2_1044",
        "lat": 48.12224848,
        "lon": -1.68585015,
        "name": "ESPE (ex IUFM)",
        "code": 1044
      },
      "arrival": 81240,
      "departure": 81240
    },
    {
      "stop": {
        "id": "2_1046",
        "lat": 48.11822289,
        "lon": -1.6893522,
        "name": "Anatole France",
        "code": 1046
      },
      "arrival": 81360,
      "departure": 81360
    },
    {
      "stop": {
        "id": "2_1047",
        "lat": 48.11617754,
        "lon": -1.69116733,
        "name": "La Touche",
        "code": 1047
      },
      "arrival": 81420,
      "departure": 81420
    },
    {
      "stop": {
        "id": "2_1048",
        "lat": 48.11334584,
        "lon": -1.69345994,
        "name": "Brest Verdun",
        "code": 1048
      },
      "arrival": 81480,
      "departure": 81480
    },
    {
      "stop": {
        "id": "2_1049",
        "lat": 48.11168311,
        "lon": -1.68948939,
        "name": "Horizons",
        "code": 1049
      },
      "arrival": 81600,
      "departure": 81600
    },
    {
      "stop": {
        "id": "2_1050",
        "lat": 48.11173644,
        "lon": -1.68701739,
        "name": "Les Lices",
        "code": 1050
      },
      "arrival": 81660,
      "departure": 81660
    },
    {
      "stop": {
        "id": "2_1091",
        "lat": 48.10977886,
        "lon": -1.68388248,
        "name": "Place de Bretagne",
        "code": 1091
      },
      "arrival": 81720,
      "departure": 81720
    },
    {
      "stop": {
        "id": "2_1090",
        "lat": 48.10952605,
        "lon": -1.6779074,
        "name": "République",
        "code": 1090
      },
      "arrival": 81840,
      "departure": 82200
    },
    {
      "stop": {
        "id": "2_1088",
        "lat": 48.10744897,
        "lon": -1.67491383,
        "name": "Liberté TNB",
        "code": 1088
      },
      "arrival": 82320,
      "departure": 82320
    },
    {
      "stop": {
        "id": "2_1087",
        "lat": 48.1060299,
        "lon": -1.67410184,
        "name": "Champs Libres",
        "code": 1087
      },
      "arrival": 82380,
      "departure": 82380
    },
    {
      "stop": {
        "id": "2_1575",
        "lat": 48.10375866,
        "lon": -1.67132416,
        "name": "Gares",
        "code": 1575
      },
      "arrival": 82440,
      "departure": 82440
    },
    {
      "stop": {
        "id": "2_1085",
        "lat": 48.10476768,
        "lon": -1.66658594,
        "name": "Laënnec",
        "code": 1085
      },
      "arrival": 82560,
      "departure": 82560
    },
    {
      "stop": {
        "id": "2_1243",
        "lat": 48.10254897,
        "lon": -1.66111869,
        "name": "Croix Saint-Hélier",
        "code": 1243
      },
      "arrival": 82620,
      "departure": 82620
    },
    {
      "stop": {
        "id": "2_1060",
        "lat": 48.09952833,
        "lon": -1.65755292,
        "name": "Piré",
        "code": 1060
      },
      "arrival": 82680,
      "departure": 82680
    },
    {
      "stop": {
        "id": "2_1061",
        "lat": 48.09733006,
        "lon": -1.65433141,
        "name": "Bourgeois",
        "code": 1061
      },
      "arrival": 82740,
      "departure": 82740
    },
    {
      "stop": {
        "id": "2_1062",
        "lat": 48.09512646,
        "lon": -1.65055801,
        "name": "Calmette",
        "code": 1062
      },
      "arrival": 82800,
      "departure": 82800
    },
    {
      "stop": {
        "id": "2_1063",
        "lat": 48.0927684,
        "lon": -1.64749794,
        "name": "Monsieur Vincent",
        "code": 1063
      },
      "arrival": 82860,
      "departure": 82860
    },
    {
      "stop": {
        "id": "2_1064",
        "lat": 48.09035104,
        "lon": -1.64502494,
        "name": "Lycée Descartes",
        "code": 1064
      },
      "arrival": 82920,
      "departure": 82920
    },
    {
      "stop": {
        "id": "2_1077",
        "lat": 48.08744064,
        "lon": -1.64342249,
        "name": "La Poterie",
        "code": 1077
      },
      "arrival": 82980,
      "departure": 82980
    },
    {
      "stop": {
        "id": "2_1066",
        "lat": 48.08780025,
        "lon": -1.63864028,
        "name": "Monnet",
        "code": 1066
      },
      "arrival": 83040,
      "departure": 83040
    },
    {
      "stop": {
        "id": "2_1067",
        "lat": 48.08943166,
        "lon": -1.63541842,
        "name": "Bourgueil",
        "code": 1067
      },
      "arrival": 83100,
      "departure": 83100
    },
    {
      "stop": {
        "id": "2_1068",
        "lat": 48.09201511,
        "lon": -1.63642544,
        "name": "Gohier",
        "code": 1068
      },
      "arrival": 83100,
      "departure": 83100
    },
    {
      "stop": {
        "id": "2_1069",
        "lat": 48.09270738,
        "lon": -1.63967507,
        "name": "Ronceray",
        "code": 1069
      },
      "arrival": 83160,
      "departure": 83160
    },
    {
      "stop": {
        "id": "2_1070",
        "lat": 48.09445007,
        "lon": -1.63799813,
        "name": "CARSAT",
        "code": 1070
      },
      "arrival": 83220,
      "departure": 83220
    },
    {
      "stop": {
        "id": "2_1071",
        "lat": 48.09618325,
        "lon": -1.63701996,
        "name": "Haut Sancé",
        "code": 1071
      },
      "arrival": 83220,
      "departure": 83220
    }
  ],
  "route": {
    "id": "2_0002",
    "textColor": "FFFFFF",
    "color": "008BCF",
    "description": "Majeure",
    "longName": "Grand Quartier \u003c\u003e La Poterie / Haut Sancé",
    "shortName": "2",
    "type": 3,
    "agencyId": "2"
  }
}