{
  "headsign": "33 | Chantepie Cucé",
  "stopTimes": [
    {
      "stop": {
        "id": "2_2220",
        "lat": 48.061591,
        "lon": -1.72464,
        "name": "Gautrais",
        "code": 2220
      },
      "arrival": 46800,
      "departure": 46800
    },
    {
      "stop": {
        "id": "2_2221",
        "lat": 48.06308,
        "lon": -1.720537,
        "name": "Rossel",
        "code": 2221
      },
      "arrival": 46860,
      "departure": 46860
    },
    {
      "stop": {
        "id": "2_2234",
        "lat": 48.066447,
        "lon": -1.720123,
        "name": "Pommerais",
        "code": 2234
      },
      "arrival": 46920,
      "departure": 46920
    },
    {
      "stop": {
        "id": "2_2223",
        "lat": 48.067334,
        "lon": -1.716885,
        "name": "Abbé Grimault",
        "code": 2223
      },
      "arrival": 46980,
      "departure": 46980
    },
    {
      "stop": {
        "id": "2_2201",
        "lat": 48.075489,
        "lon": -1.716264,
        "name": "Morinais",
        "code": 2201
      },
      "arrival": 47160,
      "departure": 47160
    },
    {
      "stop": {
        "id": "2_2202",
        "lat": 48.077395,
        "lon": -1.715725,
        "name": "Collège Jean Moulin",
        "code": 2202
      },
      "arrival": 47220,
      "departure": 47220
    },
    {
      "stop": {
        "id": "2_2214",
        "lat": 48.079869,
        "lon": -1.715526,
        "name": "Médiathèque",
        "code": 2214
      },
      "arrival": 47280,
      "departure": 47280
    },
    {
      "stop": {
        "id": "2_2204",
        "lat": 48.082557,
        "lon": -1.715255,
        "name": "Jean Marin",
        "code": 2204
      },
      "arrival": 47280,
      "departure": 47280
    },
    {
      "stop": {
        "id": "2_2263",
        "lat": 48.082518,
        "lon": -1.712313,
        "name": "Jean Jaurès",
        "code": 2263
      },
      "arrival": 47340,
      "departure": 47340
    },
    {
      "stop": {
        "id": "2_2205",
        "lat": 48.083243,
        "lon": -1.710049,
        "name": "Roger Dodin",
        "code": 2205
      },
      "arrival": 47400,
      "departure": 47400
    },
    {
      "stop": {
        "id": "2_2225",
        "lat": 48.086811,
        "lon": -1.70563,
        "name": "Gaité",
        "code": 2225
      },
      "arrival": 47460,
      "departure": 47460
    },
    {
      "stop": {
        "id": "2_2230",
        "lat": 48.086456,
        "lon": -1.701833,
        "name": "Rablais Allende",
        "code": 2230
      },
      "arrival": 47520,
      "departure": 47520
    },
    {
      "stop": {
        "id": "2_2227",
        "lat": 48.089415,
        "lon": -1.697855,
        "name": "Croix Verte",
        "code": 2227
      },
      "arrival": 47640,
      "departure": 47640
    },
    {
      "stop": {
        "id": "2_2271",
        "lat": 48.090501,
        "lon": -1.69494,
        "name": "25 Fusillés",
        "code": 2271
      },
      "arrival": 47700,
      "departure": 47700
    },
    {
      "stop": {
        "id": "2_1454",
        "lat": 48.089581,
        "lon": -1.691241,
        "name": "Bréquigny Piscine",
        "code": 1454
      },
      "arrival": 47760,
      "departure": 47760
    },
    {
      "stop": {
        "id": "2_1455",
        "lat": 48.086702,
        "lon": -1.691043,
        "name": "Lycée Bréquigny",
        "code": 1455
      },
      "arrival": 47820,
      "departure": 47820
    },
    {
      "stop": {
        "id": "2_1456",
        "lat": 48.086541,
        "lon": -1.687451,
        "name": "Coubertin",
        "code": 1456
      },
      "arrival": 47880,
      "departure": 47880
    },
    {
      "stop": {
        "id": "2_1457",
        "lat": 48.086765,
        "lon": -1.683887,
        "name": "Norvège",
        "code": 1457
      },
      "arrival": 47880,
      "departure": 47880
    },
    {
      "stop": {
        "id": "2_1130",
        "lat": 48.085168,
        "lon": -1.682537,
        "name": "Canada",
        "code": 1130
      },
      "arrival": 47940,
      "departure": 47940
    },
    {
      "stop": {
        "id": "2_1623",
        "lat": 48.083961,
        "lon": -1.678307,
        "name": "Alma",
        "code": 1623
      },
      "arrival": 48000,
      "departure": 48000
    },
    {
      "stop": {
        "id": "2_1459",
        "lat": 48.08809,
        "lon": -1.674269,
        "name": "Henri Fréville",
        "code": 1459
      },
      "arrival": 48180,
      "departure": 48180
    },
    {
      "stop": {
        "id": "2_1460",
        "lat": 48.089349,
        "lon": -1.674222,
        "name": "Argonautes",
        "code": 1460
      },
      "arrival": 48180,
      "departure": 48180
    },
    {
      "stop": {
        "id": "2_1461",
        "lat": 48.093659,
        "lon": -1.673762,
        "name": "Clemenceau",
        "code": 1461
      },
      "arrival": 48300,
      "departure": 48300
    },
    {
      "stop": {
        "id": "2_1462",
        "lat": 48.093478,
        "lon": -1.670045,
        "name": "Combes",
        "code": 1462
      },
      "arrival": 48360,
      "departure": 48360
    },
    {
      "stop": {
        "id": "2_1464",
        "lat": 48.091295,
        "lon": -1.666295,
        "name": "Binquenais",
        "code": 1464
      },
      "arrival": 48480,
      "departure": 48480
    },
    {
      "stop": {
        "id": "2_1463",
        "lat": 48.091328,
        "lon": -1.663129,
        "name": "Binquenais Collège",
        "code": 1463
      },
      "arrival": 48480,
      "departure": 48480
    },
    {
      "stop": {
        "id": "2_1465",
        "lat": 48.086117,
        "lon": -1.661119,
        "name": "Triangle",
        "code": 1465
      },
      "arrival": 48660,
      "departure": 48660
    },
    {
      "stop": {
        "id": "2_1353",
        "lat": 48.084535,
        "lon": -1.657962,
        "name": "Torigné",
        "code": 1353
      },
      "arrival": 48720,
      "departure": 48720
    },
    {
      "stop": {
        "id": "2_1466",
        "lat": 48.085058,
        "lon": -1.65386,
        "name": "Hôpital Sud",
        "code": 1466
      },
      "arrival": 48780,
      "departure": 48780
    },
    {
      "stop": {
        "id": "2_1467",
        "lat": 48.087513,
        "lon": -1.653273,
        "name": "Le Blosne",
        "code": 1467
      },
      "arrival": 48840,
      "departure": 48840
    },
    {
      "stop": {
        "id": "2_1356",
        "lat": 48.087458,
        "lon": -1.649853,
        "name": "Galicie",
        "code": 1356
      },
      "arrival": 48900,
      "departure": 48900
    },
    {
      "stop": {
        "id": "2_1468",
        "lat": 48.087383,
        "lon": -1.645367,
        "name": "La Poterie",
        "code": 1468
      },
      "arrival": 48960,
      "departure": 48960
    },
    {
      "stop": {
        "id": "2_3020",
        "lat": 48.080652,
        "lon": -1.630601,
        "name": "Val Blanc",
        "code": 3020
      },
      "arrival": 49140,
      "departure": 49140
    },
    {
      "stop": {
        "id": "2_3021",
        "lat": 48.0846,
        "lon": -1.627505,
        "name": "Rocade Sud",
        "code": 3021
      },
      "arrival": 49260,
      "departure": 49260
    },
    {
      "stop": {
        "id": "2_3008",
        "lat": 48.09031,
        "lon": -1.62417,
        "name": "Loges",
        "code": 3008
      },
      "arrival": 49380,
      "departure": 49380
    },
    {
      "stop": {
        "id": "2_3009",
        "lat": 48.088351,
        "lon": -1.619091,
        "name": "Chantepie Mairie",
        "code": 3009
      },
      "arrival": 49440,
      "departure": 49440
    },
    {
      "stop": {
        "id": "2_3010",
        "lat": 48.088212,
        "lon": -1.616864,
        "name": "Chantepie Eglise",
        "code": 3010
      },
      "arrival": 49500,
      "departure": 49500
    },
    {
      "stop": {
        "id": "2_3022",
        "lat": 48.091041,
        "lon": -1.615283,
        "name": "Hallouvry",
        "code": 3022
      },
      "arrival": 49500,
      "departure": 49500
    },
    {
      "stop": {
        "id": "2_3017",
        "lat": 48.092504,
        "lon": -1.61292,
        "name": "IDEFS",
        "code": 3017
      },
      "arrival": 49560,
      "departure": 49560
    },
    {
      "stop": {
        "id": "2_3016",
        "lat": 48.093514,
        "lon": -1.607562,
        "name": "Cucé",
        "code": 3016
      },
      "arrival": 49620,
      "departure": 49620
    }
  ],
  "route": {
    "id": "2_0033",
    "textColor": "E2001A",
    "color": "FFF164",
    "description": "Inter-quartiers",
    "longName": "Saint-Jacques-de-la-Lande (Gautrais) / Bréquigny \u003c\u003e La Poterie / Chantepie (Cucé)",
    "shortName": "33",
    "type": 3,
    "agencyId": "2"
  }
}