{
  "headsign": "KL | Ker-Lann",
  "stopTimes": [
    {
      "stop": {
        "id": "2_1501",
        "lat": 48.109403,
        "lon": -1.679768,
        "name": "République Pré Botté",
        "code": 1501
      },
      "arrival": 30600,
      "departure": 30600
    },
    {
      "stop": {
        "id": "2_1018",
        "lat": 48.106204,
        "lon": -1.680999,
        "name": "Plélo Colombier",
        "code": 1018
      },
      "arrival": 30780,
      "departure": 30780
    },
    {
      "stop": {
        "id": "2_2315",
        "lat": 48.052844,
        "lon": -1.73842,
        "name": "Lande du Pont",
        "code": 2315
      },
      "arrival": 31860,
      "departure": 31860
    },
    {
      "stop": {
        "id": "2_2316",
        "lat": 48.049376,
        "lon": -1.740727,
        "name": "Etangs",
        "code": 2316
      },
      "arrival": 31920,
      "departure": 31920
    },
    {
      "stop": {
        "id": "2_2317",
        "lat": 48.047427,
        "lon": -1.742103,
        "name": "Coeur de Campus",
        "code": 2317
      },
      "arrival": 31980,
      "departure": 31980
    },
    {
      "stop": {
        "id": "2_2309",
        "lat": 48.044622,
        "lon": -1.746502,
        "name": "Schuman",
        "code": 2309
      },
      "arrival": 32040,
      "departure": 32040
    }
  ],
  "route": {
    "id": "2_0158",
    "textColor": "3D3C3F",
    "color": "FFDD00",
    "description": "Express métropolitaine",
    "longName": "Rennes (République) \u003c\u003e Campus de Ker-Lann",
    "shortName": "KL",
    "type": 3,
    "agencyId": "2"
  }
}