{
  "headsign": "56 | Rennes Charles de Gaulle",
  "stopTimes": [
    {
      "stop": {
        "id": "2_4201",
        "lat": 48.0519556,
        "lon": -1.79762199,
        "name": "Croix Blanche",
        "code": 4201
      },
      "arrival": 22800,
      "departure": 22800
    },
    {
      "stop": {
        "id": "2_4202",
        "lat": 48.05201225,
        "lon": -1.79070221,
        "name": "Calvaire",
        "code": 4202
      },
      "arrival": 22920,
      "departure": 22920
    },
    {
      "stop": {
        "id": "2_4210",
        "lat": 48.05473856,
        "lon": -1.7901693,
        "name": "Alfred de Musset",
        "code": 4210
      },
      "arrival": 22920,
      "departure": 22920
    },
    {
      "stop": {
        "id": "2_4204",
        "lat": 48.05399506,
        "lon": -1.78384914,
        "name": "Avenir",
        "code": 4204
      },
      "arrival": 22980,
      "departure": 22980
    },
    {
      "stop": {
        "id": "2_4205",
        "lat": 48.05814163,
        "lon": -1.77631699,
        "name": "Grippay",
        "code": 4205
      },
      "arrival": 23100,
      "departure": 23100
    },
    {
      "stop": {
        "id": "2_4206",
        "lat": 48.0632306,
        "lon": -1.77243271,
        "name": "Mare Doux",
        "code": 4206
      },
      "arrival": 23160,
      "departure": 23160
    },
    {
      "stop": {
        "id": "2_2525",
        "lat": 48.07846,
        "lon": -1.77125189,
        "name": "Haut Plessis",
        "code": 2525
      },
      "arrival": 23340,
      "departure": 23340
    },
    {
      "stop": {
        "id": "2_2526",
        "lat": 48.08034971,
        "lon": -1.77444951,
        "name": "Moigné",
        "code": 2526
      },
      "arrival": 23400,
      "departure": 23400
    },
    {
      "stop": {
        "id": "2_2522",
        "lat": 48.09401721,
        "lon": -1.77398903,
        "name": "Mahomat",
        "code": 2522
      },
      "arrival": 23580,
      "departure": 23580
    },
    {
      "stop": {
        "id": "2_2509",
        "lat": 48.0961416,
        "lon": -1.76472044,
        "name": "Pont d\u0027Avoine",
        "code": 2509
      },
      "arrival": 23640,
      "departure": 23640
    },
    {
      "stop": {
        "id": "2_3752",
        "lat": 48.10474061,
        "lon": -1.73906178,
        "name": "Trois Marches",
        "code": 3752
      },
      "arrival": 23820,
      "departure": 23820
    },
    {
      "stop": {
        "id": "2_1508",
        "lat": 48.10673486,
        "lon": -1.7291459,
        "name": "Berthault",
        "code": 1508
      },
      "arrival": 23880,
      "departure": 23880
    },
    {
      "stop": {
        "id": "2_1233",
        "lat": 48.10704452,
        "lon": -1.72187845,
        "name": "Lemaistre",
        "code": 1233
      },
      "arrival": 23940,
      "departure": 23940
    },
    {
      "stop": {
        "id": "2_1235",
        "lat": 48.10892663,
        "lon": -1.70977108,
        "name": "Géniaux",
        "code": 1235
      },
      "arrival": 24060,
      "departure": 24060
    },
    {
      "stop": {
        "id": "2_1238",
        "lat": 48.1086959,
        "lon": -1.69884796,
        "name": "Guilloux Lorient",
        "code": 1238
      },
      "arrival": 24180,
      "departure": 24180
    },
    {
      "stop": {
        "id": "2_1239",
        "lat": 48.10814248,
        "lon": -1.6948685,
        "name": "Chèques Postaux",
        "code": 1239
      },
      "arrival": 24240,
      "departure": 24240
    },
    {
      "stop": {
        "id": "2_1542",
        "lat": 48.10997275,
        "lon": -1.68535336,
        "name": "Pont de Bretagne",
        "code": 1542
      },
      "arrival": 24420,
      "departure": 24420
    },
    {
      "stop": {
        "id": "2_1242",
        "lat": 48.10980333,
        "lon": -1.6795219,
        "name": "République",
        "code": 1242
      },
      "arrival": 24480,
      "departure": 24480
    },
    {
      "stop": {
        "id": "2_1088",
        "lat": 48.10744897,
        "lon": -1.67491383,
        "name": "Liberté TNB",
        "code": 1088
      },
      "arrival": 24600,
      "departure": 24600
    },
    {
      "stop": {
        "id": "2_1595",
        "lat": 48.1058325,
        "lon": -1.67730047,
        "name": "Charles de Gaulle",
        "code": 1595
      },
      "arrival": 24720,
      "departure": 24720
    }
  ],
  "route": {
    "id": "2_0056",
    "textColor": "ffffff",
    "color": "009a4a",
    "description": "Métropolitaine",
    "longName": "Rennes (Charles de Gaulle) \u003c\u003e Chavagne",
    "shortName": "56",
    "type": 3,
    "agencyId": "2"
  }
}