{
  "headsign": "3 | Saint-Laurent",
  "stopTimes": [
    {
      "stop": {
        "id": "2_1509",
        "lat": 48.087822,
        "lon": -1.674555,
        "name": "Henri Fréville",
        "code": 1509
      },
      "arrival": 79200,
      "departure": 79200
    },
    {
      "stop": {
        "id": "2_1622",
        "lat": 48.084157,
        "lon": -1.679166,
        "name": "Alma",
        "code": 1622
      },
      "arrival": 79320,
      "departure": 79320
    },
    {
      "stop": {
        "id": "2_1134",
        "lat": 48.085207,
        "lon": -1.682259,
        "name": "Canada",
        "code": 1134
      },
      "arrival": 79380,
      "departure": 79380
    },
    {
      "stop": {
        "id": "2_1135",
        "lat": 48.088085,
        "lon": -1.68215,
        "name": "Suède",
        "code": 1135
      },
      "arrival": 79440,
      "departure": 79440
    },
    {
      "stop": {
        "id": "2_1136",
        "lat": 48.091086,
        "lon": -1.682019,
        "name": "Champs Manceaux",
        "code": 1136
      },
      "arrival": 79500,
      "departure": 79500
    },
    {
      "stop": {
        "id": "2_1137",
        "lat": 48.093597,
        "lon": -1.681809,
        "name": "Frères Moine",
        "code": 1137
      },
      "arrival": 79560,
      "departure": 79560
    },
    {
      "stop": {
        "id": "2_1138",
        "lat": 48.096363,
        "lon": -1.681543,
        "name": "Garigliano",
        "code": 1138
      },
      "arrival": 79620,
      "departure": 79620
    },
    {
      "stop": {
        "id": "2_1139",
        "lat": 48.096914,
        "lon": -1.678484,
        "name": "Sacrés Coeurs",
        "code": 1139
      },
      "arrival": 79680,
      "departure": 79680
    },
    {
      "stop": {
        "id": "2_1333",
        "lat": 48.097824,
        "lon": -1.675165,
        "name": "Jacques Cartier",
        "code": 1333
      },
      "arrival": 79740,
      "departure": 79740
    },
    {
      "stop": {
        "id": "2_1141",
        "lat": 48.099331,
        "lon": -1.675564,
        "name": "Ginguené",
        "code": 1141
      },
      "arrival": 79800,
      "departure": 79800
    },
    {
      "stop": {
        "id": "2_1142",
        "lat": 48.102086,
        "lon": -1.673987,
        "name": "Gare Sud Féval",
        "code": 1142
      },
      "arrival": 79860,
      "departure": 79860
    },
    {
      "stop": {
        "id": "2_1143",
        "lat": 48.106081,
        "lon": -1.677558,
        "name": "Charles de Gaulle",
        "code": 1143
      },
      "arrival": 79980,
      "departure": 79980
    },
    {
      "stop": {
        "id": "2_1550",
        "lat": 48.109699,
        "lon": -1.677942,
        "name": "République",
        "code": 1550
      },
      "arrival": 80100,
      "departure": 80400
    },
    {
      "stop": {
        "id": "2_1552",
        "lat": 48.110624,
        "lon": -1.673506,
        "name": "Place Pasteur",
        "code": 1552
      },
      "arrival": 80520,
      "departure": 80520
    },
    {
      "stop": {
        "id": "2_1146",
        "lat": 48.111897,
        "lon": -1.671083,
        "name": "Thabor",
        "code": 1146
      },
      "arrival": 80580,
      "departure": 80580
    },
    {
      "stop": {
        "id": "2_1147",
        "lat": 48.112666,
        "lon": -1.664346,
        "name": "Saint-Vincent",
        "code": 1147
      },
      "arrival": 80700,
      "departure": 80700
    },
    {
      "stop": {
        "id": "2_1148",
        "lat": 48.113405,
        "lon": -1.661265,
        "name": "Oberthur",
        "code": 1148
      },
      "arrival": 80760,
      "departure": 80760
    },
    {
      "stop": {
        "id": "2_1149",
        "lat": 48.114248,
        "lon": -1.658666,
        "name": "Durafour",
        "code": 1149
      },
      "arrival": 80820,
      "departure": 80820
    },
    {
      "stop": {
        "id": "2_1150",
        "lat": 48.116588,
        "lon": -1.65539,
        "name": "Jeanne d\u0027Arc",
        "code": 1150
      },
      "arrival": 80880,
      "departure": 80880
    },
    {
      "stop": {
        "id": "2_1151",
        "lat": 48.118733,
        "lon": -1.651589,
        "name": "Vitré Danton",
        "code": 1151
      },
      "arrival": 81000,
      "departure": 81000
    },
    {
      "stop": {
        "id": "2_1152",
        "lat": 48.120615,
        "lon": -1.650675,
        "name": "Docteur Quentin",
        "code": 1152
      },
      "arrival": 81060,
      "departure": 81060
    },
    {
      "stop": {
        "id": "2_1638",
        "lat": 48.122545,
        "lon": -1.651088,
        "name": "Lycée Chateaubriand",
        "code": 1638
      },
      "arrival": 81060,
      "departure": 81060
    },
    {
      "stop": {
        "id": "2_1619",
        "lat": 48.125198,
        "lon": -1.652864,
        "name": "Joliot-Curie",
        "code": 1619
      },
      "arrival": 81180,
      "departure": 81180
    },
    {
      "stop": {
        "id": "2_1155",
        "lat": 48.129145,
        "lon": -1.652001,
        "name": "Gayeulles",
        "code": 1155
      },
      "arrival": 81240,
      "departure": 81240
    },
    {
      "stop": {
        "id": "2_1156",
        "lat": 48.131782,
        "lon": -1.651905,
        "name": "Le Blizz",
        "code": 1156
      },
      "arrival": 81300,
      "departure": 81300
    },
    {
      "stop": {
        "id": "2_1157",
        "lat": 48.134935,
        "lon": -1.651955,
        "name": "Gayeulles Piscine",
        "code": 1157
      },
      "arrival": 81300,
      "departure": 81300
    },
    {
      "stop": {
        "id": "2_1158",
        "lat": 48.135605,
        "lon": -1.656126,
        "name": "Héronière",
        "code": 1158
      },
      "arrival": 81360,
      "departure": 81360
    },
    {
      "stop": {
        "id": "2_1373",
        "lat": 48.135248,
        "lon": -1.65936,
        "name": "Hôtel de Région",
        "code": 1373
      },
      "arrival": 81420,
      "departure": 81420
    },
    {
      "stop": {
        "id": "2_1103",
        "lat": 48.138802,
        "lon": -1.659072,
        "name": "Saint-Laurent",
        "code": 1103
      },
      "arrival": 81480,
      "departure": 81480
    }
  ],
  "route": {
    "id": "2_0003",
    "textColor": "FFFFFF",
    "color": "008436",
    "description": "Majeure",
    "longName": "Saint-Laurent \u003c\u003e Henri Fréville",
    "shortName": "3",
    "type": 3,
    "agencyId": "2"
  }
}