{
  "headsign": "240 | L\u0027Hermitage Saint-Gilles",
  "stopTimes": [
    {
      "stop": {
        "id": "2_2534",
        "lat": 48.098948,
        "lon": -1.800305,
        "name": "Collège Brassens",
        "code": 2534
      },
      "arrival": 61800,
      "departure": 61800
    },
    {
      "stop": {
        "id": "2_2502",
        "lat": 48.100526,
        "lon": -1.806596,
        "name": "Lycée Monod",
        "code": 2502
      },
      "arrival": 61920,
      "departure": 61920
    },
    {
      "stop": {
        "id": "2_4307",
        "lat": 48.123516,
        "lon": -1.807448,
        "name": "Clairefontaine",
        "code": 4307
      },
      "arrival": 62460,
      "departure": 62460
    },
    {
      "stop": {
        "id": "2_4308",
        "lat": 48.125058,
        "lon": -1.813014,
        "name": "Village",
        "code": 4308
      },
      "arrival": 62520,
      "departure": 62520
    },
    {
      "stop": {
        "id": "2_4304",
        "lat": 48.125578,
        "lon": -1.815962,
        "name": "L\u0027Hermitage Centre",
        "code": 4304
      },
      "arrival": 62580,
      "departure": 62580
    },
    {
      "stop": {
        "id": "2_3714",
        "lat": 48.152522,
        "lon": -1.829773,
        "name": "Saint-Gilles Centre",
        "code": 3714
      },
      "arrival": 62940,
      "departure": 62940
    },
    {
      "stop": {
        "id": "2_3724",
        "lat": 48.153843,
        "lon": -1.834042,
        "name": "Clos des Cerisiers",
        "code": 3724
      },
      "arrival": 63060,
      "departure": 63060
    },
    {
      "stop": {
        "id": "2_3723",
        "lat": 48.15406,
        "lon": -1.837815,
        "name": "Maison Neuve",
        "code": 3723
      },
      "arrival": 63120,
      "departure": 63120
    },
    {
      "stop": {
        "id": "2_3732",
        "lat": 48.14933,
        "lon": -1.839024,
        "name": "Ile des Bois",
        "code": 3732
      },
      "arrival": 63240,
      "departure": 63240
    }
  ],
  "route": {
    "id": "2_0240",
    "textColor": "FFFFFF",
    "color": "005BAB",
    "description": "Complémentaire",
    "longName": "Saint-Gilles (Île des Bois) \u003c\u003e Le Rheu (Lycée Théodore Monod)",
    "shortName": "240",
    "type": 3,
    "agencyId": "2"
  }
}