{
  "headsign": "204 | Rennes Collège Clotilde Vautier",
  "stopTimes": [
    {
      "stop": {
        "id": "2_9205",
        "lat": 48.158008,
        "lon": -1.686607,
        "name": "Uttenreuth",
        "code": 9205
      },
      "arrival": 27840,
      "departure": 27840
    },
    {
      "stop": {
        "id": "2_2824",
        "lat": 48.158874,
        "lon": -1.685178,
        "name": "Vivier Louis",
        "code": 2824
      },
      "arrival": 27900,
      "departure": 27900
    },
    {
      "stop": {
        "id": "2_2825",
        "lat": 48.159086,
        "lon": -1.680796,
        "name": "Camus",
        "code": 2825
      },
      "arrival": 27960,
      "departure": 27960
    },
    {
      "stop": {
        "id": "2_2846",
        "lat": 48.158993,
        "lon": -1.676337,
        "name": "Ricoquais",
        "code": 2846
      },
      "arrival": 28020,
      "departure": 28020
    },
    {
      "stop": {
        "id": "2_2843",
        "lat": 48.15835,
        "lon": -1.67217,
        "name": "Nobel",
        "code": 2843
      },
      "arrival": 28080,
      "departure": 28080
    },
    {
      "stop": {
        "id": "2_9207",
        "lat": 48.155682,
        "lon": -1.671246,
        "name": "Champ Daguet",
        "code": 9207
      },
      "arrival": 28140,
      "departure": 28140
    },
    {
      "stop": {
        "id": "2_2811",
        "lat": 48.151378,
        "lon": -1.691295,
        "name": "Cité des Jardins",
        "code": 2811
      },
      "arrival": 28500,
      "departure": 28500
    },
    {
      "stop": {
        "id": "2_2812",
        "lat": 48.150852,
        "lon": -1.685834,
        "name": "Forge",
        "code": 2812
      },
      "arrival": 28560,
      "departure": 28560
    },
    {
      "stop": {
        "id": "2_2813",
        "lat": 48.147437,
        "lon": -1.686162,
        "name": "Haut Trait",
        "code": 2813
      },
      "arrival": 28620,
      "departure": 28620
    },
    {
      "stop": {
        "id": "2_2817",
        "lat": 48.143099,
        "lon": -1.686451,
        "name": "CHP Saint-Grégoire",
        "code": 2817
      },
      "arrival": 28680,
      "departure": 28680
    },
    {
      "stop": {
        "id": "2_2815",
        "lat": 48.13715,
        "lon": -1.686401,
        "name": "La Plesse",
        "code": 2815
      },
      "arrival": 28800,
      "departure": 28800
    },
    {
      "stop": {
        "id": "2_1328",
        "lat": 48.133338,
        "lon": -1.685372,
        "name": "Lycée Mendès France",
        "code": 1328
      },
      "arrival": 28920,
      "departure": 28920
    },
    {
      "stop": {
        "id": "2_1596",
        "lat": 48.125861,
        "lon": -1.668462,
        "name": "Clotilde Vautier",
        "code": 1596
      },
      "arrival": 29400,
      "departure": 29400
    }
  ],
  "route": {
    "id": "2_0204",
    "textColor": "FFFFFF",
    "color": "94C11F",
    "description": "Complémentaire",
    "longName": "Saint-Grégoire (Champ Daguet) \u003c\u003e Rennes (Collège Clotilde Vautier)",
    "shortName": "204",
    "type": 3,
    "agencyId": "2"
  }
}