{
  "headsign": "API | Etangs d\u0027Apigné",
  "stopTimes": [
    {
      "stop": {
        "id": "2_1501",
        "lat": 48.109403,
        "lon": -1.679768,
        "name": "République Pré Botté",
        "code": 1501
      },
      "arrival": 61800,
      "departure": 61800
    },
    {
      "stop": {
        "id": "2_1017",
        "lat": 48.108415,
        "lon": -1.680213,
        "name": "Les Halles",
        "code": 1017
      },
      "arrival": 61860,
      "departure": 61860
    },
    {
      "stop": {
        "id": "2_1018",
        "lat": 48.106204,
        "lon": -1.680999,
        "name": "Plélo Colombier",
        "code": 1018
      },
      "arrival": 61980,
      "departure": 61980
    },
    {
      "stop": {
        "id": "2_1402",
        "lat": 48.105647,
        "lon": -1.685188,
        "name": "Cité Judiciaire",
        "code": 1402
      },
      "arrival": 62040,
      "departure": 62040
    },
    {
      "stop": {
        "id": "2_1611",
        "lat": 48.105462,
        "lon": -1.688422,
        "name": "Redon",
        "code": 1611
      },
      "arrival": 62100,
      "departure": 62100
    },
    {
      "stop": {
        "id": "2_1616",
        "lat": 48.103307,
        "lon": -1.689206,
        "name": "Saint-Conwoïon",
        "code": 1616
      },
      "arrival": 62160,
      "departure": 62160
    },
    {
      "stop": {
        "id": "2_1381",
        "lat": 48.105128,
        "lon": -1.696468,
        "name": "Malakoff",
        "code": 1381
      },
      "arrival": 62340,
      "departure": 62340
    },
    {
      "stop": {
        "id": "2_1398",
        "lat": 48.105225,
        "lon": -1.698672,
        "name": "Voltaire",
        "code": 1398
      },
      "arrival": 62400,
      "departure": 62400
    },
    {
      "stop": {
        "id": "2_1397",
        "lat": 48.103598,
        "lon": -1.700369,
        "name": "Dargent",
        "code": 1397
      },
      "arrival": 62460,
      "departure": 62460
    },
    {
      "stop": {
        "id": "2_1384",
        "lat": 48.102651,
        "lon": -1.703856,
        "name": "Champion de Cicé",
        "code": 1384
      },
      "arrival": 62520,
      "departure": 62520
    },
    {
      "stop": {
        "id": "2_1546",
        "lat": 48.101614,
        "lon": -1.708823,
        "name": "Cleunay Stade",
        "code": 1546
      },
      "arrival": 62580,
      "departure": 62580
    },
    {
      "stop": {
        "id": "2_1389",
        "lat": 48.101249,
        "lon": -1.71181,
        "name": "Clinique La Sagesse",
        "code": 1389
      },
      "arrival": 62640,
      "departure": 62640
    },
    {
      "stop": {
        "id": "2_1547",
        "lat": 48.091983,
        "lon": -1.737811,
        "name": "Etangs d\u0027Apigné",
        "code": 1547
      },
      "arrival": 62940,
      "departure": 62940
    }
  ],
  "route": {
    "id": "2_0803",
    "textColor": "FFFFFF",
    "color": "009C99",
    "description": "Spéciale",
    "longName": "Rennes (République) \u003c\u003e Etangs d\u0027Apigné",
    "shortName": "API",
    "type": 3,
    "agencyId": "2"
  }
}