{
  "headsign": "API | Rennes République",
  "stopTimes": [
    {
      "stop": {
        "id": "2_1548",
        "lat": 48.092122,
        "lon": -1.737327,
        "name": "Etangs d\u0027Apigné",
        "code": 1548
      },
      "arrival": 63600,
      "departure": 63600
    },
    {
      "stop": {
        "id": "2_1391",
        "lat": 48.101056,
        "lon": -1.711799,
        "name": "Clinique La Sagesse",
        "code": 1391
      },
      "arrival": 63900,
      "departure": 63900
    },
    {
      "stop": {
        "id": "2_1545",
        "lat": 48.101549,
        "lon": -1.708422,
        "name": "Cleunay Stade",
        "code": 1545
      },
      "arrival": 63960,
      "departure": 63960
    },
    {
      "stop": {
        "id": "2_1396",
        "lat": 48.102182,
        "lon": -1.705063,
        "name": "Champion de Cicé",
        "code": 1396
      },
      "arrival": 64020,
      "departure": 64020
    },
    {
      "stop": {
        "id": "2_1383",
        "lat": 48.103589,
        "lon": -1.700048,
        "name": "Dargent",
        "code": 1383
      },
      "arrival": 64080,
      "departure": 64080
    },
    {
      "stop": {
        "id": "2_1382",
        "lat": 48.105074,
        "lon": -1.698818,
        "name": "Voltaire",
        "code": 1382
      },
      "arrival": 64140,
      "departure": 64140
    },
    {
      "stop": {
        "id": "2_1399",
        "lat": 48.105015,
        "lon": -1.69546,
        "name": "Malakoff",
        "code": 1399
      },
      "arrival": 64200,
      "departure": 64200
    },
    {
      "stop": {
        "id": "2_1612",
        "lat": 48.103539,
        "lon": -1.688429,
        "name": "Saint-Conwoïon",
        "code": 1612
      },
      "arrival": 64320,
      "departure": 64320
    },
    {
      "stop": {
        "id": "2_1401",
        "lat": 48.105574,
        "lon": -1.687728,
        "name": "Redon",
        "code": 1401
      },
      "arrival": 64380,
      "departure": 64380
    },
    {
      "stop": {
        "id": "2_1021",
        "lat": 48.105444,
        "lon": -1.684005,
        "name": "Cité Judiciaire",
        "code": 1021
      },
      "arrival": 64440,
      "departure": 64440
    },
    {
      "stop": {
        "id": "2_1022",
        "lat": 48.106222,
        "lon": -1.680736,
        "name": "Plélo Colombier",
        "code": 1022
      },
      "arrival": 64500,
      "departure": 64500
    },
    {
      "stop": {
        "id": "2_1023",
        "lat": 48.108066,
        "lon": -1.680048,
        "name": "Les Halles",
        "code": 1023
      },
      "arrival": 64620,
      "departure": 64620
    },
    {
      "stop": {
        "id": "2_1242",
        "lat": 48.109758,
        "lon": -1.679532,
        "name": "République",
        "code": 1242
      },
      "arrival": 64680,
      "departure": 64680
    }
  ],
  "route": {
    "id": "2_0803",
    "textColor": "FFFFFF",
    "color": "009C99",
    "description": "Spéciale",
    "longName": "Rennes (République) \u003c\u003e Etangs d\u0027Apigné",
    "shortName": "API",
    "type": 3,
    "agencyId": "2"
  }
}