{
  "headsign": "33 | Saint-Jacques Gautrais",
  "stopTimes": [
    {
      "stop": {
        "id": "2_3016",
        "lat": 48.09357019,
        "lon": -1.60760619,
        "name": "Cucé",
        "code": 3016
      },
      "arrival": 30600,
      "departure": 30600
    },
    {
      "stop": {
        "id": "2_3023",
        "lat": 48.0925691,
        "lon": -1.6129143,
        "name": "IDEFS",
        "code": 3023
      },
      "arrival": 30720,
      "departure": 30720
    },
    {
      "stop": {
        "id": "2_3004",
        "lat": 48.09034405,
        "lon": -1.61586838,
        "name": "Hallouvry",
        "code": 3004
      },
      "arrival": 30780,
      "departure": 30780
    },
    {
      "stop": {
        "id": "2_3005",
        "lat": 48.08816241,
        "lon": -1.61696467,
        "name": "Chantepie Eglise",
        "code": 3005
      },
      "arrival": 30780,
      "departure": 30780
    },
    {
      "stop": {
        "id": "2_3006",
        "lat": 48.08845908,
        "lon": -1.61922326,
        "name": "Chantepie Mairie",
        "code": 3006
      },
      "arrival": 30840,
      "departure": 30840
    },
    {
      "stop": {
        "id": "2_3007",
        "lat": 48.09040827,
        "lon": -1.62387938,
        "name": "Loges",
        "code": 3007
      },
      "arrival": 30900,
      "departure": 30900
    },
    {
      "stop": {
        "id": "2_3018",
        "lat": 48.08546585,
        "lon": -1.62716003,
        "name": "Rocade Sud",
        "code": 3018
      },
      "arrival": 31020,
      "departure": 31020
    },
    {
      "stop": {
        "id": "2_3019",
        "lat": 48.08049113,
        "lon": -1.63080044,
        "name": "Val Blanc",
        "code": 3019
      },
      "arrival": 31080,
      "departure": 31080
    },
    {
      "stop": {
        "id": "2_1343",
        "lat": 48.08761374,
        "lon": -1.64610727,
        "name": "La Poterie",
        "code": 1343
      },
      "arrival": 31260,
      "departure": 31260
    },
    {
      "stop": {
        "id": "2_1344",
        "lat": 48.0876653,
        "lon": -1.65003592,
        "name": "Galicie",
        "code": 1344
      },
      "arrival": 31320,
      "departure": 31320
    },
    {
      "stop": {
        "id": "2_1440",
        "lat": 48.08773095,
        "lon": -1.6538492,
        "name": "Le Blosne",
        "code": 1440
      },
      "arrival": 31380,
      "departure": 31380
    },
    {
      "stop": {
        "id": "2_1346",
        "lat": 48.08468763,
        "lon": -1.65512833,
        "name": "Hôpital Sud",
        "code": 1346
      },
      "arrival": 31440,
      "departure": 31440
    },
    {
      "stop": {
        "id": "2_1347",
        "lat": 48.08473481,
        "lon": -1.6578097,
        "name": "Torigné",
        "code": 1347
      },
      "arrival": 31500,
      "departure": 31500
    },
    {
      "stop": {
        "id": "2_1441",
        "lat": 48.08606219,
        "lon": -1.66094033,
        "name": "Triangle",
        "code": 1441
      },
      "arrival": 31560,
      "departure": 31560
    },
    {
      "stop": {
        "id": "2_1443",
        "lat": 48.09158704,
        "lon": -1.66232917,
        "name": "Binquenais Collège",
        "code": 1443
      },
      "arrival": 31680,
      "departure": 31680
    },
    {
      "stop": {
        "id": "2_1442",
        "lat": 48.09159335,
        "lon": -1.66740233,
        "name": "Binquenais",
        "code": 1442
      },
      "arrival": 31800,
      "departure": 31800
    },
    {
      "stop": {
        "id": "2_1444",
        "lat": 48.09355955,
        "lon": -1.6696482,
        "name": "Combes",
        "code": 1444
      },
      "arrival": 31860,
      "departure": 31860
    },
    {
      "stop": {
        "id": "2_1445",
        "lat": 48.09317349,
        "lon": -1.67460613,
        "name": "Clemenceau",
        "code": 1445
      },
      "arrival": 31920,
      "departure": 31920
    },
    {
      "stop": {
        "id": "2_1446",
        "lat": 48.09039394,
        "lon": -1.67491188,
        "name": "Argonautes",
        "code": 1446
      },
      "arrival": 31980,
      "departure": 31980
    },
    {
      "stop": {
        "id": "2_1447",
        "lat": 48.08731589,
        "lon": -1.6750163,
        "name": "Henri Fréville",
        "code": 1447
      },
      "arrival": 31980,
      "departure": 31980
    },
    {
      "stop": {
        "id": "2_1622",
        "lat": 48.08412006,
        "lon": -1.6791678,
        "name": "Alma",
        "code": 1622
      },
      "arrival": 32100,
      "departure": 32100
    },
    {
      "stop": {
        "id": "2_1134",
        "lat": 48.08517814,
        "lon": -1.68230743,
        "name": "Canada",
        "code": 1134
      },
      "arrival": 32160,
      "departure": 32160
    },
    {
      "stop": {
        "id": "2_1449",
        "lat": 48.0868238,
        "lon": -1.6830757,
        "name": "Norvège",
        "code": 1449
      },
      "arrival": 32160,
      "departure": 32160
    },
    {
      "stop": {
        "id": "2_1450",
        "lat": 48.08665851,
        "lon": -1.68837187,
        "name": "Coubertin",
        "code": 1450
      },
      "arrival": 32280,
      "departure": 32280
    },
    {
      "stop": {
        "id": "2_1451",
        "lat": 48.08683442,
        "lon": -1.69127348,
        "name": "Lycée Bréquigny",
        "code": 1451
      },
      "arrival": 32280,
      "departure": 32280
    },
    {
      "stop": {
        "id": "2_1452",
        "lat": 48.08985957,
        "lon": -1.69106434,
        "name": "Bréquigny Piscine",
        "code": 1452
      },
      "arrival": 32340,
      "departure": 32340
    },
    {
      "stop": {
        "id": "2_2217",
        "lat": 48.09062505,
        "lon": -1.69500771,
        "name": "25 Fusillés",
        "code": 2217
      },
      "arrival": 32400,
      "departure": 32400
    },
    {
      "stop": {
        "id": "2_2229",
        "lat": 48.08942708,
        "lon": -1.69792814,
        "name": "Croix Verte",
        "code": 2229
      },
      "arrival": 32460,
      "departure": 32460
    },
    {
      "stop": {
        "id": "2_2226",
        "lat": 48.08661806,
        "lon": -1.70136506,
        "name": "Rablais Allende",
        "code": 2226
      },
      "arrival": 32580,
      "departure": 32580
    },
    {
      "stop": {
        "id": "2_2231",
        "lat": 48.08691376,
        "lon": -1.70659822,
        "name": "Gaité",
        "code": 2231
      },
      "arrival": 32640,
      "departure": 32640
    },
    {
      "stop": {
        "id": "2_2212",
        "lat": 48.0844398,
        "lon": -1.70917627,
        "name": "Blosne",
        "code": 2212
      },
      "arrival": 32700,
      "departure": 32700
    },
    {
      "stop": {
        "id": "2_2264",
        "lat": 48.08278771,
        "lon": -1.71306508,
        "name": "Jean Jaurès",
        "code": 2264
      },
      "arrival": 32700,
      "departure": 32700
    },
    {
      "stop": {
        "id": "2_2213",
        "lat": 48.0824956,
        "lon": -1.71540682,
        "name": "Jean Marin",
        "code": 2213
      },
      "arrival": 32760,
      "departure": 32760
    },
    {
      "stop": {
        "id": "2_2203",
        "lat": 48.07942004,
        "lon": -1.71567051,
        "name": "Médiathèque",
        "code": 2203
      },
      "arrival": 32760,
      "departure": 32760
    },
    {
      "stop": {
        "id": "2_2215",
        "lat": 48.0769585,
        "lon": -1.71590826,
        "name": "Collège Jean Moulin",
        "code": 2215
      },
      "arrival": 32820,
      "departure": 32820
    },
    {
      "stop": {
        "id": "2_2224",
        "lat": 48.07507093,
        "lon": -1.71599542,
        "name": "Morinais",
        "code": 2224
      },
      "arrival": 32820,
      "departure": 32820
    },
    {
      "stop": {
        "id": "2_2233",
        "lat": 48.06738312,
        "lon": -1.71730011,
        "name": "Abbé Grimault",
        "code": 2233
      },
      "arrival": 32940,
      "departure": 32940
    },
    {
      "stop": {
        "id": "2_2222",
        "lat": 48.06640885,
        "lon": -1.72023927,
        "name": "Pommerais",
        "code": 2222
      },
      "arrival": 33000,
      "departure": 33000
    },
    {
      "stop": {
        "id": "2_2235",
        "lat": 48.06284909,
        "lon": -1.7206611,
        "name": "Rossel",
        "code": 2235
      },
      "arrival": 33000,
      "departure": 33000
    },
    {
      "stop": {
        "id": "2_2265",
        "lat": 48.06157743,
        "lon": -1.72404407,
        "name": "Gautrais",
        "code": 2265
      },
      "arrival": 33060,
      "departure": 33060
    }
  ],
  "route": {
    "id": "2_0033",
    "textColor": "E2001A",
    "color": "FFF164",
    "description": "Inter-quartiers",
    "longName": "Saint-Jacques-de-la-Lande (Gautrais) / Bréquigny \u003c\u003e La Poterie / Chantepie (Cucé)",
    "shortName": "33",
    "type": 3,
    "agencyId": "2"
  }
}