{
  "headsign": "1 | Chantepie Rosa Parks",
  "stopTimes": [
    {
      "stop": {
        "id": "2_2126",
        "lat": 48.134763,
        "lon": -1.621832,
        "name": "Champs Blancs",
        "code": 2126
      },
      "arrival": 61920,
      "departure": 61920
    },
    {
      "stop": {
        "id": "2_2124",
        "lat": 48.131589,
        "lon": -1.624653,
        "name": "Chêne Germain",
        "code": 2124
      },
      "arrival": 62100,
      "departure": 62100
    },
    {
      "stop": {
        "id": "2_2002",
        "lat": 48.130233,
        "lon": -1.627664,
        "name": "Cesson Hôpital Privé",
        "code": 2002
      },
      "arrival": 62160,
      "departure": 62160
    },
    {
      "stop": {
        "id": "2_1001",
        "lat": 48.129077,
        "lon": -1.63253,
        "name": "Longs Champs",
        "code": 1001
      },
      "arrival": 62280,
      "departure": 62280
    },
    {
      "stop": {
        "id": "2_1002",
        "lat": 48.128283,
        "lon": -1.637782,
        "name": "Bouzat",
        "code": 1002
      },
      "arrival": 62400,
      "departure": 62400
    },
    {
      "stop": {
        "id": "2_1003",
        "lat": 48.127369,
        "lon": -1.640433,
        "name": "Gallets",
        "code": 1003
      },
      "arrival": 62400,
      "departure": 62400
    },
    {
      "stop": {
        "id": "2_1004",
        "lat": 48.125244,
        "lon": -1.642676,
        "name": "Donzelot",
        "code": 1004
      },
      "arrival": 62520,
      "departure": 62520
    },
    {
      "stop": {
        "id": "2_1005",
        "lat": 48.123363,
        "lon": -1.646317,
        "name": "Mirabeau",
        "code": 1005
      },
      "arrival": 62580,
      "departure": 62580
    },
    {
      "stop": {
        "id": "2_1006",
        "lat": 48.12229,
        "lon": -1.650742,
        "name": "Turmel",
        "code": 1006
      },
      "arrival": 62700,
      "departure": 62700
    },
    {
      "stop": {
        "id": "2_1007",
        "lat": 48.121446,
        "lon": -1.655036,
        "name": "Assomption",
        "code": 1007
      },
      "arrival": 62760,
      "departure": 62760
    },
    {
      "stop": {
        "id": "2_1008",
        "lat": 48.123212,
        "lon": -1.660216,
        "name": "Painlevé",
        "code": 1008
      },
      "arrival": 62940,
      "departure": 62940
    },
    {
      "stop": {
        "id": "2_1009",
        "lat": 48.121635,
        "lon": -1.663186,
        "name": "Metz Volney",
        "code": 1009
      },
      "arrival": 63000,
      "departure": 63000
    },
    {
      "stop": {
        "id": "2_1010",
        "lat": 48.119241,
        "lon": -1.667693,
        "name": "Guéhenno",
        "code": 1010
      },
      "arrival": 63120,
      "departure": 63120
    },
    {
      "stop": {
        "id": "2_1011",
        "lat": 48.118312,
        "lon": -1.671315,
        "name": "Fac de Droit",
        "code": 1011
      },
      "arrival": 63180,
      "departure": 63180
    },
    {
      "stop": {
        "id": "2_1012",
        "lat": 48.11605,
        "lon": -1.674245,
        "name": "Sévigné",
        "code": 1012
      },
      "arrival": 63300,
      "departure": 63300
    },
    {
      "stop": {
        "id": "2_1014",
        "lat": 48.113739,
        "lon": -1.679038,
        "name": "Sainte-Anne",
        "code": 1014
      },
      "arrival": 63540,
      "departure": 63540
    },
    {
      "stop": {
        "id": "2_1015",
        "lat": 48.11252,
        "lon": -1.680352,
        "name": "Champ Jacquet",
        "code": 1015
      },
      "arrival": 63600,
      "departure": 63600
    },
    {
      "stop": {
        "id": "2_1024",
        "lat": 48.109977,
        "lon": -1.680268,
        "name": "République Nemours",
        "code": 1024
      },
      "arrival": 63780,
      "departure": 63780
    },
    {
      "stop": {
        "id": "2_1017",
        "lat": 48.108415,
        "lon": -1.680213,
        "name": "Les Halles",
        "code": 1017
      },
      "arrival": 63840,
      "departure": 63840
    },
    {
      "stop": {
        "id": "2_1088",
        "lat": 48.107377,
        "lon": -1.674981,
        "name": "Liberté TNB",
        "code": 1088
      },
      "arrival": 64020,
      "departure": 64020
    },
    {
      "stop": {
        "id": "2_1087",
        "lat": 48.105276,
        "lon": -1.673939,
        "name": "Champs Libres",
        "code": 1087
      },
      "arrival": 64140,
      "departure": 64140
    },
    {
      "stop": {
        "id": "2_1477",
        "lat": 48.103839,
        "lon": -1.67286,
        "name": "Gares",
        "code": 1477
      },
      "arrival": 64260,
      "departure": 64260
    },
    {
      "stop": {
        "id": "2_1085",
        "lat": 48.10471,
        "lon": -1.666557,
        "name": "Laënnec",
        "code": 1085
      },
      "arrival": 64440,
      "departure": 64440
    },
    {
      "stop": {
        "id": "2_1243",
        "lat": 48.102515,
        "lon": -1.661094,
        "name": "Croix Saint-Hélier",
        "code": 1243
      },
      "arrival": 64560,
      "departure": 64560
    },
    {
      "stop": {
        "id": "2_1316",
        "lat": 48.101171,
        "lon": -1.652938,
        "name": "Raison",
        "code": 1316
      },
      "arrival": 64680,
      "departure": 64680
    },
    {
      "stop": {
        "id": "2_1317",
        "lat": 48.100101,
        "lon": -1.649415,
        "name": "Villebois-Mareuil",
        "code": 1317
      },
      "arrival": 64740,
      "departure": 64740
    },
    {
      "stop": {
        "id": "2_1318",
        "lat": 48.09913,
        "lon": -1.646084,
        "name": "Landry",
        "code": 1318
      },
      "arrival": 64800,
      "departure": 64800
    },
    {
      "stop": {
        "id": "2_1319",
        "lat": 48.097002,
        "lon": -1.641653,
        "name": "Domaine",
        "code": 1319
      },
      "arrival": 64860,
      "departure": 64860
    },
    {
      "stop": {
        "id": "2_1320",
        "lat": 48.094927,
        "lon": -1.637296,
        "name": "CARSAT",
        "code": 1320
      },
      "arrival": 64980,
      "departure": 64980
    },
    {
      "stop": {
        "id": "2_1321",
        "lat": 48.093777,
        "lon": -1.633778,
        "name": "Sauvaie",
        "code": 1321
      },
      "arrival": 65100,
      "departure": 65100
    },
    {
      "stop": {
        "id": "2_3008",
        "lat": 48.09031,
        "lon": -1.62417,
        "name": "Loges",
        "code": 3008
      },
      "arrival": 65460,
      "departure": 65460
    },
    {
      "stop": {
        "id": "2_3009",
        "lat": 48.088351,
        "lon": -1.619091,
        "name": "Chantepie Mairie",
        "code": 3009
      },
      "arrival": 65580,
      "departure": 65580
    },
    {
      "stop": {
        "id": "2_3010",
        "lat": 48.088212,
        "lon": -1.616864,
        "name": "Chantepie Eglise",
        "code": 3010
      },
      "arrival": 65580,
      "departure": 65580
    },
    {
      "stop": {
        "id": "2_3011",
        "lat": 48.090477,
        "lon": -1.615307,
        "name": "Hallouvry",
        "code": 3011
      },
      "arrival": 65640,
      "departure": 65640
    },
    {
      "stop": {
        "id": "2_3012",
        "lat": 48.089016,
        "lon": -1.612677,
        "name": "Bourgogne",
        "code": 3012
      },
      "arrival": 65760,
      "departure": 65760
    },
    {
      "stop": {
        "id": "2_3013",
        "lat": 48.085813,
        "lon": -1.614717,
        "name": "Deux Ruisseaux",
        "code": 3013
      },
      "arrival": 65820,
      "departure": 65820
    },
    {
      "stop": {
        "id": "2_3001",
        "lat": 48.085047,
        "lon": -1.610381,
        "name": "Gériatrie",
        "code": 3001
      },
      "arrival": 65880,
      "departure": 65880
    },
    {
      "stop": {
        "id": "2_3029",
        "lat": 48.085706,
        "lon": -1.607473,
        "name": "Touche Annette",
        "code": 3029
      },
      "arrival": 65940,
      "departure": 65940
    },
    {
      "stop": {
        "id": "2_3028",
        "lat": 48.085464,
        "lon": -1.604031,
        "name": "Rosa Parks",
        "code": 3028
      },
      "arrival": 66000,
      "departure": 66000
    }
  ],
  "route": {
    "id": "2_0001",
    "textColor": "1A171B",
    "color": "97BF0D",
    "description": "Majeure",
    "longName": "Cesson-Sévigné (Champs Blancs) \u003c\u003e Chantepie (Rosa Parks)",
    "shortName": "1",
    "type": 3,
    "agencyId": "2"
  }
}