{
  "headsign": "57 | Rennes via Porte de Ker-Lann",
  "stopTimes": [
    {
      "stop": {
        "id": "2_2373",
        "lat": 48.022989,
        "lon": -1.743824,
        "name": "Bruz Centre",
        "code": 2373
      },
      "arrival": 57900,
      "departure": 57900
    },
    {
      "stop": {
        "id": "2_2343",
        "lat": 48.019598,
        "lon": -1.744633,
        "name": "Epalet",
        "code": 2343
      },
      "arrival": 58020,
      "departure": 58020
    },
    {
      "stop": {
        "id": "2_2344",
        "lat": 48.021674,
        "lon": -1.752317,
        "name": "Noë",
        "code": 2344
      },
      "arrival": 58080,
      "departure": 58080
    },
    {
      "stop": {
        "id": "2_2375",
        "lat": 48.024186,
        "lon": -1.75284,
        "name": "Châteliers",
        "code": 2375
      },
      "arrival": 58140,
      "departure": 58140
    },
    {
      "stop": {
        "id": "2_2303",
        "lat": 48.02471,
        "lon": -1.757238,
        "name": "Haut Launay",
        "code": 2303
      },
      "arrival": 58260,
      "departure": 58260
    },
    {
      "stop": {
        "id": "2_2304",
        "lat": 48.02575,
        "lon": -1.76091,
        "name": "Rabine",
        "code": 2304
      },
      "arrival": 58320,
      "departure": 58320
    },
    {
      "stop": {
        "id": "2_2322",
        "lat": 48.029465,
        "lon": -1.757995,
        "name": "Vert Buisson",
        "code": 2322
      },
      "arrival": 58440,
      "departure": 58440
    },
    {
      "stop": {
        "id": "2_2307",
        "lat": 48.031275,
        "lon": -1.759442,
        "name": "Gavrinis",
        "code": 2307
      },
      "arrival": 58500,
      "departure": 58500
    },
    {
      "stop": {
        "id": "2_2308",
        "lat": 48.041413,
        "lon": -1.754424,
        "name": "Croix Madame",
        "code": 2308
      },
      "arrival": 58620,
      "departure": 58620
    },
    {
      "stop": {
        "id": "2_2319",
        "lat": 48.044534,
        "lon": -1.746319,
        "name": "Schuman",
        "code": 2319
      },
      "arrival": 58740,
      "departure": 58740
    },
    {
      "stop": {
        "id": "2_2311",
        "lat": 48.047249,
        "lon": -1.741955,
        "name": "Coeur de Campus",
        "code": 2311
      },
      "arrival": 58860,
      "departure": 58860
    },
    {
      "stop": {
        "id": "2_2312",
        "lat": 48.049424,
        "lon": -1.740454,
        "name": "Etangs",
        "code": 2312
      },
      "arrival": 58920,
      "departure": 58920
    },
    {
      "stop": {
        "id": "2_2313",
        "lat": 48.052679,
        "lon": -1.73829,
        "name": "Lande du Pont",
        "code": 2313
      },
      "arrival": 58980,
      "departure": 58980
    },
    {
      "stop": {
        "id": "2_2314",
        "lat": 48.054937,
        "lon": -1.739708,
        "name": "Porte de Ker-Lann",
        "code": 2314
      },
      "arrival": 59100,
      "departure": 59100
    },
    {
      "stop": {
        "id": "2_2236",
        "lat": 48.059996,
        "lon": -1.734101,
        "name": "Parc Expo",
        "code": 2236
      },
      "arrival": 59220,
      "departure": 59220
    },
    {
      "stop": {
        "id": "2_2238",
        "lat": 48.065007,
        "lon": -1.724483,
        "name": "Centre Météo",
        "code": 2238
      },
      "arrival": 59340,
      "departure": 59340
    },
    {
      "stop": {
        "id": "2_2237",
        "lat": 48.067372,
        "lon": -1.721674,
        "name": "Aire Libre Aéroport",
        "code": 2237
      },
      "arrival": 59400,
      "departure": 59400
    },
    {
      "stop": {
        "id": "2_2223",
        "lat": 48.067334,
        "lon": -1.716885,
        "name": "Abbé Grimault",
        "code": 2223
      },
      "arrival": 59460,
      "departure": 59460
    },
    {
      "stop": {
        "id": "2_2239",
        "lat": 48.077838,
        "lon": -1.712445,
        "name": "Haut Bois",
        "code": 2239
      },
      "arrival": 59640,
      "departure": 59640
    },
    {
      "stop": {
        "id": "2_2240",
        "lat": 48.080594,
        "lon": -1.712287,
        "name": "Malraux",
        "code": 2240
      },
      "arrival": 59700,
      "departure": 59700
    },
    {
      "stop": {
        "id": "2_2206",
        "lat": 48.087497,
        "lon": -1.706946,
        "name": "Gaité",
        "code": 2206
      },
      "arrival": 59820,
      "departure": 59820
    },
    {
      "stop": {
        "id": "2_2210",
        "lat": 48.093307,
        "lon": -1.70147,
        "name": "Lilas",
        "code": 2210
      },
      "arrival": 60000,
      "departure": 60000
    },
    {
      "stop": {
        "id": "2_2209",
        "lat": 48.095716,
        "lon": -1.694313,
        "name": "Commeurec",
        "code": 2209
      },
      "arrival": 60120,
      "departure": 60120
    },
    {
      "stop": {
        "id": "2_1573",
        "lat": 48.097045,
        "lon": -1.690278,
        "name": "Mermoz",
        "code": 1573
      },
      "arrival": 60180,
      "departure": 60180
    },
    {
      "stop": {
        "id": "2_1276",
        "lat": 48.099714,
        "lon": -1.68619,
        "name": "Foyer Rennais",
        "code": 1276
      },
      "arrival": 60300,
      "departure": 60300
    },
    {
      "stop": {
        "id": "2_1277",
        "lat": 48.102127,
        "lon": -1.684092,
        "name": "Pont de Nantes",
        "code": 1277
      },
      "arrival": 60360,
      "departure": 60360
    },
    {
      "stop": {
        "id": "2_1021",
        "lat": 48.105444,
        "lon": -1.684005,
        "name": "Cité Judiciaire",
        "code": 1021
      },
      "arrival": 60420,
      "departure": 60420
    },
    {
      "stop": {
        "id": "2_1022",
        "lat": 48.106222,
        "lon": -1.680736,
        "name": "Plélo Colombier",
        "code": 1022
      },
      "arrival": 60540,
      "departure": 60540
    },
    {
      "stop": {
        "id": "2_1023",
        "lat": 48.108066,
        "lon": -1.680048,
        "name": "Les Halles",
        "code": 1023
      },
      "arrival": 60660,
      "departure": 60660
    },
    {
      "stop": {
        "id": "2_1615",
        "lat": 48.109803,
        "lon": -1.678283,
        "name": "République",
        "code": 1615
      },
      "arrival": 60780,
      "departure": 60780
    }
  ],
  "route": {
    "id": "2_0057",
    "textColor": "FFFFFF",
    "color": "A9701E",
    "description": "Métropolitaine",
    "longName": "Rennes (République) \u003c\u003e Saint-Jacques-de-la-Lande / Bruz (Centre)",
    "shortName": "57",
    "type": 3,
    "agencyId": "2"
  }
}