{
  "headsign": "40 | République",
  "stopTimes": [
    {
      "stop": {
        "id": "2_1290",
        "lat": 48.12688601,
        "lon": -1.62954442,
        "name": "Clos Courtel",
        "code": 1290
      },
      "arrival": 58500,
      "departure": 58500
    },
    {
      "stop": {
        "id": "2_1291",
        "lat": 48.12475494,
        "lon": -1.63388413,
        "name": "IUT",
        "code": 1291
      },
      "arrival": 58560,
      "departure": 58560
    },
    {
      "stop": {
        "id": "2_1292",
        "lat": 48.12145018,
        "lon": -1.63814809,
        "name": "Beaulieu Restau U",
        "code": 1292
      },
      "arrival": 58680,
      "departure": 58680
    },
    {
      "stop": {
        "id": "2_1176",
        "lat": 48.11901733,
        "lon": -1.63514782,
        "name": "Beaulieu INSA",
        "code": 1176
      },
      "arrival": 58740,
      "departure": 58740
    },
    {
      "stop": {
        "id": "2_1312",
        "lat": 48.1166495,
        "lon": -1.63393042,
        "name": "Beaulieu Chimie",
        "code": 1312
      },
      "arrival": 58800,
      "departure": 58800
    },
    {
      "stop": {
        "id": "2_1160",
        "lat": 48.11406413,
        "lon": -1.63761839,
        "name": "Tournebride",
        "code": 1160
      },
      "arrival": 58860,
      "departure": 58860
    },
    {
      "stop": {
        "id": "2_1603",
        "lat": 48.1132511,
        "lon": -1.64125976,
        "name": "Les Préales",
        "code": 1603
      },
      "arrival": 58980,
      "departure": 58980
    },
    {
      "stop": {
        "id": "2_1161",
        "lat": 48.11219183,
        "lon": -1.64423633,
        "name": "Plaine de Baud",
        "code": 1161
      },
      "arrival": 59040,
      "departure": 59040
    },
    {
      "stop": {
        "id": "2_1166",
        "lat": 48.10988328,
        "lon": -1.67512929,
        "name": "Musée Beaux Arts",
        "code": 1166
      },
      "arrival": 59340,
      "departure": 59340
    },
    {
      "stop": {
        "id": "2_1090",
        "lat": 48.10952605,
        "lon": -1.6779074,
        "name": "République",
        "code": 1090
      },
      "arrival": 59460,
      "departure": 59460
    }
  ],
  "route": {
    "id": "2_0040",
    "textColor": "3D3C3F",
    "color": "FFDD00",
    "description": "Express urbaine",
    "longName": "République \u003c\u003e Beaulieu Atalante",
    "shortName": "40",
    "type": 3,
    "agencyId": "2"
  }
}