{
  "headsign": "1 | Chantepie Rosa Parks",
  "stopTimes": [
    {
      "stop": {
        "id": "2_2116",
        "lat": 48.13488248,
        "lon": -1.62068447,
        "name": "Champs Blancs",
        "code": 2116
      },
      "arrival": 34200,
      "departure": 34200
    },
    {
      "stop": {
        "id": "2_2105",
        "lat": 48.13105331,
        "lon": -1.62462479,
        "name": "Chêne Germain",
        "code": 2105
      },
      "arrival": 34320,
      "departure": 34320
    },
    {
      "stop": {
        "id": "2_2002",
        "lat": 48.13023268,
        "lon": -1.62752844,
        "name": "Cesson Hôpital Privé",
        "code": 2002
      },
      "arrival": 34380,
      "departure": 34380
    },
    {
      "stop": {
        "id": "2_1001",
        "lat": 48.12903716,
        "lon": -1.6325079,
        "name": "Longs Champs",
        "code": 1001
      },
      "arrival": 34440,
      "departure": 34440
    },
    {
      "stop": {
        "id": "2_1002",
        "lat": 48.12826604,
        "lon": -1.63765619,
        "name": "Bouzat",
        "code": 1002
      },
      "arrival": 34560,
      "departure": 34560
    },
    {
      "stop": {
        "id": "2_1003",
        "lat": 48.12744122,
        "lon": -1.64029002,
        "name": "Gallets",
        "code": 1003
      },
      "arrival": 34560,
      "departure": 34560
    },
    {
      "stop": {
        "id": "2_1004",
        "lat": 48.12528847,
        "lon": -1.64253775,
        "name": "Donzelot",
        "code": 1004
      },
      "arrival": 34680,
      "departure": 34680
    },
    {
      "stop": {
        "id": "2_1005",
        "lat": 48.1233588,
        "lon": -1.64623199,
        "name": "Mirabeau",
        "code": 1005
      },
      "arrival": 34740,
      "departure": 34740
    },
    {
      "stop": {
        "id": "2_1006",
        "lat": 48.12226258,
        "lon": -1.65069568,
        "name": "Turmel",
        "code": 1006
      },
      "arrival": 34800,
      "departure": 34800
    },
    {
      "stop": {
        "id": "2_1007",
        "lat": 48.12141888,
        "lon": -1.65505801,
        "name": "Assomption",
        "code": 1007
      },
      "arrival": 34860,
      "departure": 34860
    },
    {
      "stop": {
        "id": "2_1008",
        "lat": 48.12317413,
        "lon": -1.6602443,
        "name": "Painlevé",
        "code": 1008
      },
      "arrival": 34980,
      "departure": 34980
    },
    {
      "stop": {
        "id": "2_1009",
        "lat": 48.12162483,
        "lon": -1.6631771,
        "name": "Metz Volney",
        "code": 1009
      },
      "arrival": 35040,
      "departure": 35040
    },
    {
      "stop": {
        "id": "2_1010",
        "lat": 48.11917574,
        "lon": -1.66765915,
        "name": "Guéhenno",
        "code": 1010
      },
      "arrival": 35160,
      "departure": 35160
    },
    {
      "stop": {
        "id": "2_1011",
        "lat": 48.11830509,
        "lon": -1.67120349,
        "name": "Fac de Droit",
        "code": 1011
      },
      "arrival": 35220,
      "departure": 35220
    },
    {
      "stop": {
        "id": "2_1012",
        "lat": 48.11618009,
        "lon": -1.67409822,
        "name": "Sévigné",
        "code": 1012
      },
      "arrival": 35280,
      "departure": 35280
    },
    {
      "stop": {
        "id": "2_1014",
        "lat": 48.11371103,
        "lon": -1.67903599,
        "name": "Sainte-Anne",
        "code": 1014
      },
      "arrival": 35400,
      "departure": 35400
    },
    {
      "stop": {
        "id": "2_1015",
        "lat": 48.11252173,
        "lon": -1.68031651,
        "name": "Champ Jacquet",
        "code": 1015
      },
      "arrival": 35460,
      "departure": 35460
    },
    {
      "stop": {
        "id": "2_1024",
        "lat": 48.10997886,
        "lon": -1.68021216,
        "name": "République Nemours",
        "code": 1024
      },
      "arrival": 35640,
      "departure": 35640
    },
    {
      "stop": {
        "id": "2_1017",
        "lat": 48.10834873,
        "lon": -1.6801754,
        "name": "Les Halles",
        "code": 1017
      },
      "arrival": 35700,
      "departure": 35700
    },
    {
      "stop": {
        "id": "2_1088",
        "lat": 48.10744897,
        "lon": -1.67491383,
        "name": "Liberté TNB",
        "code": 1088
      },
      "arrival": 35820,
      "departure": 35820
    },
    {
      "stop": {
        "id": "2_1087",
        "lat": 48.1060299,
        "lon": -1.67410184,
        "name": "Champs Libres",
        "code": 1087
      },
      "arrival": 35940,
      "departure": 35940
    },
    {
      "stop": {
        "id": "2_1086",
        "lat": 48.10400351,
        "lon": -1.67201145,
        "name": "Gares",
        "code": 1086
      },
      "arrival": 36000,
      "departure": 36000
    },
    {
      "stop": {
        "id": "2_1085",
        "lat": 48.10473324,
        "lon": -1.66565625,
        "name": "Laënnec",
        "code": 1085
      },
      "arrival": 36120,
      "departure": 36120
    },
    {
      "stop": {
        "id": "2_1243",
        "lat": 48.10254897,
        "lon": -1.66111869,
        "name": "Croix Saint-Hélier",
        "code": 1243
      },
      "arrival": 36180,
      "departure": 36180
    },
    {
      "stop": {
        "id": "2_1316",
        "lat": 48.10120612,
        "lon": -1.65296379,
        "name": "Raison",
        "code": 1316
      },
      "arrival": 36300,
      "departure": 36300
    },
    {
      "stop": {
        "id": "2_1317",
        "lat": 48.10013961,
        "lon": -1.64938444,
        "name": "Villebois-Mareuil",
        "code": 1317
      },
      "arrival": 36360,
      "departure": 36360
    },
    {
      "stop": {
        "id": "2_1318",
        "lat": 48.09914749,
        "lon": -1.64597327,
        "name": "Landry",
        "code": 1318
      },
      "arrival": 36360,
      "departure": 36360
    },
    {
      "stop": {
        "id": "2_1319",
        "lat": 48.09705567,
        "lon": -1.64164476,
        "name": "Domaine",
        "code": 1319
      },
      "arrival": 36480,
      "departure": 36480
    },
    {
      "stop": {
        "id": "2_1320",
        "lat": 48.09498429,
        "lon": -1.63725113,
        "name": "CARSAT",
        "code": 1320
      },
      "arrival": 36540,
      "departure": 36540
    },
    {
      "stop": {
        "id": "2_1321",
        "lat": 48.09387292,
        "lon": -1.63388391,
        "name": "Sauvaie",
        "code": 1321
      },
      "arrival": 36600,
      "departure": 36600
    },
    {
      "stop": {
        "id": "2_3008",
        "lat": 48.09037236,
        "lon": -1.62410496,
        "name": "Loges",
        "code": 3008
      },
      "arrival": 36780,
      "departure": 36780
    },
    {
      "stop": {
        "id": "2_3009",
        "lat": 48.08841382,
        "lon": -1.61911707,
        "name": "Chantepie Mairie",
        "code": 3009
      },
      "arrival": 36840,
      "departure": 36840
    },
    {
      "stop": {
        "id": "2_3010",
        "lat": 48.08815767,
        "lon": -1.61691516,
        "name": "Chantepie Eglise",
        "code": 3010
      },
      "arrival": 36900,
      "departure": 36900
    },
    {
      "stop": {
        "id": "2_3011",
        "lat": 48.09043747,
        "lon": -1.61532491,
        "name": "Hallouvry",
        "code": 3011
      },
      "arrival": 36900,
      "departure": 36900
    },
    {
      "stop": {
        "id": "2_3012",
        "lat": 48.08828194,
        "lon": -1.61236516,
        "name": "Bourgogne",
        "code": 3012
      },
      "arrival": 36960,
      "departure": 36960
    },
    {
      "stop": {
        "id": "2_3013",
        "lat": 48.08586495,
        "lon": -1.61469687,
        "name": "Deux Ruisseaux",
        "code": 3013
      },
      "arrival": 37020,
      "departure": 37020
    },
    {
      "stop": {
        "id": "2_3001",
        "lat": 48.0850708,
        "lon": -1.61034947,
        "name": "Gériatrie",
        "code": 3001
      },
      "arrival": 37080,
      "departure": 37080
    },
    {
      "stop": {
        "id": "2_3029",
        "lat": 48.08573322,
        "lon": -1.60747448,
        "name": "Touche Annette",
        "code": 3029
      },
      "arrival": 37200,
      "departure": 37200
    },
    {
      "stop": {
        "id": "2_3028",
        "lat": 48.0857666,
        "lon": -1.6040872,
        "name": "Rosa Parks",
        "code": 3028
      },
      "arrival": 37260,
      "departure": 37260
    }
  ],
  "route": {
    "id": "2_0001",
    "textColor": "FFFFFF",
    "color": "90C01B",
    "description": "Majeure",
    "longName": "Cesson-Sévigné (Champs Blancs) \u003c\u003e Chantepie (Rosa Parks)",
    "shortName": "1",
    "type": 3,
    "agencyId": "2"
  }
}