{
  "headsign": "53 | Vezin Hermitage Chapelle-Th.",
  "stopTimes": [
    {
      "stop": {
        "id": "2_1167",
        "lat": 48.109405,
        "lon": -1.678734,
        "name": "République Pré Botté",
        "code": 1167
      },
      "arrival": 60600,
      "departure": 60600
    },
    {
      "stop": {
        "id": "2_1540",
        "lat": 48.109999,
        "lon": -1.685158,
        "name": "Pont de Bretagne",
        "code": 1540
      },
      "arrival": 60780,
      "departure": 60780
    },
    {
      "stop": {
        "id": "2_1217",
        "lat": 48.108252,
        "lon": -1.694511,
        "name": "Chèques Postaux",
        "code": 1217
      },
      "arrival": 60900,
      "departure": 60900
    },
    {
      "stop": {
        "id": "2_1293",
        "lat": 48.110001,
        "lon": -1.698679,
        "name": "Guilloux",
        "code": 1293
      },
      "arrival": 61020,
      "departure": 61020
    },
    {
      "stop": {
        "id": "2_1310",
        "lat": 48.111292,
        "lon": -1.700837,
        "name": "Marbeuf",
        "code": 1310
      },
      "arrival": 61080,
      "departure": 61080
    },
    {
      "stop": {
        "id": "2_1502",
        "lat": 48.113945,
        "lon": -1.705436,
        "name": "Agrocampus",
        "code": 1502
      },
      "arrival": 61140,
      "departure": 61140
    },
    {
      "stop": {
        "id": "2_1414",
        "lat": 48.116416,
        "lon": -1.712265,
        "name": "Merlin",
        "code": 1414
      },
      "arrival": 61260,
      "departure": 61260
    },
    {
      "stop": {
        "id": "2_1499",
        "lat": 48.1163,
        "lon": -1.716029,
        "name": "Colin",
        "code": 1499
      },
      "arrival": 61320,
      "departure": 61320
    },
    {
      "stop": {
        "id": "2_1498",
        "lat": 48.116622,
        "lon": -1.723945,
        "name": "Petit Champeaux",
        "code": 1498
      },
      "arrival": 61380,
      "departure": 61380
    },
    {
      "stop": {
        "id": "2_3760",
        "lat": 48.117765,
        "lon": -1.731221,
        "name": "Champ Noël",
        "code": 3760
      },
      "arrival": 61440,
      "departure": 61440
    },
    {
      "stop": {
        "id": "2_3761",
        "lat": 48.118418,
        "lon": -1.741401,
        "name": "Tertre",
        "code": 3761
      },
      "arrival": 61560,
      "departure": 61560
    },
    {
      "stop": {
        "id": "2_3771",
        "lat": 48.119126,
        "lon": -1.749551,
        "name": "Champs Bleus",
        "code": 3771
      },
      "arrival": 61620,
      "departure": 61620
    },
    {
      "stop": {
        "id": "2_3762",
        "lat": 48.11923,
        "lon": -1.755499,
        "name": "Vezin Centre",
        "code": 3762
      },
      "arrival": 61680,
      "departure": 61680
    },
    {
      "stop": {
        "id": "2_3763",
        "lat": 48.119239,
        "lon": -1.761273,
        "name": "Lion d\u0027Or",
        "code": 3763
      },
      "arrival": 61800,
      "departure": 61800
    },
    {
      "stop": {
        "id": "2_3764",
        "lat": 48.120402,
        "lon": -1.765585,
        "name": "Vallée",
        "code": 3764
      },
      "arrival": 61860,
      "departure": 61860
    },
    {
      "stop": {
        "id": "2_3765",
        "lat": 48.121023,
        "lon": -1.771757,
        "name": "Haie de Terre",
        "code": 3765
      },
      "arrival": 61920,
      "departure": 61920
    },
    {
      "stop": {
        "id": "2_4315",
        "lat": 48.122997,
        "lon": -1.802546,
        "name": "Noë Biche",
        "code": 4315
      },
      "arrival": 62160,
      "departure": 62160
    },
    {
      "stop": {
        "id": "2_4307",
        "lat": 48.123516,
        "lon": -1.807448,
        "name": "Clairefontaine",
        "code": 4307
      },
      "arrival": 62220,
      "departure": 62220
    },
    {
      "stop": {
        "id": "2_4308",
        "lat": 48.125058,
        "lon": -1.813014,
        "name": "Village",
        "code": 4308
      },
      "arrival": 62280,
      "departure": 62280
    },
    {
      "stop": {
        "id": "2_4304",
        "lat": 48.125578,
        "lon": -1.815962,
        "name": "L\u0027Hermitage Centre",
        "code": 4304
      },
      "arrival": 62280,
      "departure": 62280
    },
    {
      "stop": {
        "id": "2_4310",
        "lat": 48.12375,
        "lon": -1.817992,
        "name": "L\u0027Hermitage Gare",
        "code": 4310
      },
      "arrival": 62340,
      "departure": 62340
    },
    {
      "stop": {
        "id": "2_4311",
        "lat": 48.12295,
        "lon": -1.82085,
        "name": "Hautière",
        "code": 4311
      },
      "arrival": 62340,
      "departure": 62340
    },
    {
      "stop": {
        "id": "2_4255",
        "lat": 48.12143,
        "lon": -1.83765,
        "name": "Grippière",
        "code": 4255
      },
      "arrival": 62460,
      "departure": 62460
    },
    {
      "stop": {
        "id": "2_4256",
        "lat": 48.122037,
        "lon": -1.846175,
        "name": "Piardière",
        "code": 4256
      },
      "arrival": 62520,
      "departure": 62520
    },
    {
      "stop": {
        "id": "2_4257",
        "lat": 48.123122,
        "lon": -1.860835,
        "name": "Rochers",
        "code": 4257
      },
      "arrival": 62640,
      "departure": 62640
    },
    {
      "stop": {
        "id": "2_4269",
        "lat": 48.123099,
        "lon": -1.866053,
        "name": "Place de la Mairie",
        "code": 4269
      },
      "arrival": 62700,
      "departure": 62700
    },
    {
      "stop": {
        "id": "2_4267",
        "lat": 48.122595,
        "lon": -1.868366,
        "name": "Ville aux Archers",
        "code": 4267
      },
      "arrival": 62760,
      "departure": 62760
    }
  ],
  "route": {
    "id": "2_0053",
    "textColor": "FFFFFF",
    "color": "D20132",
    "description": "Métropolitaine",
    "longName": "Rennes (République) \u003c\u003e Vezin-le-Coquet / L\u0027Hermitage / La Chapelle-Thouarault",
    "shortName": "53",
    "type": 3,
    "agencyId": "2"
  }
}