{
  "headsign": "50 | Thorigné-Fouillard",
  "stopTimes": [
    {
      "stop": {
        "id": "2_1563",
        "lat": 48.109698,
        "lon": -1.67815,
        "name": "République",
        "code": 1563
      },
      "arrival": 75000,
      "departure": 75000
    },
    {
      "stop": {
        "id": "2_1169",
        "lat": 48.109809,
        "lon": -1.674483,
        "name": "Musée Beaux Arts",
        "code": 1169
      },
      "arrival": 75060,
      "departure": 75060
    },
    {
      "stop": {
        "id": "2_1172",
        "lat": 48.11003,
        "lon": -1.659227,
        "name": "Robidou",
        "code": 1172
      },
      "arrival": 75240,
      "departure": 75240
    },
    {
      "stop": {
        "id": "2_1515",
        "lat": 48.113513,
        "lon": -1.647511,
        "name": "Moulin de Joué",
        "code": 1515
      },
      "arrival": 75420,
      "departure": 75420
    },
    {
      "stop": {
        "id": "2_1516",
        "lat": 48.115973,
        "lon": -1.648367,
        "name": "Bois Perrin",
        "code": 1516
      },
      "arrival": 75420,
      "departure": 75420
    },
    {
      "stop": {
        "id": "2_1152",
        "lat": 48.120615,
        "lon": -1.650675,
        "name": "Docteur Quentin",
        "code": 1152
      },
      "arrival": 75540,
      "departure": 75540
    },
    {
      "stop": {
        "id": "2_1034",
        "lat": 48.122185,
        "lon": -1.650619,
        "name": "Turmel",
        "code": 1034
      },
      "arrival": 75540,
      "departure": 75540
    },
    {
      "stop": {
        "id": "2_1035",
        "lat": 48.123677,
        "lon": -1.645158,
        "name": "Mirabeau",
        "code": 1035
      },
      "arrival": 75600,
      "departure": 75600
    },
    {
      "stop": {
        "id": "2_1036",
        "lat": 48.125556,
        "lon": -1.64198,
        "name": "Donzelot",
        "code": 1036
      },
      "arrival": 75600,
      "departure": 75600
    },
    {
      "stop": {
        "id": "2_1481",
        "lat": 48.129789,
        "lon": -1.642252,
        "name": "Pâtis Tatelin",
        "code": 1481
      },
      "arrival": 75720,
      "departure": 75720
    },
    {
      "stop": {
        "id": "2_1480",
        "lat": 48.131978,
        "lon": -1.634928,
        "name": "ZA Saint-Sulpice",
        "code": 1480
      },
      "arrival": 75780,
      "departure": 75780
    },
    {
      "stop": {
        "id": "2_2077",
        "lat": 48.134244,
        "lon": -1.628839,
        "name": "Lande Bouhard",
        "code": 2077
      },
      "arrival": 75840,
      "departure": 75840
    },
    {
      "stop": {
        "id": "2_2115",
        "lat": 48.137379,
        "lon": -1.622408,
        "name": "Château de Vaux",
        "code": 2115
      },
      "arrival": 75900,
      "departure": 75900
    },
    {
      "stop": {
        "id": "2_2072",
        "lat": 48.140592,
        "lon": -1.616329,
        "name": "Calendrou",
        "code": 2072
      },
      "arrival": 75960,
      "departure": 75960
    },
    {
      "stop": {
        "id": "2_2073",
        "lat": 48.145118,
        "lon": -1.608407,
        "name": "Victoire",
        "code": 2073
      },
      "arrival": 76020,
      "departure": 76020
    },
    {
      "stop": {
        "id": "2_3310",
        "lat": 48.156448,
        "lon": -1.591842,
        "name": "Portail",
        "code": 3310
      },
      "arrival": 76200,
      "departure": 76200
    },
    {
      "stop": {
        "id": "2_3311",
        "lat": 48.160618,
        "lon": -1.585461,
        "name": "Fouillard",
        "code": 3311
      },
      "arrival": 76260,
      "departure": 76260
    },
    {
      "stop": {
        "id": "2_3312",
        "lat": 48.162934,
        "lon": -1.579182,
        "name": "Juteauderies",
        "code": 3312
      },
      "arrival": 76380,
      "departure": 76380
    },
    {
      "stop": {
        "id": "2_3313",
        "lat": 48.159169,
        "lon": -1.579798,
        "name": "Bocage",
        "code": 3313
      },
      "arrival": 76440,
      "departure": 76440
    },
    {
      "stop": {
        "id": "2_3304",
        "lat": 48.155658,
        "lon": -1.580848,
        "name": "Anne de Bretagne",
        "code": 3304
      },
      "arrival": 76500,
      "departure": 76500
    },
    {
      "stop": {
        "id": "2_3302",
        "lat": 48.153039,
        "lon": -1.579445,
        "name": "Thorigné Mairie",
        "code": 3302
      },
      "arrival": 76560,
      "departure": 76560
    },
    {
      "stop": {
        "id": "2_3323",
        "lat": 48.149262,
        "lon": -1.577059,
        "name": "Curien",
        "code": 3323
      },
      "arrival": 76620,
      "departure": 76620
    },
    {
      "stop": {
        "id": "2_3301",
        "lat": 48.155188,
        "lon": -1.573107,
        "name": "Landelles",
        "code": 3301
      },
      "arrival": 76740,
      "departure": 76740
    }
  ],
  "route": {
    "id": "2_0050",
    "textColor": "FFFFFF",
    "color": "8DA6D2",
    "description": "Métropolitaine",
    "longName": "Rennes (République) \u003c\u003e Thorigné-Fouillard",
    "shortName": "50",
    "type": 3,
    "agencyId": "2"
  }
}