{
  "headsign": "1 | Chantepie Rosa Parks",
  "stopTimes": [
    {
      "stop": {
        "id": "2_2126",
        "lat": 48.13476313,
        "lon": -1.62183196,
        "name": "Champs Blancs",
        "code": 2126
      },
      "arrival": 72060,
      "departure": 72060
    },
    {
      "stop": {
        "id": "2_2124",
        "lat": 48.1315893,
        "lon": -1.62465329,
        "name": "Chêne Germain",
        "code": 2124
      },
      "arrival": 72180,
      "departure": 72180
    },
    {
      "stop": {
        "id": "2_2002",
        "lat": 48.13019422,
        "lon": -1.62766711,
        "name": "Cesson Hôpital Privé",
        "code": 2002
      },
      "arrival": 72240,
      "departure": 72240
    },
    {
      "stop": {
        "id": "2_1001",
        "lat": 48.12903716,
        "lon": -1.6325079,
        "name": "Longs Champs",
        "code": 1001
      },
      "arrival": 72300,
      "departure": 72300
    },
    {
      "stop": {
        "id": "2_1002",
        "lat": 48.12826604,
        "lon": -1.63765619,
        "name": "Bouzat",
        "code": 1002
      },
      "arrival": 72420,
      "departure": 72420
    },
    {
      "stop": {
        "id": "2_1003",
        "lat": 48.12744122,
        "lon": -1.64029002,
        "name": "Gallets",
        "code": 1003
      },
      "arrival": 72420,
      "departure": 72420
    },
    {
      "stop": {
        "id": "2_1004",
        "lat": 48.12528847,
        "lon": -1.64253775,
        "name": "Donzelot",
        "code": 1004
      },
      "arrival": 72540,
      "departure": 72540
    },
    {
      "stop": {
        "id": "2_1005",
        "lat": 48.1233588,
        "lon": -1.64623199,
        "name": "Mirabeau",
        "code": 1005
      },
      "arrival": 72600,
      "departure": 72600
    },
    {
      "stop": {
        "id": "2_1006",
        "lat": 48.12226258,
        "lon": -1.65069568,
        "name": "Turmel",
        "code": 1006
      },
      "arrival": 72660,
      "departure": 72660
    },
    {
      "stop": {
        "id": "2_1007",
        "lat": 48.12141888,
        "lon": -1.65505801,
        "name": "Assomption",
        "code": 1007
      },
      "arrival": 72720,
      "departure": 72720
    },
    {
      "stop": {
        "id": "2_1008",
        "lat": 48.12317413,
        "lon": -1.6602443,
        "name": "Painlevé",
        "code": 1008
      },
      "arrival": 72840,
      "departure": 72840
    },
    {
      "stop": {
        "id": "2_1009",
        "lat": 48.12162483,
        "lon": -1.6631771,
        "name": "Metz Volney",
        "code": 1009
      },
      "arrival": 72900,
      "departure": 72900
    },
    {
      "stop": {
        "id": "2_1010",
        "lat": 48.11917575,
        "lon": -1.66765915,
        "name": "Guéhenno",
        "code": 1010
      },
      "arrival": 73020,
      "departure": 73020
    },
    {
      "stop": {
        "id": "2_1011",
        "lat": 48.11830509,
        "lon": -1.67120349,
        "name": "Fac de Droit",
        "code": 1011
      },
      "arrival": 73080,
      "departure": 73080
    },
    {
      "stop": {
        "id": "2_1012",
        "lat": 48.11603572,
        "lon": -1.67418235,
        "name": "Sévigné",
        "code": 1012
      },
      "arrival": 73140,
      "departure": 73140
    },
    {
      "stop": {
        "id": "2_1014",
        "lat": 48.11371104,
        "lon": -1.67903599,
        "name": "Sainte-Anne",
        "code": 1014
      },
      "arrival": 73260,
      "departure": 73260
    },
    {
      "stop": {
        "id": "2_1015",
        "lat": 48.11252173,
        "lon": -1.68031651,
        "name": "Champ Jacquet",
        "code": 1015
      },
      "arrival": 73320,
      "departure": 73320
    },
    {
      "stop": {
        "id": "2_1024",
        "lat": 48.10997886,
        "lon": -1.68021216,
        "name": "République Nemours",
        "code": 1024
      },
      "arrival": 73500,
      "departure": 73500
    },
    {
      "stop": {
        "id": "2_1017",
        "lat": 48.10834873,
        "lon": -1.6801754,
        "name": "Les Halles",
        "code": 1017
      },
      "arrival": 73560,
      "departure": 73560
    },
    {
      "stop": {
        "id": "2_1088",
        "lat": 48.10744897,
        "lon": -1.67491383,
        "name": "Liberté TNB",
        "code": 1088
      },
      "arrival": 73680,
      "departure": 73680
    },
    {
      "stop": {
        "id": "2_1087",
        "lat": 48.1060299,
        "lon": -1.67410184,
        "name": "Champs Libres",
        "code": 1087
      },
      "arrival": 73800,
      "departure": 73800
    },
    {
      "stop": {
        "id": "2_1575",
        "lat": 48.10375866,
        "lon": -1.67132416,
        "name": "Gares",
        "code": 1575
      },
      "arrival": 73860,
      "departure": 73860
    },
    {
      "stop": {
        "id": "2_1085",
        "lat": 48.10476768,
        "lon": -1.66658594,
        "name": "Laënnec",
        "code": 1085
      },
      "arrival": 73980,
      "departure": 73980
    },
    {
      "stop": {
        "id": "2_1243",
        "lat": 48.10254897,
        "lon": -1.66111869,
        "name": "Croix Saint-Hélier",
        "code": 1243
      },
      "arrival": 74040,
      "departure": 74040
    },
    {
      "stop": {
        "id": "2_1316",
        "lat": 48.10120612,
        "lon": -1.65296379,
        "name": "Raison",
        "code": 1316
      },
      "arrival": 74100,
      "departure": 74100
    },
    {
      "stop": {
        "id": "2_1317",
        "lat": 48.10013962,
        "lon": -1.64938444,
        "name": "Villebois-Mareuil",
        "code": 1317
      },
      "arrival": 74160,
      "departure": 74160
    },
    {
      "stop": {
        "id": "2_1318",
        "lat": 48.09914749,
        "lon": -1.64597327,
        "name": "Landry",
        "code": 1318
      },
      "arrival": 74220,
      "departure": 74220
    },
    {
      "stop": {
        "id": "2_1319",
        "lat": 48.09705567,
        "lon": -1.64164476,
        "name": "Domaine",
        "code": 1319
      },
      "arrival": 74280,
      "departure": 74280
    },
    {
      "stop": {
        "id": "2_1320",
        "lat": 48.09498429,
        "lon": -1.63725113,
        "name": "CARSAT",
        "code": 1320
      },
      "arrival": 74340,
      "departure": 74340
    },
    {
      "stop": {
        "id": "2_1321",
        "lat": 48.09387292,
        "lon": -1.63388392,
        "name": "Sauvaie",
        "code": 1321
      },
      "arrival": 74400,
      "departure": 74400
    },
    {
      "stop": {
        "id": "2_3008",
        "lat": 48.09037236,
        "lon": -1.62410496,
        "name": "Loges",
        "code": 3008
      },
      "arrival": 74580,
      "departure": 74580
    },
    {
      "stop": {
        "id": "2_3009",
        "lat": 48.08836666,
        "lon": -1.61906683,
        "name": "Chantepie Mairie",
        "code": 3009
      },
      "arrival": 74640,
      "departure": 74640
    },
    {
      "stop": {
        "id": "2_3010",
        "lat": 48.08826039,
        "lon": -1.61687329,
        "name": "Chantepie Eglise",
        "code": 3010
      },
      "arrival": 74700,
      "departure": 74700
    },
    {
      "stop": {
        "id": "2_3011",
        "lat": 48.09043747,
        "lon": -1.61532491,
        "name": "Hallouvry",
        "code": 3011
      },
      "arrival": 74700,
      "departure": 74700
    },
    {
      "stop": {
        "id": "2_3012",
        "lat": 48.08828194,
        "lon": -1.61236516,
        "name": "Bourgogne",
        "code": 3012
      },
      "arrival": 74760,
      "departure": 74760
    },
    {
      "stop": {
        "id": "2_3013",
        "lat": 48.08586496,
        "lon": -1.61469687,
        "name": "Deux Ruisseaux",
        "code": 3013
      },
      "arrival": 74820,
      "departure": 74820
    },
    {
      "stop": {
        "id": "2_3001",
        "lat": 48.08507081,
        "lon": -1.61034947,
        "name": "Gériatrie",
        "code": 3001
      },
      "arrival": 74880,
      "departure": 74880
    },
    {
      "stop": {
        "id": "2_3029",
        "lat": 48.08573322,
        "lon": -1.60747448,
        "name": "Touche Annette",
        "code": 3029
      },
      "arrival": 75000,
      "departure": 75000
    },
    {
      "stop": {
        "id": "2_3028",
        "lat": 48.08547293,
        "lon": -1.60397916,
        "name": "Rosa Parks",
        "code": 3028
      },
      "arrival": 75060,
      "departure": 75060
    }
  ],
  "route": {
    "id": "2_0001",
    "textColor": "1A171B",
    "color": "97BF0D",
    "description": "Majeure",
    "longName": "Cesson-Sévigné (Champs Blancs) \u003c\u003e Chantepie (Rosa Parks)",
    "shortName": "1",
    "type": 3,
    "agencyId": "2"
  }
}