{
  "headsign": "C4 | ZA Saint-Sulpice",
  "stopTimes": [
    {
      "stop": {
        "id": "2_1168",
        "lat": 48.109761,
        "lon": -1.678807,
        "name": "République",
        "code": 1168
      },
      "arrival": 90900,
      "departure": 90900
    },
    {
      "stop": {
        "id": "2_1169",
        "lat": 48.109809,
        "lon": -1.674483,
        "name": "Musée Beaux Arts",
        "code": 1169
      },
      "arrival": 90960,
      "departure": 90960
    },
    {
      "stop": {
        "id": "2_1170",
        "lat": 48.109996,
        "lon": -1.669018,
        "name": "Paul Bert",
        "code": 1170
      },
      "arrival": 91080,
      "departure": 91080
    },
    {
      "stop": {
        "id": "2_1171",
        "lat": 48.110016,
        "lon": -1.663623,
        "name": "Pont de Châteaudun",
        "code": 1171
      },
      "arrival": 91140,
      "departure": 91140
    },
    {
      "stop": {
        "id": "2_1172",
        "lat": 48.11003,
        "lon": -1.659227,
        "name": "Robidou",
        "code": 1172
      },
      "arrival": 91200,
      "departure": 91200
    },
    {
      "stop": {
        "id": "2_1173",
        "lat": 48.110055,
        "lon": -1.656165,
        "name": "Pont de Strasbourg",
        "code": 1173
      },
      "arrival": 91200,
      "departure": 91200
    },
    {
      "stop": {
        "id": "2_1174",
        "lat": 48.112437,
        "lon": -1.64292,
        "name": "Plaine de Baud",
        "code": 1174
      },
      "arrival": 91320,
      "departure": 91320
    },
    {
      "stop": {
        "id": "2_1604",
        "lat": 48.113551,
        "lon": -1.640947,
        "name": "Les Préales",
        "code": 1604
      },
      "arrival": 91380,
      "departure": 91380
    },
    {
      "stop": {
        "id": "2_1610",
        "lat": 48.114025,
        "lon": -1.636082,
        "name": "Tournebride",
        "code": 1610
      },
      "arrival": 91440,
      "departure": 91440
    },
    {
      "stop": {
        "id": "2_1175",
        "lat": 48.117101,
        "lon": -1.633896,
        "name": "Beaulieu Chimie",
        "code": 1175
      },
      "arrival": 91500,
      "departure": 91500
    },
    {
      "stop": {
        "id": "2_1204",
        "lat": 48.119511,
        "lon": -1.635317,
        "name": "Beaulieu INSA",
        "code": 1204
      },
      "arrival": 91560,
      "departure": 91560
    },
    {
      "stop": {
        "id": "2_1313",
        "lat": 48.121929,
        "lon": -1.638311,
        "name": "Beaulieu Restau U",
        "code": 1313
      },
      "arrival": 91620,
      "departure": 91620
    },
    {
      "stop": {
        "id": "2_1314",
        "lat": 48.125106,
        "lon": -1.632973,
        "name": "IUT",
        "code": 1314
      },
      "arrival": 91680,
      "departure": 91680
    },
    {
      "stop": {
        "id": "2_1475",
        "lat": 48.126858,
        "lon": -1.629514,
        "name": "Clos Courtel",
        "code": 1475
      },
      "arrival": 91740,
      "departure": 91740
    },
    {
      "stop": {
        "id": "2_2121",
        "lat": 48.130368,
        "lon": -1.631314,
        "name": "Longs Champs Est",
        "code": 2121
      },
      "arrival": 91800,
      "departure": 91800
    },
    {
      "stop": {
        "id": "2_1630",
        "lat": 48.132662,
        "lon": -1.636187,
        "name": "ZA Saint-Sulpice",
        "code": 1630
      },
      "arrival": 91920,
      "departure": 91920
    }
  ],
  "route": {
    "id": "2_0004",
    "textColor": "FFFFFF",
    "color": "6D1F80",
    "description": "Chronostar",
    "longName": "Beauregard \u003c\u003e ZA Saint-Sulpice",
    "shortName": "C4",
    "type": 3,
    "agencyId": "2"
  }
}