{
  "headsign": "C4 | ZA Saint-Sulpice",
  "stopTimes": [
    {
      "stop": {
        "id": "2_1586",
        "lat": 48.13154131,
        "lon": -1.69451902,
        "name": "Beauregard",
        "code": 1586
      },
      "arrival": 89700,
      "departure": 89700
    },
    {
      "stop": {
        "id": "2_1543",
        "lat": 48.13134643,
        "lon": -1.69183513,
        "name": "Léonard",
        "code": 1543
      },
      "arrival": 89760,
      "departure": 89760
    },
    {
      "stop": {
        "id": "2_1303",
        "lat": 48.12832572,
        "lon": -1.69414225,
        "name": "Préfecture",
        "code": 1303
      },
      "arrival": 89820,
      "departure": 89820
    },
    {
      "stop": {
        "id": "2_1300",
        "lat": 48.12858619,
        "lon": -1.69873296,
        "name": "Cucillé",
        "code": 1300
      },
      "arrival": 89880,
      "departure": 89880
    },
    {
      "stop": {
        "id": "2_1305",
        "lat": 48.12765808,
        "lon": -1.70324184,
        "name": "Olympe de Gouges",
        "code": 1305
      },
      "arrival": 89940,
      "departure": 89940
    },
    {
      "stop": {
        "id": "2_1306",
        "lat": 48.12533687,
        "lon": -1.70312933,
        "name": "Bois Labbé",
        "code": 1306
      },
      "arrival": 90000,
      "departure": 90000
    },
    {
      "stop": {
        "id": "2_1307",
        "lat": 48.12192614,
        "lon": -1.70388916,
        "name": "Villejean-Université",
        "code": 1307
      },
      "arrival": 90060,
      "departure": 90060
    },
    {
      "stop": {
        "id": "2_1308",
        "lat": 48.11892068,
        "lon": -1.70465808,
        "name": "Université",
        "code": 1308
      },
      "arrival": 90120,
      "departure": 90120
    },
    {
      "stop": {
        "id": "2_1309",
        "lat": 48.11673461,
        "lon": -1.70477296,
        "name": "Berger",
        "code": 1309
      },
      "arrival": 90180,
      "departure": 90180
    },
    {
      "stop": {
        "id": "2_1191",
        "lat": 48.11557373,
        "lon": -1.70472339,
        "name": "Languedoc",
        "code": 1191
      },
      "arrival": 90240,
      "departure": 90240
    },
    {
      "stop": {
        "id": "2_1188",
        "lat": 48.11498493,
        "lon": -1.70208633,
        "name": "La Salle",
        "code": 1188
      },
      "arrival": 90300,
      "departure": 90300
    },
    {
      "stop": {
        "id": "2_1294",
        "lat": 48.11140799,
        "lon": -1.70136408,
        "name": "Marbeuf",
        "code": 1294
      },
      "arrival": 90360,
      "departure": 90360
    },
    {
      "stop": {
        "id": "2_1311",
        "lat": 48.10966101,
        "lon": -1.69838195,
        "name": "Guilloux",
        "code": 1311
      },
      "arrival": 90420,
      "departure": 90420
    },
    {
      "stop": {
        "id": "2_1239",
        "lat": 48.10827073,
        "lon": -1.6941653,
        "name": "Chèques Postaux",
        "code": 1239
      },
      "arrival": 90480,
      "departure": 90480
    },
    {
      "stop": {
        "id": "2_1240",
        "lat": 48.10927186,
        "lon": -1.68970708,
        "name": "Le Mail",
        "code": 1240
      },
      "arrival": 90540,
      "departure": 90540
    },
    {
      "stop": {
        "id": "2_1091",
        "lat": 48.10977886,
        "lon": -1.68388248,
        "name": "Place de Bretagne",
        "code": 1091
      },
      "arrival": 90660,
      "departure": 90660
    },
    {
      "stop": {
        "id": "2_1168",
        "lat": 48.10980866,
        "lon": -1.67882417,
        "name": "République",
        "code": 1168
      },
      "arrival": 90840,
      "departure": 92100
    },
    {
      "stop": {
        "id": "2_1169",
        "lat": 48.10985335,
        "lon": -1.67452094,
        "name": "Musée Beaux Arts",
        "code": 1169
      },
      "arrival": 92160,
      "departure": 92160
    },
    {
      "stop": {
        "id": "2_1170",
        "lat": 48.11003344,
        "lon": -1.66907214,
        "name": "Paul Bert",
        "code": 1170
      },
      "arrival": 92280,
      "departure": 92280
    },
    {
      "stop": {
        "id": "2_1171",
        "lat": 48.11006771,
        "lon": -1.66358483,
        "name": "Pont de Châteaudun",
        "code": 1171
      },
      "arrival": 92340,
      "departure": 92340
    },
    {
      "stop": {
        "id": "2_1172",
        "lat": 48.11007924,
        "lon": -1.65919453,
        "name": "Robidou",
        "code": 1172
      },
      "arrival": 92400,
      "departure": 92400
    },
    {
      "stop": {
        "id": "2_1173",
        "lat": 48.11008942,
        "lon": -1.65614253,
        "name": "Pont de Strasbourg",
        "code": 1173
      },
      "arrival": 92400,
      "departure": 92400
    },
    {
      "stop": {
        "id": "2_1174",
        "lat": 48.11246664,
        "lon": -1.64290057,
        "name": "Plaine de Baud",
        "code": 1174
      },
      "arrival": 92520,
      "departure": 92520
    },
    {
      "stop": {
        "id": "2_1604",
        "lat": 48.11354849,
        "lon": -1.64100035,
        "name": "Les Préales",
        "code": 1604
      },
      "arrival": 92580,
      "departure": 92580
    },
    {
      "stop": {
        "id": "2_1610",
        "lat": 48.11406057,
        "lon": -1.63602668,
        "name": "Tournebride",
        "code": 1610
      },
      "arrival": 92640,
      "departure": 92640
    },
    {
      "stop": {
        "id": "2_1175",
        "lat": 48.11698398,
        "lon": -1.63390592,
        "name": "Beaulieu Chimie",
        "code": 1175
      },
      "arrival": 92700,
      "departure": 92700
    },
    {
      "stop": {
        "id": "2_1204",
        "lat": 48.11947653,
        "lon": -1.63539005,
        "name": "Beaulieu INSA",
        "code": 1204
      },
      "arrival": 92760,
      "departure": 92760
    },
    {
      "stop": {
        "id": "2_1313",
        "lat": 48.12187502,
        "lon": -1.63834696,
        "name": "Beaulieu Restau U",
        "code": 1313
      },
      "arrival": 92820,
      "departure": 92820
    },
    {
      "stop": {
        "id": "2_1314",
        "lat": 48.1250923,
        "lon": -1.63309609,
        "name": "IUT",
        "code": 1314
      },
      "arrival": 92880,
      "departure": 92880
    },
    {
      "stop": {
        "id": "2_1475",
        "lat": 48.12695887,
        "lon": -1.62918033,
        "name": "Clos Courtel",
        "code": 1475
      },
      "arrival": 92940,
      "departure": 92940
    },
    {
      "stop": {
        "id": "2_2121",
        "lat": 48.13034917,
        "lon": -1.63135124,
        "name": "Longs Champs Est",
        "code": 2121
      },
      "arrival": 93000,
      "departure": 93000
    },
    {
      "stop": {
        "id": "2_1630",
        "lat": 48.13266219,
        "lon": -1.63618724,
        "name": "ZA Saint-Sulpice",
        "code": 1630
      },
      "arrival": 93120,
      "departure": 93120
    }
  ],
  "route": {
    "id": "2_0004",
    "textColor": "FFFFFF",
    "color": "6D1F80",
    "description": "Chronostar",
    "longName": "Beauregard \u003c\u003e ZA Saint-Sulpice",
    "shortName": "C4",
    "type": 3,
    "agencyId": "2"
  }
}