{
  "headsign": "a | La Poterie",
  "stopTimes": [
    {
      "stop": {
        "id": "2_5030",
        "lat": 48.087531,
        "lon": -1.644633,
        "name": "La Poterie",
        "code": 5030
      },
      "arrival": 60600,
      "departure": 60600
    },
    {
      "stop": {
        "id": "2_5029",
        "lat": 48.087765,
        "lon": -1.654439,
        "name": "Le Blosne",
        "code": 5029
      },
      "arrival": 60681,
      "departure": 60681
    },
    {
      "stop": {
        "id": "2_5028",
        "lat": 48.086477,
        "lon": -1.660654,
        "name": "Triangle",
        "code": 5028
      },
      "arrival": 60736,
      "departure": 60736
    },
    {
      "stop": {
        "id": "2_5027",
        "lat": 48.086598,
        "lon": -1.667741,
        "name": "Italie",
        "code": 5027
      },
      "arrival": 60799,
      "departure": 60799
    },
    {
      "stop": {
        "id": "2_5026",
        "lat": 48.087673,
        "lon": -1.674777,
        "name": "Henri Fréville",
        "code": 5026
      },
      "arrival": 60866,
      "departure": 60866
    },
    {
      "stop": {
        "id": "2_5025",
        "lat": 48.093653,
        "lon": -1.674394,
        "name": "Clemenceau",
        "code": 5025
      },
      "arrival": 60939,
      "departure": 60939
    },
    {
      "stop": {
        "id": "2_5024",
        "lat": 48.097605,
        "lon": -1.675419,
        "name": "Jacques Cartier",
        "code": 5024
      },
      "arrival": 60990,
      "departure": 60990
    },
    {
      "stop": {
        "id": "2_5023",
        "lat": 48.103875,
        "lon": -1.672183,
        "name": "Gares",
        "code": 5023
      },
      "arrival": 61092,
      "departure": 61092
    },
    {
      "stop": {
        "id": "2_5022",
        "lat": 48.105541,
        "lon": -1.677023,
        "name": "Charles de Gaulle",
        "code": 5022
      },
      "arrival": 61135,
      "departure": 61135
    },
    {
      "stop": {
        "id": "2_5021",
        "lat": 48.109712,
        "lon": -1.679138,
        "name": "République",
        "code": 5021
      },
      "arrival": 61200,
      "departure": 61200
    },
    {
      "stop": {
        "id": "2_5020",
        "lat": 48.114501,
        "lon": -1.680398,
        "name": "Sainte-Anne",
        "code": 5020
      },
      "arrival": 61264,
      "departure": 61264
    },
    {
      "stop": {
        "id": "2_5019",
        "lat": 48.118119,
        "lon": -1.687454,
        "name": "Anatole France",
        "code": 5019
      },
      "arrival": 61339,
      "departure": 61339
    },
    {
      "stop": {
        "id": "2_5018",
        "lat": 48.121578,
        "lon": -1.693461,
        "name": "Pontchaillou",
        "code": 5018
      },
      "arrival": 61410,
      "departure": 61410
    },
    {
      "stop": {
        "id": "2_5017",
        "lat": 48.121283,
        "lon": -1.703879,
        "name": "Villejean-Université",
        "code": 5017
      },
      "arrival": 61500,
      "departure": 61500
    },
    {
      "stop": {
        "id": "2_5001",
        "lat": 48.121295,
        "lon": -1.710943,
        "name": "J.F. Kennedy",
        "code": 5001
      },
      "arrival": 61560,
      "departure": 61560
    }
  ],
  "route": {
    "id": "2_1001",
    "textColor": "EE1D23",
    "color": "FFFFFF",
    "description": "Métro",
    "longName": "La Poterie \u003c\u003e J.F. Kennedy",
    "shortName": "a",
    "type": 1,
    "agencyId": "2"
  }
}