{
  "headsign": "72 | Rennes Henri Fréville",
  "stopTimes": [
    {
      "stop": {
        "id": "2_3901",
        "lat": 47.999909,
        "lon": -1.696968,
        "name": "Bois Esnault",
        "code": 3901
      },
      "arrival": 63300,
      "departure": 63300
    },
    {
      "stop": {
        "id": "2_3902",
        "lat": 48.006505,
        "lon": -1.69847,
        "name": "Caliorne",
        "code": 3902
      },
      "arrival": 63420,
      "departure": 63420
    },
    {
      "stop": {
        "id": "2_3903",
        "lat": 48.010649,
        "lon": -1.700885,
        "name": "Mouton Blanc",
        "code": 3903
      },
      "arrival": 63480,
      "departure": 63480
    },
    {
      "stop": {
        "id": "2_3913",
        "lat": 48.013,
        "lon": -1.703093,
        "name": "Chemin Vert",
        "code": 3913
      },
      "arrival": 63540,
      "departure": 63540
    },
    {
      "stop": {
        "id": "2_3905",
        "lat": 48.010604,
        "lon": -1.707005,
        "name": "Pont Péan Mairie",
        "code": 3905
      },
      "arrival": 63600,
      "departure": 63600
    },
    {
      "stop": {
        "id": "2_3906",
        "lat": 48.013631,
        "lon": -1.707588,
        "name": "Rivaudière",
        "code": 3906
      },
      "arrival": 63660,
      "departure": 63660
    },
    {
      "stop": {
        "id": "2_3907",
        "lat": 48.016278,
        "lon": -1.705639,
        "name": "Fontaine Blanche",
        "code": 3907
      },
      "arrival": 63660,
      "departure": 63660
    },
    {
      "stop": {
        "id": "2_3908",
        "lat": 48.019925,
        "lon": -1.706935,
        "name": "Renaissance",
        "code": 3908
      },
      "arrival": 63720,
      "departure": 63720
    },
    {
      "stop": {
        "id": "2_2928",
        "lat": 48.031429,
        "lon": -1.708755,
        "name": "Constant Mérel",
        "code": 2928
      },
      "arrival": 63900,
      "departure": 63900
    },
    {
      "stop": {
        "id": "2_2911",
        "lat": 48.033268,
        "lon": -1.707228,
        "name": "Parc de Loisirs",
        "code": 2911
      },
      "arrival": 63960,
      "departure": 63960
    },
    {
      "stop": {
        "id": "2_2912",
        "lat": 48.035455,
        "lon": -1.70627,
        "name": "Argoat",
        "code": 2912
      },
      "arrival": 64020,
      "departure": 64020
    },
    {
      "stop": {
        "id": "2_2913",
        "lat": 48.034611,
        "lon": -1.69941,
        "name": "Cornouaille",
        "code": 2913
      },
      "arrival": 64080,
      "departure": 64080
    },
    {
      "stop": {
        "id": "2_2914",
        "lat": 48.036918,
        "lon": -1.697008,
        "name": "Vieux Bourg",
        "code": 2914
      },
      "arrival": 64140,
      "departure": 64140
    },
    {
      "stop": {
        "id": "2_2915",
        "lat": 48.041376,
        "lon": -1.698416,
        "name": "Collège Pôle Sud",
        "code": 2915
      },
      "arrival": 64260,
      "departure": 64260
    },
    {
      "stop": {
        "id": "2_2916",
        "lat": 48.04169,
        "lon": -1.702632,
        "name": "Auditoire",
        "code": 2916
      },
      "arrival": 64320,
      "departure": 64320
    },
    {
      "stop": {
        "id": "2_2917",
        "lat": 48.042349,
        "lon": -1.706501,
        "name": "Chartres Centre",
        "code": 2917
      },
      "arrival": 64380,
      "departure": 64380
    },
    {
      "stop": {
        "id": "2_2905",
        "lat": 48.042325,
        "lon": -1.712032,
        "name": "Callouët",
        "code": 2905
      },
      "arrival": 64440,
      "departure": 64440
    },
    {
      "stop": {
        "id": "2_2906",
        "lat": 48.045906,
        "lon": -1.710086,
        "name": "Croix aux Potiers",
        "code": 2906
      },
      "arrival": 64500,
      "departure": 64500
    },
    {
      "stop": {
        "id": "2_2701",
        "lat": 48.059075,
        "lon": -1.700988,
        "name": "Janais",
        "code": 2701
      },
      "arrival": 64680,
      "departure": 64680
    },
    {
      "stop": {
        "id": "2_2702",
        "lat": 48.06843,
        "lon": -1.697574,
        "name": "Vallon",
        "code": 2702
      },
      "arrival": 64740,
      "departure": 64740
    },
    {
      "stop": {
        "id": "2_1267",
        "lat": 48.085707,
        "lon": -1.693903,
        "name": "Félix Eboué",
        "code": 1267
      },
      "arrival": 64980,
      "departure": 64980
    },
    {
      "stop": {
        "id": "2_1456",
        "lat": 48.086541,
        "lon": -1.687451,
        "name": "Coubertin",
        "code": 1456
      },
      "arrival": 65100,
      "departure": 65100
    },
    {
      "stop": {
        "id": "2_1457",
        "lat": 48.086765,
        "lon": -1.683887,
        "name": "Norvège",
        "code": 1457
      },
      "arrival": 65160,
      "departure": 65160
    },
    {
      "stop": {
        "id": "2_1534",
        "lat": 48.088549,
        "lon": -1.67439,
        "name": "Henri Fréville",
        "code": 1534
      },
      "arrival": 65280,
      "departure": 65280
    }
  ],
  "route": {
    "id": "2_0072",
    "textColor": "FFFFFF",
    "color": "004293",
    "description": "Métropolitaine",
    "longName": "Rennes (Henri Fréville) \u003c\u003e Chartres-de-Bretagne / Pont-Péan / Laillé",
    "shortName": "72",
    "type": 3,
    "agencyId": "2"
  }
}