{
  "headsign": "72 | Rennes Henri Fréville",
  "stopTimes": [
    {
      "stop": {
        "id": "2_3901",
        "lat": 47.999909,
        "lon": -1.696968,
        "name": "Bois Esnault",
        "code": 3901
      },
      "arrival": 39720,
      "departure": 39720
    },
    {
      "stop": {
        "id": "2_3902",
        "lat": 48.006505,
        "lon": -1.69847,
        "name": "Caliorne",
        "code": 3902
      },
      "arrival": 39780,
      "departure": 39780
    },
    {
      "stop": {
        "id": "2_3903",
        "lat": 48.010649,
        "lon": -1.700885,
        "name": "Mouton Blanc",
        "code": 3903
      },
      "arrival": 39840,
      "departure": 39840
    },
    {
      "stop": {
        "id": "2_3913",
        "lat": 48.013,
        "lon": -1.703093,
        "name": "Chemin Vert",
        "code": 3913
      },
      "arrival": 39900,
      "departure": 39900
    },
    {
      "stop": {
        "id": "2_3905",
        "lat": 48.010604,
        "lon": -1.707005,
        "name": "Pont Péan Mairie",
        "code": 3905
      },
      "arrival": 39960,
      "departure": 39960
    },
    {
      "stop": {
        "id": "2_3906",
        "lat": 48.013631,
        "lon": -1.707588,
        "name": "Rivaudière",
        "code": 3906
      },
      "arrival": 40020,
      "departure": 40020
    },
    {
      "stop": {
        "id": "2_3907",
        "lat": 48.016278,
        "lon": -1.705639,
        "name": "Fontaine Blanche",
        "code": 3907
      },
      "arrival": 40020,
      "departure": 40020
    },
    {
      "stop": {
        "id": "2_3908",
        "lat": 48.019925,
        "lon": -1.706935,
        "name": "Renaissance",
        "code": 3908
      },
      "arrival": 40080,
      "departure": 40080
    },
    {
      "stop": {
        "id": "2_2928",
        "lat": 48.031429,
        "lon": -1.708755,
        "name": "Constant Mérel",
        "code": 2928
      },
      "arrival": 40260,
      "departure": 40260
    },
    {
      "stop": {
        "id": "2_2911",
        "lat": 48.033268,
        "lon": -1.707228,
        "name": "Parc de Loisirs",
        "code": 2911
      },
      "arrival": 40320,
      "departure": 40320
    },
    {
      "stop": {
        "id": "2_2912",
        "lat": 48.035455,
        "lon": -1.70627,
        "name": "Argoat",
        "code": 2912
      },
      "arrival": 40380,
      "departure": 40380
    },
    {
      "stop": {
        "id": "2_2913",
        "lat": 48.034611,
        "lon": -1.69941,
        "name": "Cornouaille",
        "code": 2913
      },
      "arrival": 40500,
      "departure": 40500
    },
    {
      "stop": {
        "id": "2_2914",
        "lat": 48.036918,
        "lon": -1.697008,
        "name": "Vieux Bourg",
        "code": 2914
      },
      "arrival": 40560,
      "departure": 40560
    },
    {
      "stop": {
        "id": "2_2915",
        "lat": 48.041376,
        "lon": -1.698416,
        "name": "Collège Pôle Sud",
        "code": 2915
      },
      "arrival": 40680,
      "departure": 40680
    },
    {
      "stop": {
        "id": "2_2916",
        "lat": 48.04169,
        "lon": -1.702632,
        "name": "Auditoire",
        "code": 2916
      },
      "arrival": 40740,
      "departure": 40740
    },
    {
      "stop": {
        "id": "2_2917",
        "lat": 48.042349,
        "lon": -1.706501,
        "name": "Chartres Centre",
        "code": 2917
      },
      "arrival": 40800,
      "departure": 40800
    },
    {
      "stop": {
        "id": "2_2905",
        "lat": 48.042325,
        "lon": -1.712032,
        "name": "Callouët",
        "code": 2905
      },
      "arrival": 40920,
      "departure": 40920
    },
    {
      "stop": {
        "id": "2_2906",
        "lat": 48.045906,
        "lon": -1.710086,
        "name": "Croix aux Potiers",
        "code": 2906
      },
      "arrival": 40980,
      "departure": 40980
    },
    {
      "stop": {
        "id": "2_2701",
        "lat": 48.059075,
        "lon": -1.700988,
        "name": "Janais",
        "code": 2701
      },
      "arrival": 41160,
      "departure": 41160
    },
    {
      "stop": {
        "id": "2_2702",
        "lat": 48.06843,
        "lon": -1.697574,
        "name": "Vallon",
        "code": 2702
      },
      "arrival": 41220,
      "departure": 41220
    },
    {
      "stop": {
        "id": "2_1267",
        "lat": 48.085707,
        "lon": -1.693903,
        "name": "Félix Eboué",
        "code": 1267
      },
      "arrival": 41460,
      "departure": 41460
    },
    {
      "stop": {
        "id": "2_1456",
        "lat": 48.086541,
        "lon": -1.687451,
        "name": "Coubertin",
        "code": 1456
      },
      "arrival": 41580,
      "departure": 41580
    },
    {
      "stop": {
        "id": "2_1457",
        "lat": 48.086765,
        "lon": -1.683887,
        "name": "Norvège",
        "code": 1457
      },
      "arrival": 41640,
      "departure": 41640
    },
    {
      "stop": {
        "id": "2_1534",
        "lat": 48.088549,
        "lon": -1.67439,
        "name": "Henri Fréville",
        "code": 1534
      },
      "arrival": 41760,
      "departure": 41760
    }
  ],
  "route": {
    "id": "2_0072",
    "textColor": "FFFFFF",
    "color": "004293",
    "description": "Métropolitaine",
    "longName": "Rennes (Henri Fréville) \u003c\u003e Chartres-de-Bretagne / Pont-Péan / Laillé",
    "shortName": "72",
    "type": 3,
    "agencyId": "2"
  }
}