{
  "headsign": "8 | La Poterie",
  "stopTimes": [
    {
      "stop": {
        "id": "2_9205",
        "lat": 48.158008,
        "lon": -1.686607,
        "name": "Uttenreuth",
        "code": 9205
      },
      "arrival": 90180,
      "departure": 90180
    },
    {
      "stop": {
        "id": "2_2824",
        "lat": 48.158874,
        "lon": -1.685178,
        "name": "Vivier Louis",
        "code": 2824
      },
      "arrival": 90240,
      "departure": 90240
    },
    {
      "stop": {
        "id": "2_2825",
        "lat": 48.159086,
        "lon": -1.680796,
        "name": "Camus",
        "code": 2825
      },
      "arrival": 90240,
      "departure": 90240
    },
    {
      "stop": {
        "id": "2_2846",
        "lat": 48.158993,
        "lon": -1.676337,
        "name": "Ricoquais",
        "code": 2846
      },
      "arrival": 90300,
      "departure": 90300
    },
    {
      "stop": {
        "id": "2_2843",
        "lat": 48.15835,
        "lon": -1.67217,
        "name": "Nobel",
        "code": 2843
      },
      "arrival": 90360,
      "departure": 90360
    },
    {
      "stop": {
        "id": "2_9207",
        "lat": 48.155682,
        "lon": -1.671246,
        "name": "Champ Daguet",
        "code": 9207
      },
      "arrival": 90420,
      "departure": 90420
    },
    {
      "stop": {
        "id": "2_2812",
        "lat": 48.150852,
        "lon": -1.685834,
        "name": "Forge",
        "code": 2812
      },
      "arrival": 90660,
      "departure": 90660
    },
    {
      "stop": {
        "id": "2_2813",
        "lat": 48.147437,
        "lon": -1.686162,
        "name": "Haut Trait",
        "code": 2813
      },
      "arrival": 90720,
      "departure": 90720
    },
    {
      "stop": {
        "id": "2_2817",
        "lat": 48.143099,
        "lon": -1.686451,
        "name": "CHP Saint-Grégoire",
        "code": 2817
      },
      "arrival": 90780,
      "departure": 90780
    },
    {
      "stop": {
        "id": "2_2815",
        "lat": 48.13715,
        "lon": -1.686401,
        "name": "La Plesse",
        "code": 2815
      },
      "arrival": 90840,
      "departure": 90840
    },
    {
      "stop": {
        "id": "2_1328",
        "lat": 48.133338,
        "lon": -1.685372,
        "name": "Lycée Mendès France",
        "code": 1328
      },
      "arrival": 90900,
      "departure": 90900
    },
    {
      "stop": {
        "id": "2_1040",
        "lat": 48.130069,
        "lon": -1.684377,
        "name": "Donelière",
        "code": 1040
      },
      "arrival": 90960,
      "departure": 90960
    },
    {
      "stop": {
        "id": "2_1101",
        "lat": 48.127266,
        "lon": -1.68326,
        "name": "Trois Croix",
        "code": 1101
      },
      "arrival": 91020,
      "departure": 91020
    },
    {
      "stop": {
        "id": "2_1042",
        "lat": 48.124255,
        "lon": -1.681766,
        "name": "Cimetière Nord",
        "code": 1042
      },
      "arrival": 91080,
      "departure": 91080
    },
    {
      "stop": {
        "id": "2_1043",
        "lat": 48.123614,
        "lon": -1.684238,
        "name": "Saint-Martin",
        "code": 1043
      },
      "arrival": 91140,
      "departure": 91140
    },
    {
      "stop": {
        "id": "2_1329",
        "lat": 48.12158,
        "lon": -1.683279,
        "name": "Lenoir",
        "code": 1329
      },
      "arrival": 91140,
      "departure": 91140
    },
    {
      "stop": {
        "id": "2_1330",
        "lat": 48.120357,
        "lon": -1.681603,
        "name": "Auberge de Jeunesse",
        "code": 1330
      },
      "arrival": 91200,
      "departure": 91200
    },
    {
      "stop": {
        "id": "2_1331",
        "lat": 48.118043,
        "lon": -1.680797,
        "name": "Square de la Rance",
        "code": 1331
      },
      "arrival": 91260,
      "departure": 91260
    },
    {
      "stop": {
        "id": "2_1027",
        "lat": 48.117163,
        "lon": -1.677351,
        "name": "Hôtel Dieu",
        "code": 1027
      },
      "arrival": 91380,
      "departure": 91380
    },
    {
      "stop": {
        "id": "2_1555",
        "lat": 48.113304,
        "lon": -1.675306,
        "name": "Fossés",
        "code": 1555
      },
      "arrival": 91560,
      "departure": 91560
    },
    {
      "stop": {
        "id": "2_1507",
        "lat": 48.109339,
        "lon": -1.675124,
        "name": "Lycée Zola",
        "code": 1507
      },
      "arrival": 91680,
      "departure": 91680
    },
    {
      "stop": {
        "id": "2_1556",
        "lat": 48.1094,
        "lon": -1.677626,
        "name": "République",
        "code": 1556
      },
      "arrival": 91740,
      "departure": 92100
    },
    {
      "stop": {
        "id": "2_1121",
        "lat": 48.106067,
        "lon": -1.677817,
        "name": "Charles de Gaulle",
        "code": 1121
      },
      "arrival": 92220,
      "departure": 92220
    },
    {
      "stop": {
        "id": "2_1122",
        "lat": 48.103006,
        "lon": -1.676882,
        "name": "Gare Sud Féval",
        "code": 1122
      },
      "arrival": 92280,
      "departure": 92280
    },
    {
      "stop": {
        "id": "2_1123",
        "lat": 48.099181,
        "lon": -1.675756,
        "name": "Ginguené",
        "code": 1123
      },
      "arrival": 92340,
      "departure": 92340
    },
    {
      "stop": {
        "id": "2_1140",
        "lat": 48.097421,
        "lon": -1.674416,
        "name": "Jacques Cartier",
        "code": 1140
      },
      "arrival": 92400,
      "departure": 92400
    },
    {
      "stop": {
        "id": "2_1334",
        "lat": 48.097716,
        "lon": -1.6713,
        "name": "Châtillon",
        "code": 1334
      },
      "arrival": 92460,
      "departure": 92460
    },
    {
      "stop": {
        "id": "2_1335",
        "lat": 48.097705,
        "lon": -1.6684,
        "name": "Ormeaux",
        "code": 1335
      },
      "arrival": 92520,
      "departure": 92520
    },
    {
      "stop": {
        "id": "2_1336",
        "lat": 48.097982,
        "lon": -1.666405,
        "name": "Bigot de Préameneu",
        "code": 1336
      },
      "arrival": 92520,
      "departure": 92520
    },
    {
      "stop": {
        "id": "2_1337",
        "lat": 48.097532,
        "lon": -1.66289,
        "name": "Sainte-Thérèse",
        "code": 1337
      },
      "arrival": 92580,
      "departure": 92580
    },
    {
      "stop": {
        "id": "2_1338",
        "lat": 48.09502,
        "lon": -1.661622,
        "name": "Leray",
        "code": 1338
      },
      "arrival": 92640,
      "departure": 92640
    },
    {
      "stop": {
        "id": "2_1339",
        "lat": 48.094676,
        "lon": -1.658629,
        "name": "Langevin",
        "code": 1339
      },
      "arrival": 92700,
      "departure": 92700
    },
    {
      "stop": {
        "id": "2_1340",
        "lat": 48.091996,
        "lon": -1.658498,
        "name": "Gide",
        "code": 1340
      },
      "arrival": 92700,
      "departure": 92700
    },
    {
      "stop": {
        "id": "2_1341",
        "lat": 48.091222,
        "lon": -1.654578,
        "name": "Landrel",
        "code": 1341
      },
      "arrival": 92760,
      "departure": 92760
    },
    {
      "stop": {
        "id": "2_1342",
        "lat": 48.091175,
        "lon": -1.651756,
        "name": "Pologne",
        "code": 1342
      },
      "arrival": 92820,
      "departure": 92820
    },
    {
      "stop": {
        "id": "2_1356",
        "lat": 48.087458,
        "lon": -1.649853,
        "name": "Galicie",
        "code": 1356
      },
      "arrival": 92880,
      "departure": 92880
    },
    {
      "stop": {
        "id": "2_1343",
        "lat": 48.087643,
        "lon": -1.645966,
        "name": "La Poterie",
        "code": 1343
      },
      "arrival": 92940,
      "departure": 92940
    }
  ],
  "route": {
    "id": "2_0008",
    "textColor": "FFFFFF",
    "color": "B966A2",
    "description": "Majeure",
    "longName": "Saint-Grégoire \u003c\u003e Rennes (La Poterie)",
    "shortName": "8",
    "type": 3,
    "agencyId": "2"
  }
}