{
  "headsign": "61 | Noyal-Châtillon Saint-Erblon",
  "stopTimes": [
    {
      "stop": {
        "id": "2_1534",
        "lat": 48.08831453,
        "lon": -1.67444337,
        "name": "Henri Fréville",
        "code": 1534
      },
      "arrival": 71400,
      "departure": 71400
    },
    {
      "stop": {
        "id": "2_1465",
        "lat": 48.08611757,
        "lon": -1.66106774,
        "name": "Triangle",
        "code": 1465
      },
      "arrival": 71640,
      "departure": 71640
    },
    {
      "stop": {
        "id": "2_2715",
        "lat": 48.07864103,
        "lon": -1.66122751,
        "name": "Hil-Bintinais",
        "code": 2715
      },
      "arrival": 71760,
      "departure": 71760
    },
    {
      "stop": {
        "id": "2_2716",
        "lat": 48.0686191,
        "lon": -1.66595219,
        "name": "Petit Beaulieu",
        "code": 2716
      },
      "arrival": 71880,
      "departure": 71880
    },
    {
      "stop": {
        "id": "2_2717",
        "lat": 48.06365395,
        "lon": -1.66385987,
        "name": "Mail Lancé",
        "code": 2717
      },
      "arrival": 71880,
      "departure": 71880
    },
    {
      "stop": {
        "id": "2_2718",
        "lat": 48.05597164,
        "lon": -1.66413694,
        "name": "Croix Fleurie",
        "code": 2718
      },
      "arrival": 72000,
      "departure": 72000
    },
    {
      "stop": {
        "id": "2_2719",
        "lat": 48.04706769,
        "lon": -1.66111999,
        "name": "Petite Saudrais",
        "code": 2719
      },
      "arrival": 72060,
      "departure": 72060
    },
    {
      "stop": {
        "id": "2_2720",
        "lat": 48.0440836,
        "lon": -1.66135439,
        "name": "Salle Polyvalente",
        "code": 2720
      },
      "arrival": 72120,
      "departure": 72120
    },
    {
      "stop": {
        "id": "2_2721",
        "lat": 48.04244672,
        "lon": -1.665579,
        "name": "Centre",
        "code": 2721
      },
      "arrival": 72180,
      "departure": 72180
    },
    {
      "stop": {
        "id": "2_2722",
        "lat": 48.04077157,
        "lon": -1.67212053,
        "name": "Potiers",
        "code": 2722
      },
      "arrival": 72240,
      "departure": 72240
    },
    {
      "stop": {
        "id": "2_2723",
        "lat": 48.03839894,
        "lon": -1.67062832,
        "name": "Molène",
        "code": 2723
      },
      "arrival": 72300,
      "departure": 72300
    },
    {
      "stop": {
        "id": "2_2732",
        "lat": 48.03865705,
        "lon": -1.66680397,
        "name": "Pont",
        "code": 2732
      },
      "arrival": 72360,
      "departure": 72360
    },
    {
      "stop": {
        "id": "2_2733",
        "lat": 48.03487037,
        "lon": -1.66409088,
        "name": "Côteaux",
        "code": 2733
      },
      "arrival": 72420,
      "departure": 72420
    },
    {
      "stop": {
        "id": "2_2724",
        "lat": 48.02864041,
        "lon": -1.65979212,
        "name": "Bray",
        "code": 2724
      },
      "arrival": 72480,
      "departure": 72480
    },
    {
      "stop": {
        "id": "2_4360",
        "lat": 48.02156395,
        "lon": -1.65364618,
        "name": "Leuzières",
        "code": 4360
      },
      "arrival": 72600,
      "departure": 72600
    },
    {
      "stop": {
        "id": "2_4361",
        "lat": 48.01776753,
        "lon": -1.64957701,
        "name": "Croix Faucheux",
        "code": 4361
      },
      "arrival": 72660,
      "departure": 72660
    },
    {
      "stop": {
        "id": "2_4363",
        "lat": 48.01632313,
        "lon": -1.6513413,
        "name": "Alexandre Gilois",
        "code": 4363
      },
      "arrival": 72720,
      "departure": 72720
    },
    {
      "stop": {
        "id": "2_4354",
        "lat": 48.01764653,
        "lon": -1.65445718,
        "name": "Paul Féval",
        "code": 4354
      },
      "arrival": 72720,
      "departure": 72720
    },
    {
      "stop": {
        "id": "2_4355",
        "lat": 48.01883506,
        "lon": -1.65767902,
        "name": "Champ Mulon",
        "code": 4355
      },
      "arrival": 72780,
      "departure": 72780
    },
    {
      "stop": {
        "id": "2_4351",
        "lat": 48.01725668,
        "lon": -1.66042889,
        "name": "Parc d\u0027Activités",
        "code": 4351
      },
      "arrival": 72840,
      "departure": 72840
    }
  ],
  "route": {
    "id": "2_0061",
    "textColor": "ffffff",
    "color": "e43d6a",
    "description": "Métropolitaine",
    "longName": "Rennes (Henri Fréville) \u003c\u003e Noyal-Châtillon-sur-Seiche / Saint-Erblon",
    "shortName": "61",
    "type": 3,
    "agencyId": "2"
  }
}