{
  "headsign": "54 | Rennes Charles de Gaulle",
  "stopTimes": [
    {
      "stop": {
        "id": "2_4652",
        "lat": 48.10508252,
        "lon": -1.87271047,
        "name": "Chêne Vert",
        "code": 4652
      },
      "arrival": 39480,
      "departure": 39480
    },
    {
      "stop": {
        "id": "2_4653",
        "lat": 48.10342903,
        "lon": -1.86952936,
        "name": "Saint-Melaine",
        "code": 4653
      },
      "arrival": 39540,
      "departure": 39540
    },
    {
      "stop": {
        "id": "2_2501",
        "lat": 48.10244741,
        "lon": -1.83230313,
        "name": "Noë Diolé",
        "code": 2501
      },
      "arrival": 39720,
      "departure": 39720
    },
    {
      "stop": {
        "id": "2_2502",
        "lat": 48.1005527,
        "lon": -1.80657108,
        "name": "Lycée Monod",
        "code": 2502
      },
      "arrival": 39900,
      "departure": 39900
    },
    {
      "stop": {
        "id": "2_2503",
        "lat": 48.09895197,
        "lon": -1.80139197,
        "name": "Champs Freslons",
        "code": 2503
      },
      "arrival": 40020,
      "departure": 40020
    },
    {
      "stop": {
        "id": "2_2504",
        "lat": 48.09897121,
        "lon": -1.79693897,
        "name": "Brassens",
        "code": 2504
      },
      "arrival": 40080,
      "departure": 40080
    },
    {
      "stop": {
        "id": "2_2505",
        "lat": 48.10163022,
        "lon": -1.79451553,
        "name": "Bouleaux",
        "code": 2505
      },
      "arrival": 40140,
      "departure": 40140
    },
    {
      "stop": {
        "id": "2_2506",
        "lat": 48.09931104,
        "lon": -1.79124998,
        "name": "Genêts",
        "code": 2506
      },
      "arrival": 40200,
      "departure": 40200
    },
    {
      "stop": {
        "id": "2_2507",
        "lat": 48.09755056,
        "lon": -1.78133332,
        "name": "Barberais",
        "code": 2507
      },
      "arrival": 40320,
      "departure": 40320
    },
    {
      "stop": {
        "id": "2_2508",
        "lat": 48.09687556,
        "lon": -1.77558132,
        "name": "Les Pins",
        "code": 2508
      },
      "arrival": 40380,
      "departure": 40380
    },
    {
      "stop": {
        "id": "2_2509",
        "lat": 48.09614161,
        "lon": -1.76472044,
        "name": "Pont d\u0027Avoine",
        "code": 2509
      },
      "arrival": 40500,
      "departure": 40500
    },
    {
      "stop": {
        "id": "2_2510",
        "lat": 48.10386756,
        "lon": -1.75043717,
        "name": "Plessix Saucourt",
        "code": 2510
      },
      "arrival": 40680,
      "departure": 40680
    },
    {
      "stop": {
        "id": "2_3752",
        "lat": 48.10474061,
        "lon": -1.73906178,
        "name": "Trois Marches",
        "code": 3752
      },
      "arrival": 40800,
      "departure": 40800
    },
    {
      "stop": {
        "id": "2_1508",
        "lat": 48.10673486,
        "lon": -1.7291459,
        "name": "Berthault",
        "code": 1508
      },
      "arrival": 40920,
      "departure": 40920
    },
    {
      "stop": {
        "id": "2_1233",
        "lat": 48.10704453,
        "lon": -1.72187845,
        "name": "Lemaistre",
        "code": 1233
      },
      "arrival": 40980,
      "departure": 40980
    },
    {
      "stop": {
        "id": "2_1235",
        "lat": 48.10892663,
        "lon": -1.70977108,
        "name": "Géniaux",
        "code": 1235
      },
      "arrival": 41160,
      "departure": 41160
    },
    {
      "stop": {
        "id": "2_1238",
        "lat": 48.10869591,
        "lon": -1.69884796,
        "name": "Guilloux Lorient",
        "code": 1238
      },
      "arrival": 41280,
      "departure": 41280
    },
    {
      "stop": {
        "id": "2_1239",
        "lat": 48.10827073,
        "lon": -1.6941653,
        "name": "Chèques Postaux",
        "code": 1239
      },
      "arrival": 41340,
      "departure": 41340
    },
    {
      "stop": {
        "id": "2_1542",
        "lat": 48.10997275,
        "lon": -1.68535336,
        "name": "Pont de Bretagne",
        "code": 1542
      },
      "arrival": 41520,
      "departure": 41520
    },
    {
      "stop": {
        "id": "2_1242",
        "lat": 48.10980333,
        "lon": -1.6795219,
        "name": "République",
        "code": 1242
      },
      "arrival": 41640,
      "departure": 41640
    },
    {
      "stop": {
        "id": "2_1088",
        "lat": 48.10744897,
        "lon": -1.67491383,
        "name": "Liberté TNB",
        "code": 1088
      },
      "arrival": 41820,
      "departure": 41820
    },
    {
      "stop": {
        "id": "2_1567",
        "lat": 48.1062288,
        "lon": -1.67750174,
        "name": "Charles de Gaulle",
        "code": 1567
      },
      "arrival": 41940,
      "departure": 41940
    }
  ],
  "route": {
    "id": "2_0054",
    "textColor": "FFFFFF",
    "color": "CD93BD",
    "description": "Métropolitaine",
    "longName": "Rennes (Charles de Gaulle) \u003c\u003e Le Rheu / Cintré",
    "shortName": "54",
    "type": 3,
    "agencyId": "2"
  }
}