{
  "headsign": "9 | Cleunay",
  "stopTimes": [
    {
      "stop": {
        "id": "2_1372",
        "lat": 48.13840918,
        "lon": -1.65907086,
        "name": "Saint-Laurent",
        "code": 1372
      },
      "arrival": 59400,
      "departure": 59400
    },
    {
      "stop": {
        "id": "2_1159",
        "lat": 48.13439404,
        "lon": -1.65875427,
        "name": "Hôtel de Région",
        "code": 1159
      },
      "arrival": 59460,
      "departure": 59460
    },
    {
      "stop": {
        "id": "2_1374",
        "lat": 48.13324759,
        "lon": -1.65693216,
        "name": "Longs Prés",
        "code": 1374
      },
      "arrival": 59520,
      "departure": 59520
    },
    {
      "stop": {
        "id": "2_1375",
        "lat": 48.13013693,
        "lon": -1.65672512,
        "name": "Gast",
        "code": 1375
      },
      "arrival": 59580,
      "departure": 59580
    },
    {
      "stop": {
        "id": "2_1376",
        "lat": 48.12855272,
        "lon": -1.65712399,
        "name": "Europe",
        "code": 1376
      },
      "arrival": 59640,
      "departure": 59640
    },
    {
      "stop": {
        "id": "2_1377",
        "lat": 48.12679292,
        "lon": -1.65854407,
        "name": "Trégain",
        "code": 1377
      },
      "arrival": 59700,
      "departure": 59700
    },
    {
      "stop": {
        "id": "2_1378",
        "lat": 48.12493299,
        "lon": -1.66135545,
        "name": "Saint-Exupéry",
        "code": 1378
      },
      "arrival": 59760,
      "departure": 59760
    },
    {
      "stop": {
        "id": "2_1009",
        "lat": 48.12162483,
        "lon": -1.6631771,
        "name": "Metz Volney",
        "code": 1009
      },
      "arrival": 59880,
      "departure": 59880
    },
    {
      "stop": {
        "id": "2_1010",
        "lat": 48.11917575,
        "lon": -1.66765915,
        "name": "Guéhenno",
        "code": 1010
      },
      "arrival": 60000,
      "departure": 60000
    },
    {
      "stop": {
        "id": "2_1011",
        "lat": 48.11830509,
        "lon": -1.67120349,
        "name": "Fac de Droit",
        "code": 1011
      },
      "arrival": 60060,
      "departure": 60060
    },
    {
      "stop": {
        "id": "2_1012",
        "lat": 48.11603572,
        "lon": -1.67418235,
        "name": "Sévigné",
        "code": 1012
      },
      "arrival": 60120,
      "departure": 60120
    },
    {
      "stop": {
        "id": "2_1014",
        "lat": 48.11371104,
        "lon": -1.67903599,
        "name": "Sainte-Anne",
        "code": 1014
      },
      "arrival": 60300,
      "departure": 60300
    },
    {
      "stop": {
        "id": "2_1015",
        "lat": 48.11252173,
        "lon": -1.68031651,
        "name": "Champ Jacquet",
        "code": 1015
      },
      "arrival": 60360,
      "departure": 60360
    },
    {
      "stop": {
        "id": "2_1024",
        "lat": 48.10997886,
        "lon": -1.68021216,
        "name": "République Nemours",
        "code": 1024
      },
      "arrival": 60540,
      "departure": 60540
    },
    {
      "stop": {
        "id": "2_1017",
        "lat": 48.10834874,
        "lon": -1.6801754,
        "name": "Les Halles",
        "code": 1017
      },
      "arrival": 60600,
      "departure": 60600
    },
    {
      "stop": {
        "id": "2_1018",
        "lat": 48.10618372,
        "lon": -1.68095249,
        "name": "Plélo Colombier",
        "code": 1018
      },
      "arrival": 60720,
      "departure": 60720
    },
    {
      "stop": {
        "id": "2_1402",
        "lat": 48.10558068,
        "lon": -1.68517914,
        "name": "Cité Judiciaire",
        "code": 1402
      },
      "arrival": 60840,
      "departure": 60840
    },
    {
      "stop": {
        "id": "2_1611",
        "lat": 48.10546139,
        "lon": -1.68835631,
        "name": "Redon",
        "code": 1611
      },
      "arrival": 60900,
      "departure": 60900
    },
    {
      "stop": {
        "id": "2_1616",
        "lat": 48.10328426,
        "lon": -1.68920878,
        "name": "Saint-Conwoïon",
        "code": 1616
      },
      "arrival": 60960,
      "departure": 60960
    },
    {
      "stop": {
        "id": "2_1381",
        "lat": 48.10510865,
        "lon": -1.69650073,
        "name": "Malakoff",
        "code": 1381
      },
      "arrival": 61140,
      "departure": 61140
    },
    {
      "stop": {
        "id": "2_1398",
        "lat": 48.10518896,
        "lon": -1.69863023,
        "name": "Voltaire",
        "code": 1398
      },
      "arrival": 61200,
      "departure": 61200
    },
    {
      "stop": {
        "id": "2_1397",
        "lat": 48.10361769,
        "lon": -1.70028046,
        "name": "Dargent",
        "code": 1397
      },
      "arrival": 61260,
      "departure": 61260
    },
    {
      "stop": {
        "id": "2_1384",
        "lat": 48.10261975,
        "lon": -1.70382543,
        "name": "Champion de Cicé",
        "code": 1384
      },
      "arrival": 61320,
      "departure": 61320
    },
    {
      "stop": {
        "id": "2_1385",
        "lat": 48.10069088,
        "lon": -1.70697779,
        "name": "De Lesseps",
        "code": 1385
      },
      "arrival": 61380,
      "departure": 61380
    },
    {
      "stop": {
        "id": "2_1386",
        "lat": 48.09893483,
        "lon": -1.70535447,
        "name": "Guérinais",
        "code": 1386
      },
      "arrival": 61440,
      "departure": 61440
    },
    {
      "stop": {
        "id": "2_1387",
        "lat": 48.09801007,
        "lon": -1.70819232,
        "name": "Récipon",
        "code": 1387
      },
      "arrival": 61500,
      "departure": 61500
    },
    {
      "stop": {
        "id": "2_1392",
        "lat": 48.09988042,
        "lon": -1.71123897,
        "name": "Montand",
        "code": 1392
      },
      "arrival": 61560,
      "departure": 61560
    },
    {
      "stop": {
        "id": "2_1389",
        "lat": 48.101218,
        "lon": -1.71182929,
        "name": "Clinique La Sagesse",
        "code": 1389
      },
      "arrival": 61620,
      "departure": 61620
    },
    {
      "stop": {
        "id": "2_1390",
        "lat": 48.10413592,
        "lon": -1.71347582,
        "name": "Cleunay",
        "code": 1390
      },
      "arrival": 61680,
      "departure": 61680
    }
  ],
  "route": {
    "id": "2_0009",
    "textColor": "FFFFFF",
    "color": "00519E",
    "description": "Majeure",
    "longName": "Saint-Laurent \u003c\u003e Cleunay",
    "shortName": "9",
    "type": 3,
    "agencyId": "2"
  }
}