{
  "headsign": "61 | Rennes Henri Fréville",
  "stopTimes": [
    {
      "stop": {
        "id": "2_3801",
        "lat": 47.990142,
        "lon": -1.613855,
        "name": "Centre de Loisirs",
        "code": 3801
      },
      "arrival": 70800,
      "departure": 70800
    },
    {
      "stop": {
        "id": "2_3802",
        "lat": 47.994926,
        "lon": -1.614233,
        "name": "Bourgbarré Mairie",
        "code": 3802
      },
      "arrival": 70920,
      "departure": 70920
    },
    {
      "stop": {
        "id": "2_3803",
        "lat": 47.996101,
        "lon": -1.617264,
        "name": "La Motte",
        "code": 3803
      },
      "arrival": 70980,
      "departure": 70980
    },
    {
      "stop": {
        "id": "2_3804",
        "lat": 47.995183,
        "lon": -1.624234,
        "name": "La Basse Erable",
        "code": 3804
      },
      "arrival": 71040,
      "departure": 71040
    },
    {
      "stop": {
        "id": "2_3805",
        "lat": 47.994576,
        "lon": -1.631502,
        "name": "Perelle",
        "code": 3805
      },
      "arrival": 71100,
      "departure": 71100
    },
    {
      "stop": {
        "id": "2_3208",
        "lat": 47.993928,
        "lon": -1.665547,
        "name": "Chateaubriand",
        "code": 3208
      },
      "arrival": 71400,
      "departure": 71400
    },
    {
      "stop": {
        "id": "2_3209",
        "lat": 47.992472,
        "lon": -1.668757,
        "name": "Surcouf",
        "code": 3209
      },
      "arrival": 71520,
      "departure": 71520
    },
    {
      "stop": {
        "id": "2_3210",
        "lat": 47.995,
        "lon": -1.670694,
        "name": "Coteau",
        "code": 3210
      },
      "arrival": 71580,
      "departure": 71580
    },
    {
      "stop": {
        "id": "2_3211",
        "lat": 47.997273,
        "lon": -1.668431,
        "name": "Groupe Scolaire",
        "code": 3211
      },
      "arrival": 71640,
      "departure": 71640
    },
    {
      "stop": {
        "id": "2_3212",
        "lat": 48.000737,
        "lon": -1.666758,
        "name": "Levant",
        "code": 3212
      },
      "arrival": 71700,
      "departure": 71700
    },
    {
      "stop": {
        "id": "2_3213",
        "lat": 48.009507,
        "lon": -1.66592,
        "name": "Plardière",
        "code": 3213
      },
      "arrival": 71820,
      "departure": 71820
    },
    {
      "stop": {
        "id": "2_3250",
        "lat": 48.014928,
        "lon": -1.663838,
        "name": "Orgerblon",
        "code": 3250
      },
      "arrival": 71880,
      "departure": 71880
    },
    {
      "stop": {
        "id": "2_4356",
        "lat": 48.017076,
        "lon": -1.664587,
        "name": "Croix du Pigeonnet",
        "code": 4356
      },
      "arrival": 71940,
      "departure": 71940
    },
    {
      "stop": {
        "id": "2_4351",
        "lat": 48.01727,
        "lon": -1.660332,
        "name": "Parc d\u0027Activités",
        "code": 4351
      },
      "arrival": 72000,
      "departure": 72000
    },
    {
      "stop": {
        "id": "2_4352",
        "lat": 48.018873,
        "lon": -1.657716,
        "name": "Champ Mulon",
        "code": 4352
      },
      "arrival": 72060,
      "departure": 72060
    },
    {
      "stop": {
        "id": "2_4353",
        "lat": 48.017654,
        "lon": -1.654585,
        "name": "Paul Féval",
        "code": 4353
      },
      "arrival": 72120,
      "departure": 72120
    },
    {
      "stop": {
        "id": "2_4362",
        "lat": 48.016196,
        "lon": -1.651517,
        "name": "Alexandre Gilois",
        "code": 4362
      },
      "arrival": 72120,
      "departure": 72120
    },
    {
      "stop": {
        "id": "2_4358",
        "lat": 48.017644,
        "lon": -1.649467,
        "name": "Croix Faucheux",
        "code": 4358
      },
      "arrival": 72180,
      "departure": 72180
    },
    {
      "stop": {
        "id": "2_4359",
        "lat": 48.021537,
        "lon": -1.653502,
        "name": "Leuzières",
        "code": 4359
      },
      "arrival": 72240,
      "departure": 72240
    },
    {
      "stop": {
        "id": "2_2705",
        "lat": 48.02908,
        "lon": -1.659799,
        "name": "Bray",
        "code": 2705
      },
      "arrival": 72360,
      "departure": 72360
    },
    {
      "stop": {
        "id": "2_2734",
        "lat": 48.034436,
        "lon": -1.663421,
        "name": "Côteaux",
        "code": 2734
      },
      "arrival": 72420,
      "departure": 72420
    },
    {
      "stop": {
        "id": "2_2727",
        "lat": 48.038446,
        "lon": -1.666525,
        "name": "Pont",
        "code": 2727
      },
      "arrival": 72480,
      "departure": 72480
    },
    {
      "stop": {
        "id": "2_2706",
        "lat": 48.038455,
        "lon": -1.670722,
        "name": "Molène",
        "code": 2706
      },
      "arrival": 72540,
      "departure": 72540
    },
    {
      "stop": {
        "id": "2_2707",
        "lat": 48.040768,
        "lon": -1.671907,
        "name": "Potiers",
        "code": 2707
      },
      "arrival": 72600,
      "departure": 72600
    },
    {
      "stop": {
        "id": "2_2708",
        "lat": 48.042386,
        "lon": -1.665537,
        "name": "Centre",
        "code": 2708
      },
      "arrival": 72660,
      "departure": 72660
    },
    {
      "stop": {
        "id": "2_2709",
        "lat": 48.044053,
        "lon": -1.661183,
        "name": "Salle Polyvalente",
        "code": 2709
      },
      "arrival": 72720,
      "departure": 72720
    },
    {
      "stop": {
        "id": "2_2710",
        "lat": 48.047169,
        "lon": -1.661203,
        "name": "Petite Saudrais",
        "code": 2710
      },
      "arrival": 72780,
      "departure": 72780
    },
    {
      "stop": {
        "id": "2_2711",
        "lat": 48.056658,
        "lon": -1.663721,
        "name": "Croix Fleurie",
        "code": 2711
      },
      "arrival": 72900,
      "departure": 72900
    },
    {
      "stop": {
        "id": "2_2712",
        "lat": 48.06368,
        "lon": -1.66369,
        "name": "Mail Lancé",
        "code": 2712
      },
      "arrival": 72960,
      "departure": 72960
    },
    {
      "stop": {
        "id": "2_2713",
        "lat": 48.068453,
        "lon": -1.665713,
        "name": "Petit Beaulieu",
        "code": 2713
      },
      "arrival": 72960,
      "departure": 72960
    },
    {
      "stop": {
        "id": "2_2714",
        "lat": 48.077187,
        "lon": -1.661021,
        "name": "Hil-Bintinais",
        "code": 2714
      },
      "arrival": 73080,
      "departure": 73080
    },
    {
      "stop": {
        "id": "2_1441",
        "lat": 48.08608,
        "lon": -1.660855,
        "name": "Triangle",
        "code": 1441
      },
      "arrival": 73200,
      "departure": 73200
    },
    {
      "stop": {
        "id": "2_1510",
        "lat": 48.087784,
        "lon": -1.674415,
        "name": "Henri Fréville",
        "code": 1510
      },
      "arrival": 73380,
      "departure": 73380
    }
  ],
  "route": {
    "id": "2_0061",
    "textColor": "FFFFFF",
    "color": "E6396C",
    "description": "Métropolitaine",
    "longName": "Rennes (Henri Fréville) \u003c\u003e Noyal-Châtillon-sur-Seiche / Saint-Erblon",
    "shortName": "61",
    "type": 3,
    "agencyId": "2"
  }
}