{
  "headsign": "61 | Noyal-Châtillon Saint-Erblon",
  "stopTimes": [
    {
      "stop": {
        "id": "2_1510",
        "lat": 48.087784,
        "lon": -1.674415,
        "name": "Henri Fréville",
        "code": 1510
      },
      "arrival": 60720,
      "departure": 60720
    },
    {
      "stop": {
        "id": "2_1465",
        "lat": 48.086117,
        "lon": -1.661119,
        "name": "Triangle",
        "code": 1465
      },
      "arrival": 60960,
      "departure": 60960
    },
    {
      "stop": {
        "id": "2_2715",
        "lat": 48.078644,
        "lon": -1.661365,
        "name": "Hil-Bintinais",
        "code": 2715
      },
      "arrival": 61200,
      "departure": 61200
    },
    {
      "stop": {
        "id": "2_2716",
        "lat": 48.068609,
        "lon": -1.66607,
        "name": "Petit Beaulieu",
        "code": 2716
      },
      "arrival": 61320,
      "departure": 61320
    },
    {
      "stop": {
        "id": "2_2717",
        "lat": 48.063637,
        "lon": -1.663952,
        "name": "Mail Lancé",
        "code": 2717
      },
      "arrival": 61380,
      "departure": 61380
    },
    {
      "stop": {
        "id": "2_2718",
        "lat": 48.055987,
        "lon": -1.664262,
        "name": "Croix Fleurie",
        "code": 2718
      },
      "arrival": 61440,
      "departure": 61440
    },
    {
      "stop": {
        "id": "2_2719",
        "lat": 48.047008,
        "lon": -1.661005,
        "name": "Petite Saudrais",
        "code": 2719
      },
      "arrival": 61560,
      "departure": 61560
    },
    {
      "stop": {
        "id": "2_2720",
        "lat": 48.044129,
        "lon": -1.661407,
        "name": "Salle Polyvalente",
        "code": 2720
      },
      "arrival": 61620,
      "departure": 61620
    },
    {
      "stop": {
        "id": "2_2721",
        "lat": 48.042439,
        "lon": -1.66572,
        "name": "Centre",
        "code": 2721
      },
      "arrival": 61680,
      "departure": 61680
    },
    {
      "stop": {
        "id": "2_2722",
        "lat": 48.040814,
        "lon": -1.672158,
        "name": "Potiers",
        "code": 2722
      },
      "arrival": 61800,
      "departure": 61800
    },
    {
      "stop": {
        "id": "2_2723",
        "lat": 48.038355,
        "lon": -1.670616,
        "name": "Molène",
        "code": 2723
      },
      "arrival": 61860,
      "departure": 61860
    },
    {
      "stop": {
        "id": "2_2732",
        "lat": 48.038628,
        "lon": -1.66691,
        "name": "Pont",
        "code": 2732
      },
      "arrival": 61920,
      "departure": 61920
    },
    {
      "stop": {
        "id": "2_2733",
        "lat": 48.034843,
        "lon": -1.664151,
        "name": "Côteaux",
        "code": 2733
      },
      "arrival": 61980,
      "departure": 61980
    },
    {
      "stop": {
        "id": "2_2724",
        "lat": 48.028619,
        "lon": -1.659907,
        "name": "Bray",
        "code": 2724
      },
      "arrival": 62040,
      "departure": 62040
    },
    {
      "stop": {
        "id": "2_4360",
        "lat": 48.021547,
        "lon": -1.653716,
        "name": "Leuzières",
        "code": 4360
      },
      "arrival": 62160,
      "departure": 62160
    },
    {
      "stop": {
        "id": "2_4361",
        "lat": 48.01773,
        "lon": -1.649634,
        "name": "Croix Faucheux",
        "code": 4361
      },
      "arrival": 62220,
      "departure": 62220
    },
    {
      "stop": {
        "id": "2_4363",
        "lat": 48.016323,
        "lon": -1.651341,
        "name": "Alexandre Gilois",
        "code": 4363
      },
      "arrival": 62280,
      "departure": 62280
    },
    {
      "stop": {
        "id": "2_4354",
        "lat": 48.017653,
        "lon": -1.654401,
        "name": "Paul Féval",
        "code": 4354
      },
      "arrival": 62280,
      "departure": 62280
    },
    {
      "stop": {
        "id": "2_4355",
        "lat": 48.018871,
        "lon": -1.657701,
        "name": "Champ Mulon",
        "code": 4355
      },
      "arrival": 62340,
      "departure": 62340
    },
    {
      "stop": {
        "id": "2_4351",
        "lat": 48.01727,
        "lon": -1.660332,
        "name": "Parc d\u0027Activités",
        "code": 4351
      },
      "arrival": 62400,
      "departure": 62400
    }
  ],
  "route": {
    "id": "2_0061",
    "textColor": "FFFFFF",
    "color": "E6396C",
    "description": "Métropolitaine",
    "longName": "Rennes (Henri Fréville) \u003c\u003e Noyal-Châtillon-sur-Seiche / Saint-Erblon",
    "shortName": "61",
    "type": 3,
    "agencyId": "2"
  }
}