{
  "headsign": "72 | Chartres Pont-Péan",
  "stopTimes": [
    {
      "stop": {
        "id": "2_1534",
        "lat": 48.088549,
        "lon": -1.67439,
        "name": "Henri Fréville",
        "code": 1534
      },
      "arrival": 29100,
      "departure": 29100
    },
    {
      "stop": {
        "id": "2_1449",
        "lat": 48.086865,
        "lon": -1.683079,
        "name": "Norvège",
        "code": 1449
      },
      "arrival": 29280,
      "departure": 29280
    },
    {
      "stop": {
        "id": "2_1450",
        "lat": 48.08669,
        "lon": -1.688453,
        "name": "Coubertin",
        "code": 1450
      },
      "arrival": 29340,
      "departure": 29340
    },
    {
      "stop": {
        "id": "2_1270",
        "lat": 48.085811,
        "lon": -1.694039,
        "name": "Félix Eboué",
        "code": 1270
      },
      "arrival": 29460,
      "departure": 29460
    },
    {
      "stop": {
        "id": "2_2262",
        "lat": 48.068729,
        "lon": -1.697896,
        "name": "Vallon",
        "code": 2262
      },
      "arrival": 29700,
      "departure": 29700
    },
    {
      "stop": {
        "id": "2_2704",
        "lat": 48.059279,
        "lon": -1.7013,
        "name": "Janais",
        "code": 2704
      },
      "arrival": 29820,
      "departure": 29820
    },
    {
      "stop": {
        "id": "2_2907",
        "lat": 48.045659,
        "lon": -1.710498,
        "name": "Croix aux Potiers",
        "code": 2907
      },
      "arrival": 30000,
      "departure": 30000
    },
    {
      "stop": {
        "id": "2_2918",
        "lat": 48.041976,
        "lon": -1.711045,
        "name": "Callouët",
        "code": 2918
      },
      "arrival": 30060,
      "departure": 30060
    },
    {
      "stop": {
        "id": "2_2919",
        "lat": 48.042323,
        "lon": -1.707466,
        "name": "Chartres Centre",
        "code": 2919
      },
      "arrival": 30120,
      "departure": 30120
    },
    {
      "stop": {
        "id": "2_2920",
        "lat": 48.041536,
        "lon": -1.702871,
        "name": "Auditoire",
        "code": 2920
      },
      "arrival": 30180,
      "departure": 30180
    },
    {
      "stop": {
        "id": "2_2921",
        "lat": 48.041222,
        "lon": -1.69777,
        "name": "Collège Pôle Sud",
        "code": 2921
      },
      "arrival": 30240,
      "departure": 30240
    },
    {
      "stop": {
        "id": "2_2922",
        "lat": 48.037057,
        "lon": -1.697209,
        "name": "Vieux Bourg",
        "code": 2922
      },
      "arrival": 30360,
      "departure": 30360
    },
    {
      "stop": {
        "id": "2_2923",
        "lat": 48.034735,
        "lon": -1.699894,
        "name": "Cornouaille",
        "code": 2923
      },
      "arrival": 30420,
      "departure": 30420
    },
    {
      "stop": {
        "id": "2_2924",
        "lat": 48.035534,
        "lon": -1.706095,
        "name": "Argoat",
        "code": 2924
      },
      "arrival": 30480,
      "departure": 30480
    },
    {
      "stop": {
        "id": "2_2927",
        "lat": 48.033169,
        "lon": -1.707484,
        "name": "Parc de Loisirs",
        "code": 2927
      },
      "arrival": 30540,
      "departure": 30540
    },
    {
      "stop": {
        "id": "2_2930",
        "lat": 48.031247,
        "lon": -1.709248,
        "name": "Constant Mérel",
        "code": 2930
      },
      "arrival": 30600,
      "departure": 30600
    },
    {
      "stop": {
        "id": "2_3909",
        "lat": 48.01986,
        "lon": -1.707123,
        "name": "Renaissance",
        "code": 3909
      },
      "arrival": 30720,
      "departure": 30720
    },
    {
      "stop": {
        "id": "2_3910",
        "lat": 48.016959,
        "lon": -1.705245,
        "name": "Fontaine Blanche",
        "code": 3910
      },
      "arrival": 30780,
      "departure": 30780
    },
    {
      "stop": {
        "id": "2_3911",
        "lat": 48.01369,
        "lon": -1.707704,
        "name": "Rivaudière",
        "code": 3911
      },
      "arrival": 30840,
      "departure": 30840
    },
    {
      "stop": {
        "id": "2_3912",
        "lat": 48.010772,
        "lon": -1.706394,
        "name": "Pont Péan Mairie",
        "code": 3912
      },
      "arrival": 30900,
      "departure": 30900
    },
    {
      "stop": {
        "id": "2_3904",
        "lat": 48.012935,
        "lon": -1.702976,
        "name": "Chemin Vert",
        "code": 3904
      },
      "arrival": 30900,
      "departure": 30900
    },
    {
      "stop": {
        "id": "2_3914",
        "lat": 48.010354,
        "lon": -1.701141,
        "name": "Mouton Blanc",
        "code": 3914
      },
      "arrival": 30960,
      "departure": 30960
    },
    {
      "stop": {
        "id": "2_3915",
        "lat": 48.006145,
        "lon": -1.698543,
        "name": "Caliorne",
        "code": 3915
      },
      "arrival": 31020,
      "departure": 31020
    },
    {
      "stop": {
        "id": "2_3901",
        "lat": 47.999909,
        "lon": -1.696968,
        "name": "Bois Esnault",
        "code": 3901
      },
      "arrival": 31080,
      "departure": 31080
    }
  ],
  "route": {
    "id": "2_0072",
    "textColor": "FFFFFF",
    "color": "004293",
    "description": "Métropolitaine",
    "longName": "Rennes (Henri Fréville) \u003c\u003e Chartres-de-Bretagne / Pont-Péan / Laillé",
    "shortName": "72",
    "type": 3,
    "agencyId": "2"
  }
}