{
  "headsign": "3 | Henri Fréville",
  "stopTimes": [
    {
      "stop": {
        "id": "2_1103",
        "lat": 48.13880017,
        "lon": -1.65921311,
        "name": "Saint-Laurent",
        "code": 1103
      },
      "arrival": 34980,
      "departure": 34980
    },
    {
      "stop": {
        "id": "2_1104",
        "lat": 48.13478815,
        "lon": -1.65854932,
        "name": "Hôtel de Région",
        "code": 1104
      },
      "arrival": 35100,
      "departure": 35100
    },
    {
      "stop": {
        "id": "2_1105",
        "lat": 48.13555,
        "lon": -1.65569436,
        "name": "Héronière",
        "code": 1105
      },
      "arrival": 35160,
      "departure": 35160
    },
    {
      "stop": {
        "id": "2_1106",
        "lat": 48.13436418,
        "lon": -1.65216944,
        "name": "Gayeulles Piscine",
        "code": 1106
      },
      "arrival": 35160,
      "departure": 35160
    },
    {
      "stop": {
        "id": "2_1107",
        "lat": 48.13086935,
        "lon": -1.65210388,
        "name": "Le Blizz",
        "code": 1107
      },
      "arrival": 35220,
      "departure": 35220
    },
    {
      "stop": {
        "id": "2_1108",
        "lat": 48.12838797,
        "lon": -1.652168,
        "name": "Gayeulles",
        "code": 1108
      },
      "arrival": 35280,
      "departure": 35280
    },
    {
      "stop": {
        "id": "2_1618",
        "lat": 48.12513724,
        "lon": -1.65304693,
        "name": "Joliot-Curie",
        "code": 1618
      },
      "arrival": 35340,
      "departure": 35340
    },
    {
      "stop": {
        "id": "2_1637",
        "lat": 48.12307228,
        "lon": -1.65145652,
        "name": "Lycée Chateaubriand",
        "code": 1637
      },
      "arrival": 35400,
      "departure": 35400
    },
    {
      "stop": {
        "id": "2_1111",
        "lat": 48.12024278,
        "lon": -1.65071004,
        "name": "Docteur Quentin",
        "code": 1111
      },
      "arrival": 35520,
      "departure": 35520
    },
    {
      "stop": {
        "id": "2_1112",
        "lat": 48.11890008,
        "lon": -1.65092835,
        "name": "Vitré Danton",
        "code": 1112
      },
      "arrival": 35580,
      "departure": 35580
    },
    {
      "stop": {
        "id": "2_1113",
        "lat": 48.11635262,
        "lon": -1.65563088,
        "name": "Jeanne d\u0027Arc",
        "code": 1113
      },
      "arrival": 35700,
      "departure": 35700
    },
    {
      "stop": {
        "id": "2_1114",
        "lat": 48.11447379,
        "lon": -1.65800938,
        "name": "Durafour",
        "code": 1114
      },
      "arrival": 35760,
      "departure": 35760
    },
    {
      "stop": {
        "id": "2_1115",
        "lat": 48.11349726,
        "lon": -1.66127497,
        "name": "Oberthur",
        "code": 1115
      },
      "arrival": 35820,
      "departure": 35820
    },
    {
      "stop": {
        "id": "2_1116",
        "lat": 48.11274314,
        "lon": -1.6643851,
        "name": "Saint-Vincent",
        "code": 1116
      },
      "arrival": 35880,
      "departure": 35880
    },
    {
      "stop": {
        "id": "2_1117",
        "lat": 48.11249213,
        "lon": -1.66685313,
        "name": "Châteaudun",
        "code": 1117
      },
      "arrival": 35940,
      "departure": 35940
    },
    {
      "stop": {
        "id": "2_1118",
        "lat": 48.11175864,
        "lon": -1.67121493,
        "name": "Thabor",
        "code": 1118
      },
      "arrival": 36060,
      "departure": 36060
    },
    {
      "stop": {
        "id": "2_1644",
        "lat": 48.11070175,
        "lon": -1.67357691,
        "name": "Place Pasteur",
        "code": 1644
      },
      "arrival": 36120,
      "departure": 36120
    },
    {
      "stop": {
        "id": "2_1120",
        "lat": 48.1099823,
        "lon": -1.67785697,
        "name": "République Jaurès",
        "code": 1120
      },
      "arrival": 36360,
      "departure": 36360
    },
    {
      "stop": {
        "id": "2_1121",
        "lat": 48.10607068,
        "lon": -1.6777658,
        "name": "Charles de Gaulle",
        "code": 1121
      },
      "arrival": 36480,
      "departure": 36480
    },
    {
      "stop": {
        "id": "2_1122",
        "lat": 48.10306416,
        "lon": -1.67682716,
        "name": "Gare Sud Féval",
        "code": 1122
      },
      "arrival": 36540,
      "departure": 36540
    },
    {
      "stop": {
        "id": "2_1123",
        "lat": 48.09916061,
        "lon": -1.67570108,
        "name": "Ginguené",
        "code": 1123
      },
      "arrival": 36660,
      "departure": 36660
    },
    {
      "stop": {
        "id": "2_1124",
        "lat": 48.09733551,
        "lon": -1.67557993,
        "name": "Jacques Cartier",
        "code": 1124
      },
      "arrival": 36720,
      "departure": 36720
    },
    {
      "stop": {
        "id": "2_1125",
        "lat": 48.09690529,
        "lon": -1.67914824,
        "name": "Sacrés Coeurs",
        "code": 1125
      },
      "arrival": 36780,
      "departure": 36780
    },
    {
      "stop": {
        "id": "2_1126",
        "lat": 48.0960299,
        "lon": -1.68166781,
        "name": "Garigliano",
        "code": 1126
      },
      "arrival": 36840,
      "departure": 36840
    },
    {
      "stop": {
        "id": "2_1127",
        "lat": 48.09306489,
        "lon": -1.68187605,
        "name": "Frères Moine",
        "code": 1127
      },
      "arrival": 36900,
      "departure": 36900
    },
    {
      "stop": {
        "id": "2_1128",
        "lat": 48.09103622,
        "lon": -1.68211341,
        "name": "Champs Manceaux",
        "code": 1128
      },
      "arrival": 36960,
      "departure": 36960
    },
    {
      "stop": {
        "id": "2_1129",
        "lat": 48.08727486,
        "lon": -1.68239903,
        "name": "Suède",
        "code": 1129
      },
      "arrival": 37020,
      "departure": 37020
    },
    {
      "stop": {
        "id": "2_1130",
        "lat": 48.08520714,
        "lon": -1.6824849,
        "name": "Canada",
        "code": 1130
      },
      "arrival": 37080,
      "departure": 37080
    },
    {
      "stop": {
        "id": "2_1623",
        "lat": 48.08400034,
        "lon": -1.67830796,
        "name": "Alma",
        "code": 1623
      },
      "arrival": 37140,
      "departure": 37140
    },
    {
      "stop": {
        "id": "2_1564",
        "lat": 48.08782223,
        "lon": -1.67459024,
        "name": "Henri Fréville",
        "code": 1564
      },
      "arrival": 37320,
      "departure": 37320
    }
  ],
  "route": {
    "id": "2_0003",
    "textColor": "FFFFFF",
    "color": "008436",
    "description": "Majeure",
    "longName": "Saint-Laurent \u003c\u003e Henri Fréville",
    "shortName": "3",
    "type": 3,
    "agencyId": "2"
  }
}