{
  "headsign": "61 | Noyal-Châtillon Saint-Erblon",
  "stopTimes": [
    {
      "stop": {
        "id": "2_1534",
        "lat": 48.08831453,
        "lon": -1.67444337,
        "name": "Henri Fréville",
        "code": 1534
      },
      "arrival": 65400,
      "departure": 65400
    },
    {
      "stop": {
        "id": "2_1465",
        "lat": 48.08611757,
        "lon": -1.66106774,
        "name": "Triangle",
        "code": 1465
      },
      "arrival": 65700,
      "departure": 65700
    },
    {
      "stop": {
        "id": "2_2715",
        "lat": 48.07864103,
        "lon": -1.66122751,
        "name": "Hil-Bintinais",
        "code": 2715
      },
      "arrival": 65820,
      "departure": 65820
    },
    {
      "stop": {
        "id": "2_2716",
        "lat": 48.0686191,
        "lon": -1.66595219,
        "name": "Petit Beaulieu",
        "code": 2716
      },
      "arrival": 65940,
      "departure": 65940
    },
    {
      "stop": {
        "id": "2_2717",
        "lat": 48.06365395,
        "lon": -1.66385987,
        "name": "Mail Lancé",
        "code": 2717
      },
      "arrival": 65940,
      "departure": 65940
    },
    {
      "stop": {
        "id": "2_2718",
        "lat": 48.05597164,
        "lon": -1.66413694,
        "name": "Croix Fleurie",
        "code": 2718
      },
      "arrival": 66060,
      "departure": 66060
    },
    {
      "stop": {
        "id": "2_2719",
        "lat": 48.04706769,
        "lon": -1.66111999,
        "name": "Petite Saudrais",
        "code": 2719
      },
      "arrival": 66120,
      "departure": 66120
    },
    {
      "stop": {
        "id": "2_2720",
        "lat": 48.0440836,
        "lon": -1.66135439,
        "name": "Salle Polyvalente",
        "code": 2720
      },
      "arrival": 66180,
      "departure": 66180
    },
    {
      "stop": {
        "id": "2_2721",
        "lat": 48.04244672,
        "lon": -1.665579,
        "name": "Centre",
        "code": 2721
      },
      "arrival": 66240,
      "departure": 66240
    },
    {
      "stop": {
        "id": "2_2722",
        "lat": 48.04077157,
        "lon": -1.67212053,
        "name": "Potiers",
        "code": 2722
      },
      "arrival": 66360,
      "departure": 66360
    },
    {
      "stop": {
        "id": "2_2723",
        "lat": 48.03839894,
        "lon": -1.67062832,
        "name": "Molène",
        "code": 2723
      },
      "arrival": 66420,
      "departure": 66420
    },
    {
      "stop": {
        "id": "2_2732",
        "lat": 48.03865705,
        "lon": -1.66680397,
        "name": "Pont",
        "code": 2732
      },
      "arrival": 66480,
      "departure": 66480
    },
    {
      "stop": {
        "id": "2_2733",
        "lat": 48.03487037,
        "lon": -1.66409088,
        "name": "Côteaux",
        "code": 2733
      },
      "arrival": 66540,
      "departure": 66540
    },
    {
      "stop": {
        "id": "2_2724",
        "lat": 48.02864041,
        "lon": -1.65979212,
        "name": "Bray",
        "code": 2724
      },
      "arrival": 66600,
      "departure": 66600
    },
    {
      "stop": {
        "id": "2_4360",
        "lat": 48.02156395,
        "lon": -1.65364618,
        "name": "Leuzières",
        "code": 4360
      },
      "arrival": 66720,
      "departure": 66720
    },
    {
      "stop": {
        "id": "2_4361",
        "lat": 48.01776753,
        "lon": -1.64957701,
        "name": "Croix Faucheux",
        "code": 4361
      },
      "arrival": 66780,
      "departure": 66780
    },
    {
      "stop": {
        "id": "2_4363",
        "lat": 48.01632313,
        "lon": -1.6513413,
        "name": "Alexandre Gilois",
        "code": 4363
      },
      "arrival": 66840,
      "departure": 66840
    },
    {
      "stop": {
        "id": "2_4354",
        "lat": 48.01764653,
        "lon": -1.65445718,
        "name": "Paul Féval",
        "code": 4354
      },
      "arrival": 66840,
      "departure": 66840
    },
    {
      "stop": {
        "id": "2_4355",
        "lat": 48.01883506,
        "lon": -1.65767902,
        "name": "Champ Mulon",
        "code": 4355
      },
      "arrival": 66900,
      "departure": 66900
    },
    {
      "stop": {
        "id": "2_4351",
        "lat": 48.01725668,
        "lon": -1.66042889,
        "name": "Parc d\u0027Activités",
        "code": 4351
      },
      "arrival": 66960,
      "departure": 66960
    }
  ],
  "route": {
    "id": "2_0061",
    "textColor": "ffffff",
    "color": "e43d6a",
    "description": "Métropolitaine",
    "longName": "Rennes (Henri Fréville) \u003c\u003e Noyal-Châtillon-sur-Seiche / Saint-Erblon",
    "shortName": "61",
    "type": 3,
    "agencyId": "2"
  }
}