{
  "headsign": "214 | Rennes La Poterie",
  "stopTimes": [
    {
      "stop": {
        "id": "2_2052",
        "lat": 48.131149,
        "lon": -1.597037,
        "name": "Saint-Etienne",
        "code": 2052
      },
      "arrival": 63600,
      "departure": 63600
    },
    {
      "stop": {
        "id": "2_2054",
        "lat": 48.123129,
        "lon": -1.601975,
        "name": "Métairies Chalotais",
        "code": 2054
      },
      "arrival": 63720,
      "departure": 63720
    },
    {
      "stop": {
        "id": "2_2055",
        "lat": 48.119961,
        "lon": -1.602179,
        "name": "Cesson Piscine",
        "code": 2055
      },
      "arrival": 63780,
      "departure": 63780
    },
    {
      "stop": {
        "id": "2_2051",
        "lat": 48.115847,
        "lon": -1.600734,
        "name": "Chalotais",
        "code": 2051
      },
      "arrival": 63840,
      "departure": 63840
    },
    {
      "stop": {
        "id": "2_2057",
        "lat": 48.113861,
        "lon": -1.603295,
        "name": "Cesson Gare",
        "code": 2057
      },
      "arrival": 63960,
      "departure": 63960
    },
    {
      "stop": {
        "id": "2_2058",
        "lat": 48.112638,
        "lon": -1.607261,
        "name": "Peupliers",
        "code": 2058
      },
      "arrival": 64020,
      "departure": 64020
    },
    {
      "stop": {
        "id": "2_2059",
        "lat": 48.109302,
        "lon": -1.609073,
        "name": "Monniais",
        "code": 2059
      },
      "arrival": 64140,
      "departure": 64140
    },
    {
      "stop": {
        "id": "2_2060",
        "lat": 48.10784,
        "lon": -1.614683,
        "name": "Rond Point de Bray",
        "code": 2060
      },
      "arrival": 64200,
      "departure": 64200
    },
    {
      "stop": {
        "id": "2_2032",
        "lat": 48.106229,
        "lon": -1.621342,
        "name": "Charmilles",
        "code": 2032
      },
      "arrival": 64320,
      "departure": 64320
    },
    {
      "stop": {
        "id": "2_2036",
        "lat": 48.101206,
        "lon": -1.624003,
        "name": "Bas Village",
        "code": 2036
      },
      "arrival": 64440,
      "departure": 64440
    },
    {
      "stop": {
        "id": "2_2034",
        "lat": 48.099569,
        "lon": -1.621217,
        "name": "Forum",
        "code": 2034
      },
      "arrival": 64500,
      "departure": 64500
    },
    {
      "stop": {
        "id": "2_3015",
        "lat": 48.098321,
        "lon": -1.622836,
        "name": "Breillou",
        "code": 3015
      },
      "arrival": 64560,
      "departure": 64560
    },
    {
      "stop": {
        "id": "2_1205",
        "lat": 48.097147,
        "lon": -1.629252,
        "name": "Veyettes",
        "code": 1205
      },
      "arrival": 64620,
      "departure": 64620
    },
    {
      "stop": {
        "id": "2_1072",
        "lat": 48.094922,
        "lon": -1.638,
        "name": "CARSAT",
        "code": 1072
      },
      "arrival": 64800,
      "departure": 64800
    },
    {
      "stop": {
        "id": "2_1073",
        "lat": 48.092528,
        "lon": -1.639658,
        "name": "Ronceray",
        "code": 1073
      },
      "arrival": 64860,
      "departure": 64860
    },
    {
      "stop": {
        "id": "2_1074",
        "lat": 48.091827,
        "lon": -1.636274,
        "name": "Gohier",
        "code": 1074
      },
      "arrival": 64920,
      "departure": 64920
    },
    {
      "stop": {
        "id": "2_1075",
        "lat": 48.089486,
        "lon": -1.635568,
        "name": "Bourgueil",
        "code": 1075
      },
      "arrival": 64980,
      "departure": 64980
    },
    {
      "stop": {
        "id": "2_1076",
        "lat": 48.087986,
        "lon": -1.638421,
        "name": "Monnet",
        "code": 1076
      },
      "arrival": 65040,
      "departure": 65040
    },
    {
      "stop": {
        "id": "2_1065",
        "lat": 48.087621,
        "lon": -1.64393,
        "name": "La Poterie",
        "code": 1065
      },
      "arrival": 65100,
      "departure": 65100
    }
  ],
  "route": {
    "id": "2_0214",
    "textColor": "FFFFFF",
    "color": "94C11F",
    "description": "Complémentaire",
    "longName": "Rennes (La Poterie) \u003c\u003e Cesson-Sévigné (Lycée Saint-Etienne)",
    "shortName": "214",
    "type": 3,
    "agencyId": "2"
  }
}