{
  "headsign": "52 | Montgermont La Chapelle",
  "stopTimes": [
    {
      "stop": {
        "id": "2_3732",
        "lat": 48.14933,
        "lon": -1.839024,
        "name": "Ile des Bois",
        "code": 3732
      },
      "arrival": 70260,
      "departure": 70260
    },
    {
      "stop": {
        "id": "2_3717",
        "lat": 48.153985,
        "lon": -1.8376,
        "name": "Maison Neuve",
        "code": 3717
      },
      "arrival": 70320,
      "departure": 70320
    },
    {
      "stop": {
        "id": "2_3715",
        "lat": 48.153745,
        "lon": -1.834034,
        "name": "Clos des Cerisiers",
        "code": 3715
      },
      "arrival": 70380,
      "departure": 70380
    },
    {
      "stop": {
        "id": "2_3705",
        "lat": 48.15298,
        "lon": -1.829806,
        "name": "Saint-Gilles Centre",
        "code": 3705
      },
      "arrival": 70380,
      "departure": 70380
    },
    {
      "stop": {
        "id": "2_3707",
        "lat": 48.150683,
        "lon": -1.825279,
        "name": "Pont aux Moines",
        "code": 3707
      },
      "arrival": 70500,
      "departure": 70500
    },
    {
      "stop": {
        "id": "2_3708",
        "lat": 48.152801,
        "lon": -1.820678,
        "name": "Vigne",
        "code": 3708
      },
      "arrival": 70560,
      "departure": 70560
    },
    {
      "stop": {
        "id": "2_3709",
        "lat": 48.152952,
        "lon": -1.809229,
        "name": "Fouaye",
        "code": 3709
      },
      "arrival": 70680,
      "departure": 70680
    },
    {
      "stop": {
        "id": "2_3102",
        "lat": 48.151381,
        "lon": -1.792259,
        "name": "Pie Neuve",
        "code": 3102
      },
      "arrival": 70800,
      "departure": 70800
    },
    {
      "stop": {
        "id": "2_3103",
        "lat": 48.149232,
        "lon": -1.788989,
        "name": "Docteur Léon",
        "code": 3103
      },
      "arrival": 70860,
      "departure": 70860
    },
    {
      "stop": {
        "id": "2_3104",
        "lat": 48.148463,
        "lon": -1.784791,
        "name": "Touche Milon",
        "code": 3104
      },
      "arrival": 70860,
      "departure": 70860
    },
    {
      "stop": {
        "id": "2_3119",
        "lat": 48.147515,
        "lon": -1.781103,
        "name": "Pinault",
        "code": 3119
      },
      "arrival": 70920,
      "departure": 70920
    },
    {
      "stop": {
        "id": "2_3134",
        "lat": 48.141622,
        "lon": -1.770457,
        "name": "Nominoë",
        "code": 3134
      },
      "arrival": 71040,
      "departure": 71040
    },
    {
      "stop": {
        "id": "2_1517",
        "lat": 48.118565,
        "lon": -1.713574,
        "name": "Berry",
        "code": 1517
      },
      "arrival": 71400,
      "departure": 71400
    },
    {
      "stop": {
        "id": "2_1520",
        "lat": 48.120473,
        "lon": -1.709574,
        "name": "Bourbonnais",
        "code": 1520
      },
      "arrival": 71460,
      "departure": 71460
    },
    {
      "stop": {
        "id": "2_1494",
        "lat": 48.121217,
        "lon": -1.70297,
        "name": "Villejean-Université",
        "code": 1494
      },
      "arrival": 71700,
      "departure": 71700
    },
    {
      "stop": {
        "id": "2_1495",
        "lat": 48.126607,
        "lon": -1.693012,
        "name": "Lycée Basch",
        "code": 1495
      },
      "arrival": 71940,
      "departure": 71940
    },
    {
      "stop": {
        "id": "2_1537",
        "lat": 48.131596,
        "lon": -1.69166,
        "name": "Léonard",
        "code": 1537
      },
      "arrival": 72060,
      "departure": 72060
    },
    {
      "stop": {
        "id": "2_2830",
        "lat": 48.134376,
        "lon": -1.694471,
        "name": "Grand Quartier",
        "code": 2830
      },
      "arrival": 72120,
      "departure": 72120
    },
    {
      "stop": {
        "id": "2_3508",
        "lat": 48.148382,
        "lon": -1.703613,
        "name": "Vizeule",
        "code": 3508
      },
      "arrival": 72240,
      "departure": 72240
    },
    {
      "stop": {
        "id": "2_3509",
        "lat": 48.153005,
        "lon": -1.708878,
        "name": "Métrie",
        "code": 3509
      },
      "arrival": 72360,
      "departure": 72360
    },
    {
      "stop": {
        "id": "2_3510",
        "lat": 48.155558,
        "lon": -1.710743,
        "name": "Belle Epine",
        "code": 3510
      },
      "arrival": 72360,
      "departure": 72360
    },
    {
      "stop": {
        "id": "2_3511",
        "lat": 48.157373,
        "lon": -1.714588,
        "name": "Courtines",
        "code": 3511
      },
      "arrival": 72420,
      "departure": 72420
    },
    {
      "stop": {
        "id": "2_3512",
        "lat": 48.155644,
        "lon": -1.716708,
        "name": "Montgermont Mairie",
        "code": 3512
      },
      "arrival": 72480,
      "departure": 72480
    },
    {
      "stop": {
        "id": "2_3513",
        "lat": 48.155723,
        "lon": -1.720748,
        "name": "Pierre Texier",
        "code": 3513
      },
      "arrival": 72480,
      "departure": 72480
    },
    {
      "stop": {
        "id": "2_3501",
        "lat": 48.157089,
        "lon": -1.723308,
        "name": "Fougerolle",
        "code": 3501
      },
      "arrival": 72540,
      "departure": 72540
    },
    {
      "stop": {
        "id": "2_3515",
        "lat": 48.162759,
        "lon": -1.730576,
        "name": "Silandière",
        "code": 3515
      },
      "arrival": 72600,
      "departure": 72600
    },
    {
      "stop": {
        "id": "2_4057",
        "lat": 48.170401,
        "lon": -1.736205,
        "name": "Sénestrais",
        "code": 4057
      },
      "arrival": 72720,
      "departure": 72720
    },
    {
      "stop": {
        "id": "2_4058",
        "lat": 48.173991,
        "lon": -1.735178,
        "name": "Viennais",
        "code": 4058
      },
      "arrival": 72780,
      "departure": 72780
    },
    {
      "stop": {
        "id": "2_4059",
        "lat": 48.17669,
        "lon": -1.732757,
        "name": "Mairie",
        "code": 4059
      },
      "arrival": 72780,
      "departure": 72780
    },
    {
      "stop": {
        "id": "2_4060",
        "lat": 48.179388,
        "lon": -1.729057,
        "name": "Métairie",
        "code": 4060
      },
      "arrival": 72840,
      "departure": 72840
    },
    {
      "stop": {
        "id": "2_4069",
        "lat": 48.183129,
        "lon": -1.726001,
        "name": "Besneraie",
        "code": 4069
      },
      "arrival": 72960,
      "departure": 72960
    }
  ],
  "route": {
    "id": "2_0052",
    "textColor": "FFFFFF",
    "color": "007C77",
    "description": "Métropolitaine",
    "longName": "Saint-Gilles / Pacé \u003c\u003e Rennes (Villejean-Université) \u003c\u003e Montgermont / La Chapelle-des-Fougeretz",
    "shortName": "52",
    "type": 3,
    "agencyId": "2"
  }
}