{
  "headsign": "5 | Lycée Bréquigny",
  "stopTimes": [
    {
      "stop": {
        "id": "2_1252",
        "lat": 48.13876768,
        "lon": -1.66595729,
        "name": "Patton",
        "code": 1252
      },
      "arrival": 56040,
      "departure": 56040
    },
    {
      "stop": {
        "id": "2_1253",
        "lat": 48.13666007,
        "lon": -1.66750822,
        "name": "Monts d\u0027Arrée",
        "code": 1253
      },
      "arrival": 56100,
      "departure": 56100
    },
    {
      "stop": {
        "id": "2_1254",
        "lat": 48.13675376,
        "lon": -1.67105825,
        "name": "Neruda",
        "code": 1254
      },
      "arrival": 56160,
      "departure": 56160
    },
    {
      "stop": {
        "id": "2_1255",
        "lat": 48.13455033,
        "lon": -1.67297749,
        "name": "Condate",
        "code": 1255
      },
      "arrival": 56220,
      "departure": 56220
    },
    {
      "stop": {
        "id": "2_1256",
        "lat": 48.13264262,
        "lon": -1.67175832,
        "name": "Bellangerais",
        "code": 1256
      },
      "arrival": 56280,
      "departure": 56280
    },
    {
      "stop": {
        "id": "2_1257",
        "lat": 48.13269574,
        "lon": -1.66757286,
        "name": "Morbihan",
        "code": 1257
      },
      "arrival": 56340,
      "departure": 56340
    },
    {
      "stop": {
        "id": "2_1258",
        "lat": 48.13080831,
        "lon": -1.66390739,
        "name": "Houx Cité U",
        "code": 1258
      },
      "arrival": 56400,
      "departure": 56400
    },
    {
      "stop": {
        "id": "2_1259",
        "lat": 48.12800553,
        "lon": -1.6645754,
        "name": "Rochester",
        "code": 1259
      },
      "arrival": 56460,
      "departure": 56460
    },
    {
      "stop": {
        "id": "2_1260",
        "lat": 48.12670281,
        "lon": -1.66538386,
        "name": "Gros Chêne",
        "code": 1260
      },
      "arrival": 56520,
      "departure": 56520
    },
    {
      "stop": {
        "id": "2_1261",
        "lat": 48.12528168,
        "lon": -1.66666402,
        "name": "Volney",
        "code": 1261
      },
      "arrival": 56580,
      "departure": 56580
    },
    {
      "stop": {
        "id": "2_1262",
        "lat": 48.12147137,
        "lon": -1.67091812,
        "name": "Jules Ferry",
        "code": 1262
      },
      "arrival": 56700,
      "departure": 56700
    },
    {
      "stop": {
        "id": "2_1263",
        "lat": 48.11963635,
        "lon": -1.67422912,
        "name": "Rectorat",
        "code": 1263
      },
      "arrival": 56760,
      "departure": 56760
    },
    {
      "stop": {
        "id": "2_1027",
        "lat": 48.11723114,
        "lon": -1.67736823,
        "name": "Hôtel Dieu",
        "code": 1027
      },
      "arrival": 56820,
      "departure": 56820
    },
    {
      "stop": {
        "id": "2_1014",
        "lat": 48.11371104,
        "lon": -1.67903599,
        "name": "Sainte-Anne",
        "code": 1014
      },
      "arrival": 57060,
      "departure": 57060
    },
    {
      "stop": {
        "id": "2_1015",
        "lat": 48.11252173,
        "lon": -1.68031651,
        "name": "Champ Jacquet",
        "code": 1015
      },
      "arrival": 57120,
      "departure": 57120
    },
    {
      "stop": {
        "id": "2_1024",
        "lat": 48.10997886,
        "lon": -1.68021216,
        "name": "République Nemours",
        "code": 1024
      },
      "arrival": 57300,
      "departure": 57300
    },
    {
      "stop": {
        "id": "2_1017",
        "lat": 48.10834873,
        "lon": -1.6801754,
        "name": "Les Halles",
        "code": 1017
      },
      "arrival": 57360,
      "departure": 57360
    },
    {
      "stop": {
        "id": "2_1018",
        "lat": 48.10618372,
        "lon": -1.68095249,
        "name": "Plélo Colombier",
        "code": 1018
      },
      "arrival": 57480,
      "departure": 57480
    },
    {
      "stop": {
        "id": "2_1019",
        "lat": 48.1051576,
        "lon": -1.68471093,
        "name": "Cité Judiciaire",
        "code": 1019
      },
      "arrival": 57600,
      "departure": 57600
    },
    {
      "stop": {
        "id": "2_1264",
        "lat": 48.10211461,
        "lon": -1.68438725,
        "name": "Pont de Nantes",
        "code": 1264
      },
      "arrival": 57660,
      "departure": 57660
    },
    {
      "stop": {
        "id": "2_1265",
        "lat": 48.0997896,
        "lon": -1.68708791,
        "name": "Foyer Rennais",
        "code": 1265
      },
      "arrival": 57720,
      "departure": 57720
    },
    {
      "stop": {
        "id": "2_1266",
        "lat": 48.09708914,
        "lon": -1.68902834,
        "name": "Mermoz",
        "code": 1266
      },
      "arrival": 57780,
      "departure": 57780
    },
    {
      "stop": {
        "id": "2_2219",
        "lat": 48.09407071,
        "lon": -1.69057703,
        "name": "Pilate",
        "code": 2219
      },
      "arrival": 57840,
      "departure": 57840
    },
    {
      "stop": {
        "id": "2_2218",
        "lat": 48.09238093,
        "lon": -1.69158421,
        "name": "Saint-Yves",
        "code": 2218
      },
      "arrival": 57900,
      "departure": 57900
    },
    {
      "stop": {
        "id": "2_2228",
        "lat": 48.08980582,
        "lon": -1.69309127,
        "name": "Pigeon Blanc",
        "code": 2228
      },
      "arrival": 57960,
      "departure": 57960
    },
    {
      "stop": {
        "id": "2_2216",
        "lat": 48.08728351,
        "lon": -1.69462978,
        "name": "Pressoirs",
        "code": 2216
      },
      "arrival": 58020,
      "departure": 58020
    },
    {
      "stop": {
        "id": "2_1267",
        "lat": 48.0857359,
        "lon": -1.69390359,
        "name": "Félix Eboué",
        "code": 1267
      },
      "arrival": 58080,
      "departure": 58080
    },
    {
      "stop": {
        "id": "2_1268",
        "lat": 48.08376367,
        "lon": -1.69360406,
        "name": "Boberil",
        "code": 1268
      },
      "arrival": 58140,
      "departure": 58140
    },
    {
      "stop": {
        "id": "2_1269",
        "lat": 48.08423941,
        "lon": -1.69207225,
        "name": "Lycée Bréquigny",
        "code": 1269
      },
      "arrival": 58200,
      "departure": 58200
    }
  ],
  "route": {
    "id": "2_0005",
    "textColor": "FFFFFF",
    "color": "EE7F01",
    "description": "Majeure",
    "longName": "Patton \u003c\u003e Lycée Bréquigny",
    "shortName": "5",
    "type": 3,
    "agencyId": "2"
  }
}