{
  "headsign": "201 | Cesson-Sévigné Thorigné",
  "stopTimes": [
    {
      "stop": {
        "id": "2_1614",
        "lat": 48.121972,
        "lon": -1.656489,
        "name": "Assomption",
        "code": 1614
      },
      "arrival": 64200,
      "departure": 64200
    },
    {
      "stop": {
        "id": "2_1429",
        "lat": 48.127628,
        "lon": -1.650898,
        "name": "Joliot-Curie",
        "code": 1429
      },
      "arrival": 64500,
      "departure": 64500
    },
    {
      "stop": {
        "id": "2_2077",
        "lat": 48.134244,
        "lon": -1.628839,
        "name": "Lande Bouhard",
        "code": 2077
      },
      "arrival": 64800,
      "departure": 64800
    },
    {
      "stop": {
        "id": "2_2072",
        "lat": 48.140592,
        "lon": -1.616329,
        "name": "Calendrou",
        "code": 2072
      },
      "arrival": 64980,
      "departure": 64980
    },
    {
      "stop": {
        "id": "2_2073",
        "lat": 48.145118,
        "lon": -1.608407,
        "name": "Victoire",
        "code": 2073
      },
      "arrival": 65040,
      "departure": 65040
    },
    {
      "stop": {
        "id": "2_3310",
        "lat": 48.156448,
        "lon": -1.591842,
        "name": "Portail",
        "code": 3310
      },
      "arrival": 65220,
      "departure": 65220
    },
    {
      "stop": {
        "id": "2_3311",
        "lat": 48.160618,
        "lon": -1.585461,
        "name": "Fouillard",
        "code": 3311
      },
      "arrival": 65340,
      "departure": 65340
    },
    {
      "stop": {
        "id": "2_3312",
        "lat": 48.162934,
        "lon": -1.579182,
        "name": "Juteauderies",
        "code": 3312
      },
      "arrival": 65460,
      "departure": 65460
    },
    {
      "stop": {
        "id": "2_3313",
        "lat": 48.159169,
        "lon": -1.579798,
        "name": "Bocage",
        "code": 3313
      },
      "arrival": 65580,
      "departure": 65580
    },
    {
      "stop": {
        "id": "2_3304",
        "lat": 48.155658,
        "lon": -1.580848,
        "name": "Anne de Bretagne",
        "code": 3304
      },
      "arrival": 65640,
      "departure": 65640
    },
    {
      "stop": {
        "id": "2_3302",
        "lat": 48.153039,
        "lon": -1.579445,
        "name": "Thorigné Mairie",
        "code": 3302
      },
      "arrival": 65700,
      "departure": 65700
    },
    {
      "stop": {
        "id": "2_3323",
        "lat": 48.149262,
        "lon": -1.577059,
        "name": "Curien",
        "code": 3323
      },
      "arrival": 65820,
      "departure": 65820
    },
    {
      "stop": {
        "id": "2_3301",
        "lat": 48.155188,
        "lon": -1.573107,
        "name": "Landelles",
        "code": 3301
      },
      "arrival": 65940,
      "departure": 65940
    }
  ],
  "route": {
    "id": "2_0201",
    "textColor": "FFFFFF",
    "color": "E30613",
    "description": "Complémentaire",
    "longName": "Thorigné-Fouillard (Landelles) \u003c\u003e Rennes (Lycée Assomption)",
    "shortName": "201",
    "type": 3,
    "agencyId": "2"
  }
}