{
  "headsign": "5 | Lycée Bréquigny",
  "stopTimes": [
    {
      "stop": {
        "id": "2_1252",
        "lat": 48.13876768,
        "lon": -1.66595729,
        "name": "Patton",
        "code": 1252
      },
      "arrival": 52440,
      "departure": 52440
    },
    {
      "stop": {
        "id": "2_1253",
        "lat": 48.13666007,
        "lon": -1.66750822,
        "name": "Monts d\u0027Arrée",
        "code": 1253
      },
      "arrival": 52500,
      "departure": 52500
    },
    {
      "stop": {
        "id": "2_1254",
        "lat": 48.13675376,
        "lon": -1.67105825,
        "name": "Neruda",
        "code": 1254
      },
      "arrival": 52560,
      "departure": 52560
    },
    {
      "stop": {
        "id": "2_1255",
        "lat": 48.13455033,
        "lon": -1.67297749,
        "name": "Condate",
        "code": 1255
      },
      "arrival": 52620,
      "departure": 52620
    },
    {
      "stop": {
        "id": "2_1256",
        "lat": 48.13264262,
        "lon": -1.67175832,
        "name": "Bellangerais",
        "code": 1256
      },
      "arrival": 52680,
      "departure": 52680
    },
    {
      "stop": {
        "id": "2_1257",
        "lat": 48.13269574,
        "lon": -1.66757286,
        "name": "Morbihan",
        "code": 1257
      },
      "arrival": 52740,
      "departure": 52740
    },
    {
      "stop": {
        "id": "2_1258",
        "lat": 48.13080831,
        "lon": -1.66390739,
        "name": "Houx Cité U",
        "code": 1258
      },
      "arrival": 52800,
      "departure": 52800
    },
    {
      "stop": {
        "id": "2_1259",
        "lat": 48.12800553,
        "lon": -1.6645754,
        "name": "Rochester",
        "code": 1259
      },
      "arrival": 52860,
      "departure": 52860
    },
    {
      "stop": {
        "id": "2_1260",
        "lat": 48.12670281,
        "lon": -1.66538386,
        "name": "Gros Chêne",
        "code": 1260
      },
      "arrival": 52920,
      "departure": 52920
    },
    {
      "stop": {
        "id": "2_1261",
        "lat": 48.12528168,
        "lon": -1.66666402,
        "name": "Volney",
        "code": 1261
      },
      "arrival": 52980,
      "departure": 52980
    },
    {
      "stop": {
        "id": "2_1262",
        "lat": 48.12147137,
        "lon": -1.67091812,
        "name": "Jules Ferry",
        "code": 1262
      },
      "arrival": 53100,
      "departure": 53100
    },
    {
      "stop": {
        "id": "2_1263",
        "lat": 48.11963635,
        "lon": -1.67422912,
        "name": "Rectorat",
        "code": 1263
      },
      "arrival": 53160,
      "departure": 53160
    },
    {
      "stop": {
        "id": "2_1027",
        "lat": 48.11723114,
        "lon": -1.67736823,
        "name": "Hôtel Dieu",
        "code": 1027
      },
      "arrival": 53220,
      "departure": 53220
    },
    {
      "stop": {
        "id": "2_1014",
        "lat": 48.11371104,
        "lon": -1.67903599,
        "name": "Sainte-Anne",
        "code": 1014
      },
      "arrival": 53460,
      "departure": 53460
    },
    {
      "stop": {
        "id": "2_1015",
        "lat": 48.11252173,
        "lon": -1.68031651,
        "name": "Champ Jacquet",
        "code": 1015
      },
      "arrival": 53520,
      "departure": 53520
    },
    {
      "stop": {
        "id": "2_1024",
        "lat": 48.10997886,
        "lon": -1.68021216,
        "name": "République Nemours",
        "code": 1024
      },
      "arrival": 53700,
      "departure": 53700
    },
    {
      "stop": {
        "id": "2_1017",
        "lat": 48.10834873,
        "lon": -1.6801754,
        "name": "Les Halles",
        "code": 1017
      },
      "arrival": 53760,
      "departure": 53760
    },
    {
      "stop": {
        "id": "2_1018",
        "lat": 48.10618372,
        "lon": -1.68095249,
        "name": "Plélo Colombier",
        "code": 1018
      },
      "arrival": 53880,
      "departure": 53880
    },
    {
      "stop": {
        "id": "2_1019",
        "lat": 48.1051576,
        "lon": -1.68471093,
        "name": "Cité Judiciaire",
        "code": 1019
      },
      "arrival": 54000,
      "departure": 54000
    },
    {
      "stop": {
        "id": "2_1264",
        "lat": 48.10211461,
        "lon": -1.68438725,
        "name": "Pont de Nantes",
        "code": 1264
      },
      "arrival": 54060,
      "departure": 54060
    },
    {
      "stop": {
        "id": "2_1265",
        "lat": 48.0997896,
        "lon": -1.68708791,
        "name": "Foyer Rennais",
        "code": 1265
      },
      "arrival": 54120,
      "departure": 54120
    },
    {
      "stop": {
        "id": "2_1266",
        "lat": 48.09708914,
        "lon": -1.68902834,
        "name": "Mermoz",
        "code": 1266
      },
      "arrival": 54180,
      "departure": 54180
    },
    {
      "stop": {
        "id": "2_2219",
        "lat": 48.09407071,
        "lon": -1.69057703,
        "name": "Pilate",
        "code": 2219
      },
      "arrival": 54180,
      "departure": 54180
    },
    {
      "stop": {
        "id": "2_2218",
        "lat": 48.09238093,
        "lon": -1.69158421,
        "name": "Saint-Yves",
        "code": 2218
      },
      "arrival": 54240,
      "departure": 54240
    },
    {
      "stop": {
        "id": "2_2228",
        "lat": 48.08980582,
        "lon": -1.69309127,
        "name": "Pigeon Blanc",
        "code": 2228
      },
      "arrival": 54300,
      "departure": 54300
    },
    {
      "stop": {
        "id": "2_2216",
        "lat": 48.08728351,
        "lon": -1.69462978,
        "name": "Pressoirs",
        "code": 2216
      },
      "arrival": 54360,
      "departure": 54360
    },
    {
      "stop": {
        "id": "2_1267",
        "lat": 48.0857359,
        "lon": -1.69390359,
        "name": "Félix Eboué",
        "code": 1267
      },
      "arrival": 54420,
      "departure": 54420
    },
    {
      "stop": {
        "id": "2_1268",
        "lat": 48.08376367,
        "lon": -1.69360406,
        "name": "Boberil",
        "code": 1268
      },
      "arrival": 54480,
      "departure": 54480
    },
    {
      "stop": {
        "id": "2_1269",
        "lat": 48.08423941,
        "lon": -1.69207225,
        "name": "Lycée Bréquigny",
        "code": 1269
      },
      "arrival": 54540,
      "departure": 54540
    }
  ],
  "route": {
    "id": "2_0005",
    "textColor": "FFFFFF",
    "color": "EE7F01",
    "description": "Majeure",
    "longName": "Patton \u003c\u003e Lycée Bréquigny",
    "shortName": "5",
    "type": 3,
    "agencyId": "2"
  }
}