{
  "headsign": "221 | Thorigné-Fouillard Portail",
  "stopTimes": [
    {
      "stop": {
        "id": "2_2091",
        "lat": 48.119072,
        "lon": -1.597622,
        "name": "Lycée Sévigné",
        "code": 2091
      },
      "arrival": 57300,
      "departure": 57300
    },
    {
      "stop": {
        "id": "2_2050",
        "lat": 48.120244,
        "lon": -1.599275,
        "name": "Cesson Collège",
        "code": 2050
      },
      "arrival": 57420,
      "departure": 57420
    },
    {
      "stop": {
        "id": "2_3316",
        "lat": 48.13216,
        "lon": -1.596367,
        "name": "Saint-Etienne",
        "code": 3316
      },
      "arrival": 57600,
      "departure": 57600
    },
    {
      "stop": {
        "id": "2_3320",
        "lat": 48.141857,
        "lon": -1.577397,
        "name": "Pâtis du Moulinet",
        "code": 3320
      },
      "arrival": 57780,
      "departure": 57780
    },
    {
      "stop": {
        "id": "2_3323",
        "lat": 48.149262,
        "lon": -1.577059,
        "name": "Curien",
        "code": 3323
      },
      "arrival": 57900,
      "departure": 57900
    },
    {
      "stop": {
        "id": "2_3301",
        "lat": 48.155188,
        "lon": -1.573107,
        "name": "Landelles",
        "code": 3301
      },
      "arrival": 58020,
      "departure": 58020
    },
    {
      "stop": {
        "id": "2_3315",
        "lat": 48.153606,
        "lon": -1.579768,
        "name": "Thorigné Mairie",
        "code": 3315
      },
      "arrival": 58200,
      "departure": 58200
    },
    {
      "stop": {
        "id": "2_3314",
        "lat": 48.156034,
        "lon": -1.580608,
        "name": "Anne de Bretagne",
        "code": 3314
      },
      "arrival": 58260,
      "departure": 58260
    },
    {
      "stop": {
        "id": "2_3305",
        "lat": 48.158973,
        "lon": -1.579631,
        "name": "Bocage",
        "code": 3305
      },
      "arrival": 58320,
      "departure": 58320
    },
    {
      "stop": {
        "id": "2_3306",
        "lat": 48.164176,
        "lon": -1.579265,
        "name": "Juteauderies",
        "code": 3306
      },
      "arrival": 58440,
      "departure": 58440
    },
    {
      "stop": {
        "id": "2_3307",
        "lat": 48.160412,
        "lon": -1.586021,
        "name": "Fouillard",
        "code": 3307
      },
      "arrival": 58560,
      "departure": 58560
    },
    {
      "stop": {
        "id": "2_3309",
        "lat": 48.156271,
        "lon": -1.592376,
        "name": "Portail",
        "code": 3309
      },
      "arrival": 58680,
      "departure": 58680
    }
  ],
  "route": {
    "id": "2_0221",
    "textColor": "FFFFFF",
    "color": "F39200",
    "description": "Complémentaire",
    "longName": "Cesson-Sévigné (Château de Vaux) \u003c\u003e Cesson-Sévigné (Lycée Saint-Etienne)",
    "shortName": "221",
    "type": 3,
    "agencyId": "2"
  }
}