{
  "headsign": "STN | République",
  "stopTimes": [
    {
      "stop": {
        "id": "2_1568",
        "lat": 48.121028,
        "lon": -1.713571,
        "name": "Kennedy Guyenne",
        "code": 1568
      },
      "arrival": 3300,
      "departure": 3300
    },
    {
      "stop": {
        "id": "2_1520",
        "lat": 48.120473,
        "lon": -1.709574,
        "name": "Bourbonnais",
        "code": 1520
      },
      "arrival": 3360,
      "departure": 3360
    },
    {
      "stop": {
        "id": "2_1305",
        "lat": 48.127565,
        "lon": -1.703293,
        "name": "Olympe de Gouges",
        "code": 1305
      },
      "arrival": 3600,
      "departure": 3600
    },
    {
      "stop": {
        "id": "2_1306",
        "lat": 48.12525,
        "lon": -1.703189,
        "name": "Bois Labbé",
        "code": 1306
      },
      "arrival": 3660,
      "departure": 3660
    },
    {
      "stop": {
        "id": "2_1307",
        "lat": 48.121755,
        "lon": -1.703954,
        "name": "Villejean-Université",
        "code": 1307
      },
      "arrival": 3720,
      "departure": 3720
    },
    {
      "stop": {
        "id": "2_1308",
        "lat": 48.118926,
        "lon": -1.704736,
        "name": "Université",
        "code": 1308
      },
      "arrival": 3780,
      "departure": 3780
    },
    {
      "stop": {
        "id": "2_1309",
        "lat": 48.116745,
        "lon": -1.704803,
        "name": "Berger",
        "code": 1309
      },
      "arrival": 3840,
      "departure": 3840
    },
    {
      "stop": {
        "id": "2_1188",
        "lat": 48.114898,
        "lon": -1.701959,
        "name": "La Salle",
        "code": 1188
      },
      "arrival": 3900,
      "departure": 3900
    },
    {
      "stop": {
        "id": "2_1294",
        "lat": 48.111305,
        "lon": -1.701301,
        "name": "Marbeuf",
        "code": 1294
      },
      "arrival": 4020,
      "departure": 4020
    },
    {
      "stop": {
        "id": "2_1311",
        "lat": 48.10957,
        "lon": -1.698313,
        "name": "Guilloux",
        "code": 1311
      },
      "arrival": 4020,
      "departure": 4020
    },
    {
      "stop": {
        "id": "2_1239",
        "lat": 48.108256,
        "lon": -1.694158,
        "name": "Chèques Postaux",
        "code": 1239
      },
      "arrival": 4080,
      "departure": 4080
    },
    {
      "stop": {
        "id": "2_1240",
        "lat": 48.109271,
        "lon": -1.689587,
        "name": "Le Mail",
        "code": 1240
      },
      "arrival": 4200,
      "departure": 4200
    },
    {
      "stop": {
        "id": "2_1091",
        "lat": 48.109734,
        "lon": -1.68385,
        "name": "Place de Bretagne",
        "code": 1091
      },
      "arrival": 4260,
      "departure": 4260
    },
    {
      "stop": {
        "id": "2_1168",
        "lat": 48.109761,
        "lon": -1.678807,
        "name": "République",
        "code": 1168
      },
      "arrival": 4320,
      "departure": 4320
    }
  ],
  "route": {
    "id": "2_0805",
    "textColor": "FFFFFF",
    "color": "004B96",
    "description": "Spéciale",
    "longName": "STAR de Nuit - Beaulieu Atalante \u003c\u003e J.F. Kennedy",
    "shortName": "STN",
    "type": 3,
    "agencyId": "2"
  }
}