{
  "headsign": "227 | Saint-Gilles Île des Bois",
  "stopTimes": [
    {
      "stop": {
        "id": "2_3159",
        "lat": 48.152373,
        "lon": -1.771551,
        "name": "Centre scolaire Pacé",
        "code": 3159
      },
      "arrival": 57900,
      "departure": 57900
    },
    {
      "stop": {
        "id": "2_3754",
        "lat": 48.12091,
        "lon": -1.772466,
        "name": "Haie de Terre",
        "code": 3754
      },
      "arrival": 58500,
      "departure": 58500
    },
    {
      "stop": {
        "id": "2_3755",
        "lat": 48.120211,
        "lon": -1.765417,
        "name": "Vallée",
        "code": 3755
      },
      "arrival": 58560,
      "departure": 58560
    },
    {
      "stop": {
        "id": "2_3756",
        "lat": 48.119004,
        "lon": -1.760926,
        "name": "Lion d\u0027Or",
        "code": 3756
      },
      "arrival": 58620,
      "departure": 58620
    },
    {
      "stop": {
        "id": "2_3757",
        "lat": 48.11887,
        "lon": -1.756833,
        "name": "Vezin Centre",
        "code": 3757
      },
      "arrival": 58680,
      "departure": 58680
    },
    {
      "stop": {
        "id": "2_3767",
        "lat": 48.122951,
        "lon": -1.755366,
        "name": "Fresnot",
        "code": 3767
      },
      "arrival": 58680,
      "departure": 58680
    },
    {
      "stop": {
        "id": "2_3710",
        "lat": 48.153626,
        "lon": -1.810538,
        "name": "Fouaye",
        "code": 3710
      },
      "arrival": 59100,
      "departure": 59100
    },
    {
      "stop": {
        "id": "2_3711",
        "lat": 48.154152,
        "lon": -1.819988,
        "name": "Vigne",
        "code": 3711
      },
      "arrival": 59160,
      "departure": 59160
    },
    {
      "stop": {
        "id": "2_3712",
        "lat": 48.150714,
        "lon": -1.824791,
        "name": "Pont aux Moines",
        "code": 3712
      },
      "arrival": 59220,
      "departure": 59220
    },
    {
      "stop": {
        "id": "2_3714",
        "lat": 48.152522,
        "lon": -1.829773,
        "name": "Saint-Gilles Centre",
        "code": 3714
      },
      "arrival": 59340,
      "departure": 59340
    },
    {
      "stop": {
        "id": "2_3724",
        "lat": 48.153843,
        "lon": -1.834042,
        "name": "Clos des Cerisiers",
        "code": 3724
      },
      "arrival": 59400,
      "departure": 59400
    },
    {
      "stop": {
        "id": "2_3723",
        "lat": 48.15406,
        "lon": -1.837815,
        "name": "Maison Neuve",
        "code": 3723
      },
      "arrival": 59460,
      "departure": 59460
    },
    {
      "stop": {
        "id": "2_3732",
        "lat": 48.14933,
        "lon": -1.839024,
        "name": "Ile des Bois",
        "code": 3732
      },
      "arrival": 59580,
      "departure": 59580
    }
  ],
  "route": {
    "id": "2_0227",
    "textColor": "FFFFFF",
    "color": "BCA3CE",
    "description": "Complémentaire",
    "longName": "Saint-Gilles (Île des Bois) \u003c\u003e Pacé (Collège Saint-Gabriel)",
    "shortName": "227",
    "type": 3,
    "agencyId": "2"
  }
}