{
  "headsign": "228 | Rennes Lycée Mendès-France",
  "stopTimes": [
    {
      "stop": {
        "id": "2_4069",
        "lat": 48.183129,
        "lon": -1.726001,
        "name": "Besneraie",
        "code": 4069
      },
      "arrival": 27660,
      "departure": 27660
    },
    {
      "stop": {
        "id": "2_4053",
        "lat": 48.17951,
        "lon": -1.729201,
        "name": "Métairie",
        "code": 4053
      },
      "arrival": 27780,
      "departure": 27780
    },
    {
      "stop": {
        "id": "2_4054",
        "lat": 48.177108,
        "lon": -1.732207,
        "name": "Mairie",
        "code": 4054
      },
      "arrival": 27960,
      "departure": 27960
    },
    {
      "stop": {
        "id": "2_4055",
        "lat": 48.174111,
        "lon": -1.735204,
        "name": "Viennais",
        "code": 4055
      },
      "arrival": 28020,
      "departure": 28020
    },
    {
      "stop": {
        "id": "2_4056",
        "lat": 48.17016,
        "lon": -1.736188,
        "name": "Sénestrais",
        "code": 4056
      },
      "arrival": 28080,
      "departure": 28080
    },
    {
      "stop": {
        "id": "2_3500",
        "lat": 48.163969,
        "lon": -1.731752,
        "name": "Silandière",
        "code": 3500
      },
      "arrival": 28140,
      "departure": 28140
    },
    {
      "stop": {
        "id": "2_3514",
        "lat": 48.157221,
        "lon": -1.723306,
        "name": "Fougerolle",
        "code": 3514
      },
      "arrival": 28260,
      "departure": 28260
    },
    {
      "stop": {
        "id": "2_3502",
        "lat": 48.155655,
        "lon": -1.720614,
        "name": "Pierre Texier",
        "code": 3502
      },
      "arrival": 28320,
      "departure": 28320
    },
    {
      "stop": {
        "id": "2_3503",
        "lat": 48.15574,
        "lon": -1.71654,
        "name": "Montgermont Mairie",
        "code": 3503
      },
      "arrival": 28440,
      "departure": 28440
    },
    {
      "stop": {
        "id": "2_3504",
        "lat": 48.157226,
        "lon": -1.714447,
        "name": "Courtines",
        "code": 3504
      },
      "arrival": 28500,
      "departure": 28500
    },
    {
      "stop": {
        "id": "2_3505",
        "lat": 48.155304,
        "lon": -1.710895,
        "name": "Belle Epine",
        "code": 3505
      },
      "arrival": 28560,
      "departure": 28560
    },
    {
      "stop": {
        "id": "2_3506",
        "lat": 48.152987,
        "lon": -1.706581,
        "name": "Décoparc",
        "code": 3506
      },
      "arrival": 28680,
      "departure": 28680
    },
    {
      "stop": {
        "id": "2_1578",
        "lat": 48.13335,
        "lon": -1.6839,
        "name": "Lycée Mendès France",
        "code": 1578
      },
      "arrival": 29100,
      "departure": 29100
    }
  ],
  "route": {
    "id": "2_0228",
    "textColor": "1A171B",
    "color": "71BF44",
    "description": "Complémentaire",
    "longName": "La Chapelle-des-Fougeretz (Besneraie) \u003c\u003e Rennes (Lycée Mendès-France)",
    "shortName": "228",
    "type": 3,
    "agencyId": "2"
  }
}