{
  "headsign": "54 | Le Rheu Cintré",
  "stopTimes": [
    {
      "stop": {
        "id": "2_1567",
        "lat": 48.1062288,
        "lon": -1.67750174,
        "name": "Charles de Gaulle",
        "code": 1567
      },
      "arrival": 30360,
      "departure": 30360
    },
    {
      "stop": {
        "id": "2_1214",
        "lat": 48.10990137,
        "lon": -1.6796669,
        "name": "République",
        "code": 1214
      },
      "arrival": 30600,
      "departure": 30600
    },
    {
      "stop": {
        "id": "2_1540",
        "lat": 48.1099522,
        "lon": -1.68519001,
        "name": "Pont de Bretagne",
        "code": 1540
      },
      "arrival": 30720,
      "departure": 30720
    },
    {
      "stop": {
        "id": "2_1217",
        "lat": 48.10823293,
        "lon": -1.69450077,
        "name": "Chèques Postaux",
        "code": 1217
      },
      "arrival": 30900,
      "departure": 30900
    },
    {
      "stop": {
        "id": "2_1218",
        "lat": 48.10910111,
        "lon": -1.69795527,
        "name": "Guilloux Lorient",
        "code": 1218
      },
      "arrival": 30960,
      "departure": 30960
    },
    {
      "stop": {
        "id": "2_1221",
        "lat": 48.10886589,
        "lon": -1.71061365,
        "name": "Géniaux",
        "code": 1221
      },
      "arrival": 31140,
      "departure": 31140
    },
    {
      "stop": {
        "id": "2_1539",
        "lat": 48.10723128,
        "lon": -1.72306614,
        "name": "Lemaistre",
        "code": 1539
      },
      "arrival": 31260,
      "departure": 31260
    },
    {
      "stop": {
        "id": "2_1506",
        "lat": 48.10648052,
        "lon": -1.73143819,
        "name": "Berthault",
        "code": 1506
      },
      "arrival": 31380,
      "departure": 31380
    },
    {
      "stop": {
        "id": "2_3766",
        "lat": 48.10499211,
        "lon": -1.74065229,
        "name": "Trois Marches",
        "code": 3766
      },
      "arrival": 31500,
      "departure": 31500
    },
    {
      "stop": {
        "id": "2_2511",
        "lat": 48.10364128,
        "lon": -1.75113015,
        "name": "Plessix Saucourt",
        "code": 2511
      },
      "arrival": 31560,
      "departure": 31560
    },
    {
      "stop": {
        "id": "2_2512",
        "lat": 48.09623469,
        "lon": -1.76464809,
        "name": "Pont d\u0027Avoine",
        "code": 2512
      },
      "arrival": 31740,
      "departure": 31740
    },
    {
      "stop": {
        "id": "2_2513",
        "lat": 48.09697566,
        "lon": -1.77595203,
        "name": "Les Pins",
        "code": 2513
      },
      "arrival": 31800,
      "departure": 31800
    },
    {
      "stop": {
        "id": "2_2514",
        "lat": 48.09763657,
        "lon": -1.78143531,
        "name": "Barberais",
        "code": 2514
      },
      "arrival": 31860,
      "departure": 31860
    },
    {
      "stop": {
        "id": "2_2515",
        "lat": 48.09924523,
        "lon": -1.79065184,
        "name": "Genêts",
        "code": 2515
      },
      "arrival": 31980,
      "departure": 31980
    },
    {
      "stop": {
        "id": "2_2516",
        "lat": 48.10177606,
        "lon": -1.79491908,
        "name": "Bouleaux",
        "code": 2516
      },
      "arrival": 32040,
      "departure": 32040
    },
    {
      "stop": {
        "id": "2_2517",
        "lat": 48.0993953,
        "lon": -1.79670831,
        "name": "Brassens",
        "code": 2517
      },
      "arrival": 32100,
      "departure": 32100
    },
    {
      "stop": {
        "id": "2_2518",
        "lat": 48.09927492,
        "lon": -1.80209424,
        "name": "Champs Freslons",
        "code": 2518
      },
      "arrival": 32220,
      "departure": 32220
    },
    {
      "stop": {
        "id": "2_2519",
        "lat": 48.10084549,
        "lon": -1.80690728,
        "name": "Lycée Monod",
        "code": 2519
      },
      "arrival": 32280,
      "departure": 32280
    },
    {
      "stop": {
        "id": "2_2520",
        "lat": 48.1024447,
        "lon": -1.83105113,
        "name": "Noë Diolé",
        "code": 2520
      },
      "arrival": 32400,
      "departure": 32400
    },
    {
      "stop": {
        "id": "2_4654",
        "lat": 48.10342337,
        "lon": -1.86944808,
        "name": "Saint-Melaine",
        "code": 4654
      },
      "arrival": 32640,
      "departure": 32640
    },
    {
      "stop": {
        "id": "2_4652",
        "lat": 48.10508252,
        "lon": -1.87271047,
        "name": "Chêne Vert",
        "code": 4652
      },
      "arrival": 32700,
      "departure": 32700
    }
  ],
  "route": {
    "id": "2_0054",
    "textColor": "FFFFFF",
    "color": "CD93BD",
    "description": "Métropolitaine",
    "longName": "Rennes (Charles de Gaulle) \u003c\u003e Le Rheu / Cintré",
    "shortName": "54",
    "type": 3,
    "agencyId": "2"
  }
}