{
  "headsign": "221 | Cesson-Sévigné Château de Vaux",
  "stopTimes": [
    {
      "stop": {
        "id": "2_2091",
        "lat": 48.119072,
        "lon": -1.597622,
        "name": "Lycée Sévigné",
        "code": 2091
      },
      "arrival": 64500,
      "departure": 64500
    },
    {
      "stop": {
        "id": "2_2050",
        "lat": 48.120244,
        "lon": -1.599275,
        "name": "Cesson Collège",
        "code": 2050
      },
      "arrival": 64620,
      "departure": 64620
    },
    {
      "stop": {
        "id": "2_3316",
        "lat": 48.13216,
        "lon": -1.596367,
        "name": "Saint-Etienne",
        "code": 3316
      },
      "arrival": 64800,
      "departure": 64800
    },
    {
      "stop": {
        "id": "2_3320",
        "lat": 48.141857,
        "lon": -1.577397,
        "name": "Pâtis du Moulinet",
        "code": 3320
      },
      "arrival": 64980,
      "departure": 64980
    },
    {
      "stop": {
        "id": "2_3323",
        "lat": 48.149262,
        "lon": -1.577059,
        "name": "Curien",
        "code": 3323
      },
      "arrival": 65100,
      "departure": 65100
    },
    {
      "stop": {
        "id": "2_3301",
        "lat": 48.155188,
        "lon": -1.573107,
        "name": "Landelles",
        "code": 3301
      },
      "arrival": 65220,
      "departure": 65220
    },
    {
      "stop": {
        "id": "2_3315",
        "lat": 48.153606,
        "lon": -1.579768,
        "name": "Thorigné Mairie",
        "code": 3315
      },
      "arrival": 65460,
      "departure": 65460
    },
    {
      "stop": {
        "id": "2_3314",
        "lat": 48.156034,
        "lon": -1.580608,
        "name": "Anne de Bretagne",
        "code": 3314
      },
      "arrival": 65520,
      "departure": 65520
    },
    {
      "stop": {
        "id": "2_3305",
        "lat": 48.158973,
        "lon": -1.579631,
        "name": "Bocage",
        "code": 3305
      },
      "arrival": 65580,
      "departure": 65580
    },
    {
      "stop": {
        "id": "2_3306",
        "lat": 48.164176,
        "lon": -1.579265,
        "name": "Juteauderies",
        "code": 3306
      },
      "arrival": 65700,
      "departure": 65700
    },
    {
      "stop": {
        "id": "2_3307",
        "lat": 48.160412,
        "lon": -1.586021,
        "name": "Fouillard",
        "code": 3307
      },
      "arrival": 65820,
      "departure": 65820
    },
    {
      "stop": {
        "id": "2_3309",
        "lat": 48.156271,
        "lon": -1.592376,
        "name": "Portail",
        "code": 3309
      },
      "arrival": 65940,
      "departure": 65940
    },
    {
      "stop": {
        "id": "2_2070",
        "lat": 48.145148,
        "lon": -1.608661,
        "name": "Victoire",
        "code": 2070
      },
      "arrival": 66060,
      "departure": 66060
    },
    {
      "stop": {
        "id": "2_2071",
        "lat": 48.140415,
        "lon": -1.616907,
        "name": "Calendrou",
        "code": 2071
      },
      "arrival": 66180,
      "departure": 66180
    },
    {
      "stop": {
        "id": "2_2114",
        "lat": 48.137351,
        "lon": -1.62275,
        "name": "Château de Vaux",
        "code": 2114
      },
      "arrival": 66240,
      "departure": 66240
    }
  ],
  "route": {
    "id": "2_0221",
    "textColor": "FFFFFF",
    "color": "F39200",
    "description": "Complémentaire",
    "longName": "Cesson-Sévigné (Château de Vaux) \u003c\u003e Cesson-Sévigné (Lycée Saint-Etienne)",
    "shortName": "221",
    "type": 3,
    "agencyId": "2"
  }
}