{
  "headsign": "55 | Mordelles",
  "stopTimes": [
    {
      "stop": {
        "id": "2_1567",
        "lat": 48.1062288,
        "lon": -1.67750174,
        "name": "Charles de Gaulle",
        "code": 1567
      },
      "arrival": 52620,
      "departure": 52620
    },
    {
      "stop": {
        "id": "2_1214",
        "lat": 48.10990137,
        "lon": -1.6796669,
        "name": "République",
        "code": 1214
      },
      "arrival": 52800,
      "departure": 52800
    },
    {
      "stop": {
        "id": "2_1540",
        "lat": 48.1099522,
        "lon": -1.68519001,
        "name": "Pont de Bretagne",
        "code": 1540
      },
      "arrival": 52860,
      "departure": 52860
    },
    {
      "stop": {
        "id": "2_1217",
        "lat": 48.10845176,
        "lon": -1.69364366,
        "name": "Chèques Postaux",
        "code": 1217
      },
      "arrival": 53040,
      "departure": 53040
    },
    {
      "stop": {
        "id": "2_1218",
        "lat": 48.10910111,
        "lon": -1.69795527,
        "name": "Guilloux Lorient",
        "code": 1218
      },
      "arrival": 53100,
      "departure": 53100
    },
    {
      "stop": {
        "id": "2_1221",
        "lat": 48.10886588,
        "lon": -1.71061365,
        "name": "Géniaux",
        "code": 1221
      },
      "arrival": 53280,
      "departure": 53280
    },
    {
      "stop": {
        "id": "2_1539",
        "lat": 48.10723127,
        "lon": -1.72306614,
        "name": "Lemaistre",
        "code": 1539
      },
      "arrival": 53400,
      "departure": 53400
    },
    {
      "stop": {
        "id": "2_1506",
        "lat": 48.10648051,
        "lon": -1.73143819,
        "name": "Berthault",
        "code": 1506
      },
      "arrival": 53520,
      "departure": 53520
    },
    {
      "stop": {
        "id": "2_3766",
        "lat": 48.10499211,
        "lon": -1.74065229,
        "name": "Trois Marches",
        "code": 3766
      },
      "arrival": 53640,
      "departure": 53640
    },
    {
      "stop": {
        "id": "2_2512",
        "lat": 48.09623468,
        "lon": -1.76464809,
        "name": "Pont d\u0027Avoine",
        "code": 2512
      },
      "arrival": 53880,
      "departure": 53880
    },
    {
      "stop": {
        "id": "2_2523",
        "lat": 48.09407165,
        "lon": -1.77398049,
        "name": "Mahomat",
        "code": 2523
      },
      "arrival": 53940,
      "departure": 53940
    },
    {
      "stop": {
        "id": "2_2524",
        "lat": 48.09134708,
        "lon": -1.78557585,
        "name": "Gerhoui",
        "code": 2524
      },
      "arrival": 54000,
      "departure": 54000
    },
    {
      "stop": {
        "id": "2_3859",
        "lat": 48.0881174,
        "lon": -1.79980194,
        "name": "Vivier des Bois",
        "code": 3859
      },
      "arrival": 54120,
      "departure": 54120
    },
    {
      "stop": {
        "id": "2_3860",
        "lat": 48.08361464,
        "lon": -1.81579413,
        "name": "Grande Fontaine",
        "code": 3860
      },
      "arrival": 54240,
      "departure": 54240
    },
    {
      "stop": {
        "id": "2_3861",
        "lat": 48.08139625,
        "lon": -1.82681277,
        "name": "Croix Ignon",
        "code": 3861
      },
      "arrival": 54300,
      "departure": 54300
    },
    {
      "stop": {
        "id": "2_3862",
        "lat": 48.07780007,
        "lon": -1.83732775,
        "name": "Gretay",
        "code": 3862
      },
      "arrival": 54360,
      "departure": 54360
    },
    {
      "stop": {
        "id": "2_3863",
        "lat": 48.0755735,
        "lon": -1.84280109,
        "name": "Mordelles Lilas",
        "code": 3863
      },
      "arrival": 54420,
      "departure": 54420
    },
    {
      "stop": {
        "id": "2_3864",
        "lat": 48.07357073,
        "lon": -1.84677438,
        "name": "Mordelles Mairie",
        "code": 3864
      },
      "arrival": 54480,
      "departure": 54480
    },
    {
      "stop": {
        "id": "2_3865",
        "lat": 48.07185149,
        "lon": -1.85020843,
        "name": "Mordelles Eglise",
        "code": 3865
      },
      "arrival": 54540,
      "departure": 54540
    },
    {
      "stop": {
        "id": "2_3851",
        "lat": 48.07460255,
        "lon": -1.85367611,
        "name": "Mordelles Pâtis",
        "code": 3851
      },
      "arrival": 54660,
      "departure": 54660
    }
  ],
  "route": {
    "id": "2_0055",
    "textColor": "201d21",
    "color": "f2ab00",
    "description": "Métropolitaine",
    "longName": "Rennes (Charles de Gaulle) \u003c\u003e Mordelles / Le Verger",
    "shortName": "55",
    "type": 3,
    "agencyId": "2"
  }
}