{
  "headsign": "52 | Montgermont La Chapelle",
  "stopTimes": [
    {
      "stop": {
        "id": "2_3732",
        "lat": 48.14932288,
        "lon": -1.83903709,
        "name": "Ile des Bois",
        "code": 3732
      },
      "arrival": 56940,
      "departure": 56940
    },
    {
      "stop": {
        "id": "2_3717",
        "lat": 48.15401352,
        "lon": -1.83761056,
        "name": "Maison Neuve",
        "code": 3717
      },
      "arrival": 57000,
      "departure": 57000
    },
    {
      "stop": {
        "id": "2_3715",
        "lat": 48.15376806,
        "lon": -1.83402942,
        "name": "Clos des Cerisiers",
        "code": 3715
      },
      "arrival": 57060,
      "departure": 57060
    },
    {
      "stop": {
        "id": "2_3705",
        "lat": 48.15297271,
        "lon": -1.82975865,
        "name": "Saint-Gilles Centre",
        "code": 3705
      },
      "arrival": 57060,
      "departure": 57060
    },
    {
      "stop": {
        "id": "2_3707",
        "lat": 48.15070786,
        "lon": -1.82521706,
        "name": "Pont aux Moines",
        "code": 3707
      },
      "arrival": 57180,
      "departure": 57180
    },
    {
      "stop": {
        "id": "2_3708",
        "lat": 48.15283954,
        "lon": -1.82071011,
        "name": "Vigne",
        "code": 3708
      },
      "arrival": 57240,
      "departure": 57240
    },
    {
      "stop": {
        "id": "2_3709",
        "lat": 48.15291812,
        "lon": -1.80907719,
        "name": "Fouaye",
        "code": 3709
      },
      "arrival": 57360,
      "departure": 57360
    },
    {
      "stop": {
        "id": "2_3102",
        "lat": 48.15130194,
        "lon": -1.79231921,
        "name": "Pie Neuve",
        "code": 3102
      },
      "arrival": 57480,
      "departure": 57480
    },
    {
      "stop": {
        "id": "2_3103",
        "lat": 48.14925877,
        "lon": -1.78891407,
        "name": "Docteur Léon",
        "code": 3103
      },
      "arrival": 57540,
      "departure": 57540
    },
    {
      "stop": {
        "id": "2_3104",
        "lat": 48.14851135,
        "lon": -1.78489927,
        "name": "Touche Milon",
        "code": 3104
      },
      "arrival": 57600,
      "departure": 57600
    },
    {
      "stop": {
        "id": "2_3119",
        "lat": 48.14754796,
        "lon": -1.78109404,
        "name": "Pinault",
        "code": 3119
      },
      "arrival": 57660,
      "departure": 57660
    },
    {
      "stop": {
        "id": "2_3134",
        "lat": 48.14165529,
        "lon": -1.77056625,
        "name": "Nominoë",
        "code": 3134
      },
      "arrival": 57780,
      "departure": 57780
    },
    {
      "stop": {
        "id": "2_1517",
        "lat": 48.11854026,
        "lon": -1.71363649,
        "name": "Berry",
        "code": 1517
      },
      "arrival": 58200,
      "departure": 58200
    },
    {
      "stop": {
        "id": "2_1520",
        "lat": 48.12050245,
        "lon": -1.70973991,
        "name": "Bourbonnais",
        "code": 1520
      },
      "arrival": 58260,
      "departure": 58260
    },
    {
      "stop": {
        "id": "2_1494",
        "lat": 48.12125284,
        "lon": -1.70296746,
        "name": "Villejean-Université",
        "code": 1494
      },
      "arrival": 58500,
      "departure": 58500
    },
    {
      "stop": {
        "id": "2_1495",
        "lat": 48.12663856,
        "lon": -1.69309309,
        "name": "Lycée Basch",
        "code": 1495
      },
      "arrival": 58740,
      "departure": 58740
    },
    {
      "stop": {
        "id": "2_1537",
        "lat": 48.13157496,
        "lon": -1.69170144,
        "name": "Léonard",
        "code": 1537
      },
      "arrival": 58860,
      "departure": 58860
    },
    {
      "stop": {
        "id": "2_2830",
        "lat": 48.13432722,
        "lon": -1.69446335,
        "name": "Grand Quartier",
        "code": 2830
      },
      "arrival": 58920,
      "departure": 58920
    },
    {
      "stop": {
        "id": "2_3508",
        "lat": 48.14826699,
        "lon": -1.70363701,
        "name": "Vizeule",
        "code": 3508
      },
      "arrival": 59100,
      "departure": 59100
    },
    {
      "stop": {
        "id": "2_3509",
        "lat": 48.15288114,
        "lon": -1.70885747,
        "name": "Métrie",
        "code": 3509
      },
      "arrival": 59160,
      "departure": 59160
    },
    {
      "stop": {
        "id": "2_3510",
        "lat": 48.15558798,
        "lon": -1.71082246,
        "name": "Belle Epine",
        "code": 3510
      },
      "arrival": 59220,
      "departure": 59220
    },
    {
      "stop": {
        "id": "2_3511",
        "lat": 48.15733411,
        "lon": -1.71460655,
        "name": "Courtines",
        "code": 3511
      },
      "arrival": 59280,
      "departure": 59280
    },
    {
      "stop": {
        "id": "2_3512",
        "lat": 48.15567997,
        "lon": -1.71663805,
        "name": "Montgermont Mairie",
        "code": 3512
      },
      "arrival": 59340,
      "departure": 59340
    },
    {
      "stop": {
        "id": "2_3513",
        "lat": 48.15568596,
        "lon": -1.72068225,
        "name": "Pierre Texier",
        "code": 3513
      },
      "arrival": 59400,
      "departure": 59400
    },
    {
      "stop": {
        "id": "2_3501",
        "lat": 48.15713428,
        "lon": -1.72329994,
        "name": "Fougerolle",
        "code": 3501
      },
      "arrival": 59460,
      "departure": 59460
    },
    {
      "stop": {
        "id": "2_3515",
        "lat": 48.16271981,
        "lon": -1.73059303,
        "name": "Silandière",
        "code": 3515
      },
      "arrival": 59580,
      "departure": 59580
    },
    {
      "stop": {
        "id": "2_4057",
        "lat": 48.17039595,
        "lon": -1.73622985,
        "name": "Sénestrais",
        "code": 4057
      },
      "arrival": 59640,
      "departure": 59640
    },
    {
      "stop": {
        "id": "2_4058",
        "lat": 48.17395236,
        "lon": -1.73523531,
        "name": "Viennais",
        "code": 4058
      },
      "arrival": 59700,
      "departure": 59700
    },
    {
      "stop": {
        "id": "2_4059",
        "lat": 48.17663681,
        "lon": -1.7328654,
        "name": "Mairie",
        "code": 4059
      },
      "arrival": 59760,
      "departure": 59760
    },
    {
      "stop": {
        "id": "2_4060",
        "lat": 48.1794217,
        "lon": -1.72905833,
        "name": "Métairie",
        "code": 4060
      },
      "arrival": 59820,
      "departure": 59820
    },
    {
      "stop": {
        "id": "2_4069",
        "lat": 48.18315711,
        "lon": -1.72604447,
        "name": "Besneraie",
        "code": 4069
      },
      "arrival": 59940,
      "departure": 59940
    }
  ],
  "route": {
    "id": "2_0052",
    "textColor": "FFFFFF",
    "color": "007C77",
    "description": "Métropolitaine",
    "longName": "Saint-Gilles / Pacé \u003c\u003e Rennes (Villejean-Université) \u003c\u003e Montgermont / La Chapelle-des-Fougeretz",
    "shortName": "52",
    "type": 3,
    "agencyId": "2"
  }
}