{
  "headsign": "67 | Brécé",
  "stopTimes": [
    {
      "stop": {
        "id": "2_1556",
        "lat": 48.10943229,
        "lon": -1.67763328,
        "name": "République",
        "code": 1556
      },
      "arrival": 36900,
      "departure": 36900
    },
    {
      "stop": {
        "id": "2_1169",
        "lat": 48.10985334,
        "lon": -1.67452094,
        "name": "Musée Beaux Arts",
        "code": 1169
      },
      "arrival": 37020,
      "departure": 37020
    },
    {
      "stop": {
        "id": "2_1172",
        "lat": 48.11007924,
        "lon": -1.65919453,
        "name": "Robidou",
        "code": 1172
      },
      "arrival": 37200,
      "departure": 37200
    },
    {
      "stop": {
        "id": "2_1525",
        "lat": 48.11355264,
        "lon": -1.6567289,
        "name": "Durafour Strasbourg",
        "code": 1525
      },
      "arrival": 37320,
      "departure": 37320
    },
    {
      "stop": {
        "id": "2_1524",
        "lat": 48.11467385,
        "lon": -1.65135039,
        "name": "Hôpital Régnier",
        "code": 1524
      },
      "arrival": 37380,
      "departure": 37380
    },
    {
      "stop": {
        "id": "2_1523",
        "lat": 48.11454875,
        "lon": -1.6499529,
        "name": "Moulin de Joué",
        "code": 1523
      },
      "arrival": 37440,
      "departure": 37440
    },
    {
      "stop": {
        "id": "2_1522",
        "lat": 48.11392882,
        "lon": -1.642818,
        "name": "Piletière",
        "code": 1522
      },
      "arrival": 37500,
      "departure": 37500
    },
    {
      "stop": {
        "id": "2_1610",
        "lat": 48.11406056,
        "lon": -1.63602668,
        "name": "Tournebride",
        "code": 1610
      },
      "arrival": 37560,
      "departure": 37560
    },
    {
      "stop": {
        "id": "2_2019",
        "lat": 48.1140789,
        "lon": -1.62801107,
        "name": "Champs Péans",
        "code": 2019
      },
      "arrival": 37620,
      "departure": 37620
    },
    {
      "stop": {
        "id": "2_2020",
        "lat": 48.11415,
        "lon": -1.62183892,
        "name": "Taillis",
        "code": 2020
      },
      "arrival": 37680,
      "departure": 37680
    },
    {
      "stop": {
        "id": "2_2062",
        "lat": 48.10782767,
        "lon": -1.61408468,
        "name": "Rond Point de Bray",
        "code": 2062
      },
      "arrival": 37860,
      "departure": 37860
    },
    {
      "stop": {
        "id": "2_2063",
        "lat": 48.1093024,
        "lon": -1.6089112,
        "name": "Monniais",
        "code": 2063
      },
      "arrival": 37920,
      "departure": 37920
    },
    {
      "stop": {
        "id": "2_2064",
        "lat": 48.11257019,
        "lon": -1.60740614,
        "name": "Peupliers",
        "code": 2064
      },
      "arrival": 37980,
      "departure": 37980
    },
    {
      "stop": {
        "id": "2_2065",
        "lat": 48.11382762,
        "lon": -1.60314125,
        "name": "Cesson Gare",
        "code": 2065
      },
      "arrival": 38040,
      "departure": 38040
    },
    {
      "stop": {
        "id": "2_2086",
        "lat": 48.11430452,
        "lon": -1.60048414,
        "name": "Bordage",
        "code": 2086
      },
      "arrival": 38100,
      "departure": 38100
    },
    {
      "stop": {
        "id": "2_2103",
        "lat": 48.11334833,
        "lon": -1.59001633,
        "name": "Rigourdière",
        "code": 2103
      },
      "arrival": 38220,
      "departure": 38220
    },
    {
      "stop": {
        "id": "2_4163",
        "lat": 48.10829229,
        "lon": -1.50738732,
        "name": "Turbanière",
        "code": 4163
      },
      "arrival": 38760,
      "departure": 38760
    },
    {
      "stop": {
        "id": "2_4157",
        "lat": 48.10929687,
        "lon": -1.50327411,
        "name": "Pâtis",
        "code": 4157
      },
      "arrival": 38760,
      "departure": 38760
    },
    {
      "stop": {
        "id": "2_4158",
        "lat": 48.10759324,
        "lon": -1.48603777,
        "name": "Destiers",
        "code": 4158
      },
      "arrival": 38880,
      "departure": 38880
    },
    {
      "stop": {
        "id": "2_4159",
        "lat": 48.10748041,
        "lon": -1.48261,
        "name": "Provence",
        "code": 4159
      },
      "arrival": 38940,
      "departure": 38940
    },
    {
      "stop": {
        "id": "2_4160",
        "lat": 48.10721432,
        "lon": -1.47846948,
        "name": "Saules",
        "code": 4160
      },
      "arrival": 39000,
      "departure": 39000
    },
    {
      "stop": {
        "id": "2_4161",
        "lat": 48.10901928,
        "lon": -1.47840717,
        "name": "Mainguère",
        "code": 4161
      },
      "arrival": 39000,
      "departure": 39000
    },
    {
      "stop": {
        "id": "2_4151",
        "lat": 48.10975091,
        "lon": -1.48097238,
        "name": "Anjou",
        "code": 4151
      },
      "arrival": 39060,
      "departure": 39060
    }
  ],
  "route": {
    "id": "2_0067",
    "textColor": "FFFFFF",
    "color": "E0083B",
    "description": "Métropolitaine",
    "longName": "Rennes (République) \u003c\u003e Cesson-Sévigné / Brécé",
    "shortName": "67",
    "type": 3,
    "agencyId": "2"
  }
}