{
  "headsign": "11 | Saint-Saëns",
  "stopTimes": [
    {
      "stop": {
        "id": "2_1234",
        "lat": 48.10775888,
        "lon": -1.71484897,
        "name": "Stade Rennais",
        "code": 1234
      },
      "arrival": 23760,
      "departure": 23760
    },
    {
      "stop": {
        "id": "2_1235",
        "lat": 48.10892663,
        "lon": -1.70977108,
        "name": "Géniaux",
        "code": 1235
      },
      "arrival": 23820,
      "departure": 23820
    },
    {
      "stop": {
        "id": "2_1236",
        "lat": 48.10881331,
        "lon": -1.7056153,
        "name": "Kerviler",
        "code": 1236
      },
      "arrival": 23880,
      "departure": 23880
    },
    {
      "stop": {
        "id": "2_1237",
        "lat": 48.10773621,
        "lon": -1.70211405,
        "name": "Papeteries",
        "code": 1237
      },
      "arrival": 23880,
      "departure": 23880
    },
    {
      "stop": {
        "id": "2_1238",
        "lat": 48.10869591,
        "lon": -1.69884796,
        "name": "Guilloux Lorient",
        "code": 1238
      },
      "arrival": 23940,
      "departure": 23940
    },
    {
      "stop": {
        "id": "2_1239",
        "lat": 48.10827073,
        "lon": -1.6941653,
        "name": "Chèques Postaux",
        "code": 1239
      },
      "arrival": 24000,
      "departure": 24000
    },
    {
      "stop": {
        "id": "2_1240",
        "lat": 48.10927186,
        "lon": -1.68970708,
        "name": "Le Mail",
        "code": 1240
      },
      "arrival": 24060,
      "departure": 24060
    },
    {
      "stop": {
        "id": "2_1091",
        "lat": 48.10977886,
        "lon": -1.68388248,
        "name": "Place de Bretagne",
        "code": 1091
      },
      "arrival": 24180,
      "departure": 24180
    },
    {
      "stop": {
        "id": "2_1242",
        "lat": 48.10980333,
        "lon": -1.6795219,
        "name": "République",
        "code": 1242
      },
      "arrival": 24300,
      "departure": 24300
    },
    {
      "stop": {
        "id": "2_1088",
        "lat": 48.10744897,
        "lon": -1.67491383,
        "name": "Liberté TNB",
        "code": 1088
      },
      "arrival": 24480,
      "departure": 24480
    },
    {
      "stop": {
        "id": "2_1087",
        "lat": 48.1060299,
        "lon": -1.67410184,
        "name": "Champs Libres",
        "code": 1087
      },
      "arrival": 24540,
      "departure": 24540
    },
    {
      "stop": {
        "id": "2_1477",
        "lat": 48.10388016,
        "lon": -1.67284842,
        "name": "Gares",
        "code": 1477
      },
      "arrival": 24600,
      "departure": 24600
    },
    {
      "stop": {
        "id": "2_1085",
        "lat": 48.10476768,
        "lon": -1.66658594,
        "name": "Laënnec",
        "code": 1085
      },
      "arrival": 24720,
      "departure": 24720
    },
    {
      "stop": {
        "id": "2_1243",
        "lat": 48.10254897,
        "lon": -1.66111869,
        "name": "Croix Saint-Hélier",
        "code": 1243
      },
      "arrival": 24780,
      "departure": 24780
    },
    {
      "stop": {
        "id": "2_1244",
        "lat": 48.10229227,
        "lon": -1.65513195,
        "name": "Mouézy",
        "code": 1244
      },
      "arrival": 24840,
      "departure": 24840
    },
    {
      "stop": {
        "id": "2_1211",
        "lat": 48.10317679,
        "lon": -1.65251241,
        "name": "Serpette",
        "code": 1211
      },
      "arrival": 24840,
      "departure": 24840
    },
    {
      "stop": {
        "id": "2_1246",
        "lat": 48.10439597,
        "lon": -1.64934184,
        "name": "Cimetière de l\u0027Est",
        "code": 1246
      },
      "arrival": 24900,
      "departure": 24900
    },
    {
      "stop": {
        "id": "2_1247",
        "lat": 48.10491097,
        "lon": -1.64382886,
        "name": "Pavie",
        "code": 1247
      },
      "arrival": 24960,
      "departure": 24960
    },
    {
      "stop": {
        "id": "2_1208",
        "lat": 48.10412827,
        "lon": -1.63784292,
        "name": "Saint-Saëns",
        "code": 1208
      },
      "arrival": 25020,
      "departure": 25020
    }
  ],
  "route": {
    "id": "2_0011",
    "textColor": "FFFFFF",
    "color": "DD84B1",
    "description": "Urbaine",
    "longName": "ZI Ouest / Stade Rennais \u003c\u003e Saint-Saëns / La Poterie",
    "shortName": "11",
    "type": 3,
    "agencyId": "2"
  }
}