{
  "headsign": "54 | Rennes Charles de Gaulle",
  "stopTimes": [
    {
      "stop": {
        "id": "2_2502",
        "lat": 48.1005527,
        "lon": -1.80657108,
        "name": "Lycée Monod",
        "code": 2502
      },
      "arrival": 41700,
      "departure": 41700
    },
    {
      "stop": {
        "id": "2_2503",
        "lat": 48.09895196,
        "lon": -1.80139197,
        "name": "Champs Freslons",
        "code": 2503
      },
      "arrival": 41760,
      "departure": 41760
    },
    {
      "stop": {
        "id": "2_2504",
        "lat": 48.0989712,
        "lon": -1.79693897,
        "name": "Brassens",
        "code": 2504
      },
      "arrival": 41820,
      "departure": 41820
    },
    {
      "stop": {
        "id": "2_2505",
        "lat": 48.10163022,
        "lon": -1.79451553,
        "name": "Bouleaux",
        "code": 2505
      },
      "arrival": 41880,
      "departure": 41880
    },
    {
      "stop": {
        "id": "2_2506",
        "lat": 48.09931104,
        "lon": -1.79124998,
        "name": "Genêts",
        "code": 2506
      },
      "arrival": 41940,
      "departure": 41940
    },
    {
      "stop": {
        "id": "2_2507",
        "lat": 48.09755056,
        "lon": -1.78133332,
        "name": "Barberais",
        "code": 2507
      },
      "arrival": 42060,
      "departure": 42060
    },
    {
      "stop": {
        "id": "2_2508",
        "lat": 48.09687556,
        "lon": -1.77558132,
        "name": "Les Pins",
        "code": 2508
      },
      "arrival": 42120,
      "departure": 42120
    },
    {
      "stop": {
        "id": "2_2509",
        "lat": 48.0961416,
        "lon": -1.76472044,
        "name": "Pont d\u0027Avoine",
        "code": 2509
      },
      "arrival": 42240,
      "departure": 42240
    },
    {
      "stop": {
        "id": "2_2510",
        "lat": 48.10386756,
        "lon": -1.75043717,
        "name": "Plessix Saucourt",
        "code": 2510
      },
      "arrival": 42420,
      "departure": 42420
    },
    {
      "stop": {
        "id": "2_3752",
        "lat": 48.10474061,
        "lon": -1.73906178,
        "name": "Trois Marches",
        "code": 3752
      },
      "arrival": 42540,
      "departure": 42540
    },
    {
      "stop": {
        "id": "2_1508",
        "lat": 48.10673486,
        "lon": -1.7291459,
        "name": "Berthault",
        "code": 1508
      },
      "arrival": 42660,
      "departure": 42660
    },
    {
      "stop": {
        "id": "2_1233",
        "lat": 48.10704452,
        "lon": -1.72187845,
        "name": "Lemaistre",
        "code": 1233
      },
      "arrival": 42720,
      "departure": 42720
    },
    {
      "stop": {
        "id": "2_1235",
        "lat": 48.10892663,
        "lon": -1.70977108,
        "name": "Géniaux",
        "code": 1235
      },
      "arrival": 42900,
      "departure": 42900
    },
    {
      "stop": {
        "id": "2_1238",
        "lat": 48.1086959,
        "lon": -1.69884796,
        "name": "Guilloux Lorient",
        "code": 1238
      },
      "arrival": 43020,
      "departure": 43020
    },
    {
      "stop": {
        "id": "2_1239",
        "lat": 48.10814248,
        "lon": -1.6948685,
        "name": "Chèques Postaux",
        "code": 1239
      },
      "arrival": 43080,
      "departure": 43080
    },
    {
      "stop": {
        "id": "2_1542",
        "lat": 48.10997275,
        "lon": -1.68535336,
        "name": "Pont de Bretagne",
        "code": 1542
      },
      "arrival": 43260,
      "departure": 43260
    },
    {
      "stop": {
        "id": "2_1242",
        "lat": 48.10980333,
        "lon": -1.6795219,
        "name": "République",
        "code": 1242
      },
      "arrival": 43320,
      "departure": 43320
    },
    {
      "stop": {
        "id": "2_1088",
        "lat": 48.10744897,
        "lon": -1.67491383,
        "name": "Liberté TNB",
        "code": 1088
      },
      "arrival": 43500,
      "departure": 43500
    },
    {
      "stop": {
        "id": "2_1567",
        "lat": 48.1062288,
        "lon": -1.67750174,
        "name": "Charles de Gaulle",
        "code": 1567
      },
      "arrival": 43620,
      "departure": 43620
    }
  ],
  "route": {
    "id": "2_0054",
    "textColor": "ffffff",
    "color": "cc90ba",
    "description": "Métropolitaine",
    "longName": "Rennes (Charles de Gaulle) \u003c\u003e Le Rheu / Cintré",
    "shortName": "54",
    "type": 3,
    "agencyId": "2"
  }
}