{
  "headsign": "53 | Rennes République",
  "stopTimes": [
    {
      "stop": {
        "id": "2_1503",
        "lat": 48.11616144,
        "lon": -1.71594912,
        "name": "Colin",
        "code": 1503
      },
      "arrival": 66120,
      "departure": 66120
    },
    {
      "stop": {
        "id": "2_1422",
        "lat": 48.11628685,
        "lon": -1.71146403,
        "name": "Merlin",
        "code": 1422
      },
      "arrival": 66180,
      "departure": 66180
    },
    {
      "stop": {
        "id": "2_1500",
        "lat": 48.11386976,
        "lon": -1.7054062,
        "name": "Agrocampus",
        "code": 1500
      },
      "arrival": 66300,
      "departure": 66300
    },
    {
      "stop": {
        "id": "2_1294",
        "lat": 48.11140799,
        "lon": -1.70136408,
        "name": "Marbeuf",
        "code": 1294
      },
      "arrival": 66360,
      "departure": 66360
    },
    {
      "stop": {
        "id": "2_1311",
        "lat": 48.10966101,
        "lon": -1.69838195,
        "name": "Guilloux",
        "code": 1311
      },
      "arrival": 66420,
      "departure": 66420
    },
    {
      "stop": {
        "id": "2_1239",
        "lat": 48.10827073,
        "lon": -1.6941653,
        "name": "Chèques Postaux",
        "code": 1239
      },
      "arrival": 66480,
      "departure": 66480
    },
    {
      "stop": {
        "id": "2_1542",
        "lat": 48.10997275,
        "lon": -1.68535336,
        "name": "Pont de Bretagne",
        "code": 1542
      },
      "arrival": 66600,
      "departure": 66600
    },
    {
      "stop": {
        "id": "2_1167",
        "lat": 48.10936738,
        "lon": -1.678658,
        "name": "République Pré Botté",
        "code": 1167
      },
      "arrival": 66780,
      "departure": 66780
    }
  ],
  "route": {
    "id": "2_0053",
    "textColor": "FFFFFF",
    "color": "D20132",
    "description": "Métropolitaine",
    "longName": "Rennes (République) \u003c\u003e Vezin-le-Coquet / L\u0027Hermitage / La Chapelle-Thouarault",
    "shortName": "53",
    "type": 3,
    "agencyId": "2"
  }
}