{
  "headsign": "54 | Le Rheu Cintré",
  "stopTimes": [
    {
      "stop": {
        "id": "2_1567",
        "lat": 48.106213,
        "lon": -1.677425,
        "name": "Charles de Gaulle",
        "code": 1567
      },
      "arrival": 25020,
      "departure": 25020
    },
    {
      "stop": {
        "id": "2_1214",
        "lat": 48.109932,
        "lon": -1.679644,
        "name": "République",
        "code": 1214
      },
      "arrival": 25200,
      "departure": 25200
    },
    {
      "stop": {
        "id": "2_1540",
        "lat": 48.109999,
        "lon": -1.685158,
        "name": "Pont de Bretagne",
        "code": 1540
      },
      "arrival": 25260,
      "departure": 25260
    },
    {
      "stop": {
        "id": "2_1217",
        "lat": 48.108252,
        "lon": -1.694511,
        "name": "Chèques Postaux",
        "code": 1217
      },
      "arrival": 25440,
      "departure": 25440
    },
    {
      "stop": {
        "id": "2_1218",
        "lat": 48.109099,
        "lon": -1.697997,
        "name": "Guilloux Lorient",
        "code": 1218
      },
      "arrival": 25500,
      "departure": 25500
    },
    {
      "stop": {
        "id": "2_1221",
        "lat": 48.108871,
        "lon": -1.710766,
        "name": "Géniaux",
        "code": 1221
      },
      "arrival": 25620,
      "departure": 25620
    },
    {
      "stop": {
        "id": "2_1539",
        "lat": 48.107253,
        "lon": -1.723135,
        "name": "Lemaistre",
        "code": 1539
      },
      "arrival": 25800,
      "departure": 25800
    },
    {
      "stop": {
        "id": "2_1506",
        "lat": 48.106477,
        "lon": -1.73157,
        "name": "Berthault",
        "code": 1506
      },
      "arrival": 25860,
      "departure": 25860
    },
    {
      "stop": {
        "id": "2_3766",
        "lat": 48.104998,
        "lon": -1.740624,
        "name": "Trois Marches",
        "code": 3766
      },
      "arrival": 25920,
      "departure": 25920
    },
    {
      "stop": {
        "id": "2_2511",
        "lat": 48.103559,
        "lon": -1.751287,
        "name": "Plessix Saucourt",
        "code": 2511
      },
      "arrival": 25980,
      "departure": 25980
    },
    {
      "stop": {
        "id": "2_2512",
        "lat": 48.096246,
        "lon": -1.764714,
        "name": "Pont d\u0027Avoine",
        "code": 2512
      },
      "arrival": 26160,
      "departure": 26160
    },
    {
      "stop": {
        "id": "2_2513",
        "lat": 48.097012,
        "lon": -1.776051,
        "name": "Les Pins",
        "code": 2513
      },
      "arrival": 26220,
      "departure": 26220
    },
    {
      "stop": {
        "id": "2_2514",
        "lat": 48.09768,
        "lon": -1.781563,
        "name": "Barberais",
        "code": 2514
      },
      "arrival": 26280,
      "departure": 26280
    },
    {
      "stop": {
        "id": "2_2515",
        "lat": 48.099309,
        "lon": -1.790762,
        "name": "Genêts",
        "code": 2515
      },
      "arrival": 26400,
      "departure": 26400
    },
    {
      "stop": {
        "id": "2_2516",
        "lat": 48.101845,
        "lon": -1.79502,
        "name": "Bouleaux",
        "code": 2516
      },
      "arrival": 26460,
      "departure": 26460
    },
    {
      "stop": {
        "id": "2_2517",
        "lat": 48.099367,
        "lon": -1.796733,
        "name": "Brassens",
        "code": 2517
      },
      "arrival": 26520,
      "departure": 26520
    },
    {
      "stop": {
        "id": "2_2518",
        "lat": 48.099326,
        "lon": -1.802088,
        "name": "Champs Freslons",
        "code": 2518
      },
      "arrival": 26640,
      "departure": 26640
    },
    {
      "stop": {
        "id": "2_2519",
        "lat": 48.100897,
        "lon": -1.806904,
        "name": "Lycée Monod",
        "code": 2519
      },
      "arrival": 26700,
      "departure": 26700
    },
    {
      "stop": {
        "id": "2_2520",
        "lat": 48.102463,
        "lon": -1.831087,
        "name": "Noë Diolé",
        "code": 2520
      },
      "arrival": 26820,
      "departure": 26820
    },
    {
      "stop": {
        "id": "2_4654",
        "lat": 48.103469,
        "lon": -1.869393,
        "name": "Saint-Melaine",
        "code": 4654
      },
      "arrival": 27060,
      "departure": 27060
    },
    {
      "stop": {
        "id": "2_4652",
        "lat": 48.105043,
        "lon": -1.872646,
        "name": "Chêne Vert",
        "code": 4652
      },
      "arrival": 27120,
      "departure": 27120
    }
  ],
  "route": {
    "id": "2_0054",
    "textColor": "FFFFFF",
    "color": "CD93BD",
    "description": "Métropolitaine",
    "longName": "Rennes (Charles de Gaulle) \u003c\u003e Le Rheu / Cintré",
    "shortName": "54",
    "type": 3,
    "agencyId": "2"
  }
}