{
  "headsign": "50 | Thorigné-Fouillard",
  "stopTimes": [
    {
      "stop": {
        "id": "2_1563",
        "lat": 48.10969683,
        "lon": -1.67818363,
        "name": "République",
        "code": 1563
      },
      "arrival": 39300,
      "departure": 39300
    },
    {
      "stop": {
        "id": "2_1169",
        "lat": 48.10985334,
        "lon": -1.67452094,
        "name": "Musée Beaux Arts",
        "code": 1169
      },
      "arrival": 39360,
      "departure": 39360
    },
    {
      "stop": {
        "id": "2_1172",
        "lat": 48.11007924,
        "lon": -1.65919453,
        "name": "Robidou",
        "code": 1172
      },
      "arrival": 39540,
      "departure": 39540
    },
    {
      "stop": {
        "id": "2_1515",
        "lat": 48.11350079,
        "lon": -1.64755396,
        "name": "Moulin de Joué",
        "code": 1515
      },
      "arrival": 39720,
      "departure": 39720
    },
    {
      "stop": {
        "id": "2_1516",
        "lat": 48.11595285,
        "lon": -1.64840733,
        "name": "Bois Perrin",
        "code": 1516
      },
      "arrival": 39780,
      "departure": 39780
    },
    {
      "stop": {
        "id": "2_1152",
        "lat": 48.12043354,
        "lon": -1.65067299,
        "name": "Docteur Quentin",
        "code": 1152
      },
      "arrival": 39840,
      "departure": 39840
    },
    {
      "stop": {
        "id": "2_1034",
        "lat": 48.12221902,
        "lon": -1.65061867,
        "name": "Turmel",
        "code": 1034
      },
      "arrival": 39900,
      "departure": 39900
    },
    {
      "stop": {
        "id": "2_1035",
        "lat": 48.12370157,
        "lon": -1.64529281,
        "name": "Mirabeau",
        "code": 1035
      },
      "arrival": 39960,
      "departure": 39960
    },
    {
      "stop": {
        "id": "2_1036",
        "lat": 48.12553894,
        "lon": -1.64212893,
        "name": "Donzelot",
        "code": 1036
      },
      "arrival": 40020,
      "departure": 40020
    },
    {
      "stop": {
        "id": "2_1481",
        "lat": 48.12981846,
        "lon": -1.64241093,
        "name": "Zac Saint-Sulpice",
        "code": 1481
      },
      "arrival": 40080,
      "departure": 40080
    },
    {
      "stop": {
        "id": "2_1480",
        "lat": 48.13202871,
        "lon": -1.63503782,
        "name": "Gaudinais",
        "code": 1480
      },
      "arrival": 40140,
      "departure": 40140
    },
    {
      "stop": {
        "id": "2_2077",
        "lat": 48.13420321,
        "lon": -1.62879212,
        "name": "Lande Bouhard",
        "code": 2077
      },
      "arrival": 40200,
      "departure": 40200
    },
    {
      "stop": {
        "id": "2_2115",
        "lat": 48.13735095,
        "lon": -1.62275039,
        "name": "Château de Vaux",
        "code": 2115
      },
      "arrival": 40320,
      "departure": 40320
    },
    {
      "stop": {
        "id": "2_2072",
        "lat": 48.14059929,
        "lon": -1.61647827,
        "name": "Calendrou",
        "code": 2072
      },
      "arrival": 40380,
      "departure": 40380
    },
    {
      "stop": {
        "id": "2_2073",
        "lat": 48.14510205,
        "lon": -1.60852174,
        "name": "Victoire",
        "code": 2073
      },
      "arrival": 40440,
      "departure": 40440
    },
    {
      "stop": {
        "id": "2_3310",
        "lat": 48.15630543,
        "lon": -1.59213593,
        "name": "Portail",
        "code": 3310
      },
      "arrival": 40620,
      "departure": 40620
    },
    {
      "stop": {
        "id": "2_3311",
        "lat": 48.16050547,
        "lon": -1.58565766,
        "name": "Fouillard",
        "code": 3311
      },
      "arrival": 40680,
      "departure": 40680
    },
    {
      "stop": {
        "id": "2_3312",
        "lat": 48.16302115,
        "lon": -1.57914001,
        "name": "Juteauderies",
        "code": 3312
      },
      "arrival": 40800,
      "departure": 40800
    },
    {
      "stop": {
        "id": "2_3313",
        "lat": 48.15918482,
        "lon": -1.57975012,
        "name": "Bocage",
        "code": 3313
      },
      "arrival": 40860,
      "departure": 40860
    },
    {
      "stop": {
        "id": "2_3304",
        "lat": 48.15563877,
        "lon": -1.580776,
        "name": "Anne de Bretagne",
        "code": 3304
      },
      "arrival": 40920,
      "departure": 40920
    },
    {
      "stop": {
        "id": "2_3302",
        "lat": 48.1530775,
        "lon": -1.57942222,
        "name": "Thorigné Mairie",
        "code": 3302
      },
      "arrival": 40980,
      "departure": 40980
    },
    {
      "stop": {
        "id": "2_3323",
        "lat": 48.14928986,
        "lon": -1.57715406,
        "name": "Curien",
        "code": 3323
      },
      "arrival": 41040,
      "departure": 41040
    },
    {
      "stop": {
        "id": "2_3301",
        "lat": 48.15515021,
        "lon": -1.57316318,
        "name": "Landelles",
        "code": 3301
      },
      "arrival": 41160,
      "departure": 41160
    }
  ],
  "route": {
    "id": "2_0050",
    "textColor": "ffffff",
    "color": "8ea1cf",
    "description": "Métropolitaine",
    "longName": "Rennes (République) \u003c\u003e Thorigné-Fouillard",
    "shortName": "50",
    "type": 3,
    "agencyId": "2"
  }
}