{
  "headsign": "154 | Le Rheu",
  "stopTimes": [
    {
      "stop": {
        "id": "2_1214",
        "lat": 48.10990137,
        "lon": -1.6796669,
        "name": "République",
        "code": 1214
      },
      "arrival": 62700,
      "departure": 62700
    },
    {
      "stop": {
        "id": "2_1540",
        "lat": 48.1099522,
        "lon": -1.68519001,
        "name": "Pont de Bretagne",
        "code": 1540
      },
      "arrival": 62760,
      "departure": 62760
    },
    {
      "stop": {
        "id": "2_2515",
        "lat": 48.09924523,
        "lon": -1.79065184,
        "name": "Genêts",
        "code": 2515
      },
      "arrival": 64080,
      "departure": 64080
    },
    {
      "stop": {
        "id": "2_2516",
        "lat": 48.10177606,
        "lon": -1.79491908,
        "name": "Bouleaux",
        "code": 2516
      },
      "arrival": 64200,
      "departure": 64200
    },
    {
      "stop": {
        "id": "2_2517",
        "lat": 48.0993953,
        "lon": -1.79670831,
        "name": "Brassens",
        "code": 2517
      },
      "arrival": 64260,
      "departure": 64260
    },
    {
      "stop": {
        "id": "2_2518",
        "lat": 48.09927491,
        "lon": -1.80209424,
        "name": "Champs Freslons",
        "code": 2518
      },
      "arrival": 64380,
      "departure": 64380
    },
    {
      "stop": {
        "id": "2_2519",
        "lat": 48.10084549,
        "lon": -1.80690728,
        "name": "Lycée Monod",
        "code": 2519
      },
      "arrival": 64440,
      "departure": 64440
    },
    {
      "stop": {
        "id": "2_4654",
        "lat": 48.10342337,
        "lon": -1.86944808,
        "name": "Saint-Melaine",
        "code": 4654
      },
      "arrival": 64800,
      "departure": 64800
    },
    {
      "stop": {
        "id": "2_4652",
        "lat": 48.10508252,
        "lon": -1.87271047,
        "name": "Chêne Vert",
        "code": 4652
      },
      "arrival": 64860,
      "departure": 64860
    }
  ],
  "route": {
    "id": "2_0154",
    "textColor": "CC90BA",
    "color": "FCE000",
    "description": "Express métropolitaine",
    "longName": "Rennes (République) \u003c\u003e Le Rheu / Cintré",
    "shortName": "154",
    "type": 3,
    "agencyId": "2"
  }
}