{
  "headsign": "155 | Rennes République",
  "stopTimes": [
    {
      "stop": {
        "id": "2_3851",
        "lat": 48.074582,
        "lon": -1.853723,
        "name": "Mordelles Pâtis",
        "code": 3851
      },
      "arrival": 26700,
      "departure": 26700
    },
    {
      "stop": {
        "id": "2_3852",
        "lat": 48.071956,
        "lon": -1.849829,
        "name": "Mordelles Eglise",
        "code": 3852
      },
      "arrival": 26880,
      "departure": 26880
    },
    {
      "stop": {
        "id": "2_3853",
        "lat": 48.073718,
        "lon": -1.846282,
        "name": "Mordelles Mairie",
        "code": 3853
      },
      "arrival": 26940,
      "departure": 26940
    },
    {
      "stop": {
        "id": "2_3854",
        "lat": 48.075808,
        "lon": -1.842153,
        "name": "Mordelles Lilas",
        "code": 3854
      },
      "arrival": 27000,
      "departure": 27000
    },
    {
      "stop": {
        "id": "2_3855",
        "lat": 48.077668,
        "lon": -1.837422,
        "name": "Gretay",
        "code": 3855
      },
      "arrival": 27120,
      "departure": 27120
    },
    {
      "stop": {
        "id": "2_1542",
        "lat": 48.10992,
        "lon": -1.68535,
        "name": "Pont de Bretagne",
        "code": 1542
      },
      "arrival": 28380,
      "departure": 28380
    },
    {
      "stop": {
        "id": "2_1242",
        "lat": 48.109758,
        "lon": -1.679532,
        "name": "République",
        "code": 1242
      },
      "arrival": 28440,
      "departure": 28440
    }
  ],
  "route": {
    "id": "2_0155",
    "textColor": "3D3C3F",
    "color": "FFDD00",
    "description": "Express métropolitaine",
    "longName": "Rennes (République) \u003c\u003e Mordelles",
    "shortName": "155",
    "type": 3,
    "agencyId": "2"
  }
}