{
  "headsign": "56 | Rennes Charles de Gaulle",
  "stopTimes": [
    {
      "stop": {
        "id": "2_4201",
        "lat": 48.0519556,
        "lon": -1.79762199,
        "name": "Croix Blanche",
        "code": 4201
      },
      "arrival": 25800,
      "departure": 25800
    },
    {
      "stop": {
        "id": "2_4202",
        "lat": 48.05201225,
        "lon": -1.79070221,
        "name": "Calvaire",
        "code": 4202
      },
      "arrival": 25920,
      "departure": 25920
    },
    {
      "stop": {
        "id": "2_4210",
        "lat": 48.05473857,
        "lon": -1.7901693,
        "name": "Alfred de Musset",
        "code": 4210
      },
      "arrival": 25980,
      "departure": 25980
    },
    {
      "stop": {
        "id": "2_4204",
        "lat": 48.05399506,
        "lon": -1.78384914,
        "name": "Avenir",
        "code": 4204
      },
      "arrival": 26100,
      "departure": 26100
    },
    {
      "stop": {
        "id": "2_4205",
        "lat": 48.05814164,
        "lon": -1.77631699,
        "name": "Grippay",
        "code": 4205
      },
      "arrival": 26220,
      "departure": 26220
    },
    {
      "stop": {
        "id": "2_4206",
        "lat": 48.0632306,
        "lon": -1.77243271,
        "name": "Mare Doux",
        "code": 4206
      },
      "arrival": 26280,
      "departure": 26280
    },
    {
      "stop": {
        "id": "2_2525",
        "lat": 48.07846,
        "lon": -1.77125189,
        "name": "Haut Plessis",
        "code": 2525
      },
      "arrival": 26460,
      "departure": 26460
    },
    {
      "stop": {
        "id": "2_2526",
        "lat": 48.08034971,
        "lon": -1.77444951,
        "name": "Moigné",
        "code": 2526
      },
      "arrival": 26520,
      "departure": 26520
    },
    {
      "stop": {
        "id": "2_2522",
        "lat": 48.09401721,
        "lon": -1.77398903,
        "name": "Mahomat",
        "code": 2522
      },
      "arrival": 26700,
      "departure": 26700
    },
    {
      "stop": {
        "id": "2_2509",
        "lat": 48.09614161,
        "lon": -1.76472044,
        "name": "Pont d\u0027Avoine",
        "code": 2509
      },
      "arrival": 26820,
      "departure": 26820
    },
    {
      "stop": {
        "id": "2_3752",
        "lat": 48.10474061,
        "lon": -1.73906178,
        "name": "Trois Marches",
        "code": 3752
      },
      "arrival": 27060,
      "departure": 27060
    },
    {
      "stop": {
        "id": "2_1508",
        "lat": 48.10673486,
        "lon": -1.7291459,
        "name": "Berthault",
        "code": 1508
      },
      "arrival": 27180,
      "departure": 27180
    },
    {
      "stop": {
        "id": "2_1233",
        "lat": 48.10704453,
        "lon": -1.72187845,
        "name": "Lemaistre",
        "code": 1233
      },
      "arrival": 27240,
      "departure": 27240
    },
    {
      "stop": {
        "id": "2_1235",
        "lat": 48.10892663,
        "lon": -1.70977108,
        "name": "Géniaux",
        "code": 1235
      },
      "arrival": 27420,
      "departure": 27420
    },
    {
      "stop": {
        "id": "2_1238",
        "lat": 48.10869591,
        "lon": -1.69884796,
        "name": "Guilloux Lorient",
        "code": 1238
      },
      "arrival": 27540,
      "departure": 27540
    },
    {
      "stop": {
        "id": "2_1239",
        "lat": 48.10827073,
        "lon": -1.6941653,
        "name": "Chèques Postaux",
        "code": 1239
      },
      "arrival": 27660,
      "departure": 27660
    },
    {
      "stop": {
        "id": "2_1542",
        "lat": 48.10997275,
        "lon": -1.68535336,
        "name": "Pont de Bretagne",
        "code": 1542
      },
      "arrival": 27840,
      "departure": 27840
    },
    {
      "stop": {
        "id": "2_1242",
        "lat": 48.10980333,
        "lon": -1.6795219,
        "name": "République",
        "code": 1242
      },
      "arrival": 27960,
      "departure": 27960
    },
    {
      "stop": {
        "id": "2_1088",
        "lat": 48.10744897,
        "lon": -1.67491383,
        "name": "Liberté TNB",
        "code": 1088
      },
      "arrival": 28140,
      "departure": 28140
    },
    {
      "stop": {
        "id": "2_1595",
        "lat": 48.10582657,
        "lon": -1.67734271,
        "name": "Charles de Gaulle",
        "code": 1595
      },
      "arrival": 28260,
      "departure": 28260
    }
  ],
  "route": {
    "id": "2_0056",
    "textColor": "FFFFFF",
    "color": "009A47",
    "description": "Métropolitaine",
    "longName": "Rennes (Charles de Gaulle) \u003c\u003e Chavagne",
    "shortName": "56",
    "type": 3,
    "agencyId": "2"
  }
}