{
  "headsign": "65 | Pacé / Parthenay-de-B.",
  "stopTimes": [
    {
      "stop": {
        "id": "2_1519",
        "lat": 48.12110069,
        "lon": -1.70297631,
        "name": "Villejean-Université",
        "code": 1519
      },
      "arrival": 61800,
      "departure": 61800
    },
    {
      "stop": {
        "id": "2_1518",
        "lat": 48.12062672,
        "lon": -1.71046453,
        "name": "Bourbonnais",
        "code": 1518
      },
      "arrival": 61980,
      "departure": 61980
    },
    {
      "stop": {
        "id": "2_1521",
        "lat": 48.11845974,
        "lon": -1.71376004,
        "name": "Berry",
        "code": 1521
      },
      "arrival": 62040,
      "departure": 62040
    },
    {
      "stop": {
        "id": "2_3113",
        "lat": 48.14335637,
        "lon": -1.7704102,
        "name": "Le Ponant",
        "code": 3113
      },
      "arrival": 62400,
      "departure": 62400
    },
    {
      "stop": {
        "id": "2_3114",
        "lat": 48.14572649,
        "lon": -1.77065135,
        "name": "Carré Dumaine",
        "code": 3114
      },
      "arrival": 62460,
      "departure": 62460
    },
    {
      "stop": {
        "id": "2_3115",
        "lat": 48.1479969,
        "lon": -1.7697924,
        "name": "Pacé Cimetière",
        "code": 3115
      },
      "arrival": 62520,
      "departure": 62520
    },
    {
      "stop": {
        "id": "2_3116",
        "lat": 48.15088755,
        "lon": -1.77187229,
        "name": "Duchesse Anne",
        "code": 3116
      },
      "arrival": 62580,
      "departure": 62580
    },
    {
      "stop": {
        "id": "2_3117",
        "lat": 48.15123454,
        "lon": -1.77754822,
        "name": "Renan",
        "code": 3117
      },
      "arrival": 62640,
      "departure": 62640
    },
    {
      "stop": {
        "id": "2_3141",
        "lat": 48.15471747,
        "lon": -1.78435726,
        "name": "Pont Amelin",
        "code": 3141
      },
      "arrival": 62700,
      "departure": 62700
    },
    {
      "stop": {
        "id": "2_3143",
        "lat": 48.16992161,
        "lon": -1.78800014,
        "name": "Haute Rabine",
        "code": 3143
      },
      "arrival": 62880,
      "departure": 62880
    },
    {
      "stop": {
        "id": "2_3124",
        "lat": 48.17528483,
        "lon": -1.79000995,
        "name": "Chapitre",
        "code": 3124
      },
      "arrival": 62940,
      "departure": 62940
    },
    {
      "stop": {
        "id": "2_3146",
        "lat": 48.18007473,
        "lon": -1.80190215,
        "name": "Touche Champagne",
        "code": 3146
      },
      "arrival": 63060,
      "departure": 63060
    },
    {
      "stop": {
        "id": "2_3611",
        "lat": 48.18636688,
        "lon": -1.81649511,
        "name": "Le Reuvre",
        "code": 3611
      },
      "arrival": 63180,
      "departure": 63180
    },
    {
      "stop": {
        "id": "2_3612",
        "lat": 48.18991366,
        "lon": -1.82014907,
        "name": "Placis de la Touche",
        "code": 3612
      },
      "arrival": 63240,
      "departure": 63240
    },
    {
      "stop": {
        "id": "2_3613",
        "lat": 48.19124712,
        "lon": -1.82435607,
        "name": "La Noë",
        "code": 3613
      },
      "arrival": 63240,
      "departure": 63240
    },
    {
      "stop": {
        "id": "2_3614",
        "lat": 48.19177543,
        "lon": -1.82774803,
        "name": "Clos des Tilleuls",
        "code": 3614
      },
      "arrival": 63300,
      "departure": 63300
    },
    {
      "stop": {
        "id": "2_3615",
        "lat": 48.19212549,
        "lon": -1.83142977,
        "name": "Parthenay Mairie",
        "code": 3615
      },
      "arrival": 63300,
      "departure": 63300
    },
    {
      "stop": {
        "id": "2_3617",
        "lat": 48.194415,
        "lon": -1.832078,
        "name": "Parthenay Fontaine",
        "code": 3617
      },
      "arrival": 63360,
      "departure": 63360
    }
  ],
  "route": {
    "id": "2_0065",
    "textColor": "FFFFFF",
    "color": "E16BA0",
    "description": "Métropolitaine",
    "longName": "Rennes (Villejean-Université) \u003c\u003e Pacé / Parthenay-de-Bretagne",
    "shortName": "65",
    "type": 3,
    "agencyId": "2"
  }
}