{
  "headsign": "55 | Rennes Charles de Gaulle",
  "stopTimes": [
    {
      "stop": {
        "id": "2_4401",
        "lat": 48.070078,
        "lon": -1.932395,
        "name": "Le Verger Eglise",
        "code": 4401
      },
      "arrival": 67080,
      "departure": 67080
    },
    {
      "stop": {
        "id": "2_4402",
        "lat": 48.070241,
        "lon": -1.928997,
        "name": "Bouvrais",
        "code": 4402
      },
      "arrival": 67080,
      "departure": 67080
    },
    {
      "stop": {
        "id": "2_3851",
        "lat": 48.074582,
        "lon": -1.853723,
        "name": "Mordelles Pâtis",
        "code": 3851
      },
      "arrival": 67800,
      "departure": 67800
    },
    {
      "stop": {
        "id": "2_3852",
        "lat": 48.071956,
        "lon": -1.849829,
        "name": "Mordelles Eglise",
        "code": 3852
      },
      "arrival": 67920,
      "departure": 67920
    },
    {
      "stop": {
        "id": "2_3853",
        "lat": 48.073718,
        "lon": -1.846282,
        "name": "Mordelles Mairie",
        "code": 3853
      },
      "arrival": 67980,
      "departure": 67980
    },
    {
      "stop": {
        "id": "2_3854",
        "lat": 48.075808,
        "lon": -1.842153,
        "name": "Mordelles Lilas",
        "code": 3854
      },
      "arrival": 68040,
      "departure": 68040
    },
    {
      "stop": {
        "id": "2_3855",
        "lat": 48.077668,
        "lon": -1.837422,
        "name": "Gretay",
        "code": 3855
      },
      "arrival": 68100,
      "departure": 68100
    },
    {
      "stop": {
        "id": "2_3856",
        "lat": 48.081318,
        "lon": -1.826616,
        "name": "Croix Ignon",
        "code": 3856
      },
      "arrival": 68160,
      "departure": 68160
    },
    {
      "stop": {
        "id": "2_3857",
        "lat": 48.083954,
        "lon": -1.813568,
        "name": "Grande Fontaine",
        "code": 3857
      },
      "arrival": 68280,
      "departure": 68280
    },
    {
      "stop": {
        "id": "2_3858",
        "lat": 48.08823,
        "lon": -1.798671,
        "name": "Vivier des Bois",
        "code": 3858
      },
      "arrival": 68340,
      "departure": 68340
    },
    {
      "stop": {
        "id": "2_2521",
        "lat": 48.090998,
        "lon": -1.786814,
        "name": "Gerhoui",
        "code": 2521
      },
      "arrival": 68460,
      "departure": 68460
    },
    {
      "stop": {
        "id": "2_2522",
        "lat": 48.093981,
        "lon": -1.773941,
        "name": "Mahomat",
        "code": 2522
      },
      "arrival": 68520,
      "departure": 68520
    },
    {
      "stop": {
        "id": "2_2509",
        "lat": 48.096139,
        "lon": -1.764573,
        "name": "Pont d\u0027Avoine",
        "code": 2509
      },
      "arrival": 68580,
      "departure": 68580
    },
    {
      "stop": {
        "id": "2_3752",
        "lat": 48.104704,
        "lon": -1.739009,
        "name": "Trois Marches",
        "code": 3752
      },
      "arrival": 68820,
      "departure": 68820
    },
    {
      "stop": {
        "id": "2_1508",
        "lat": 48.106693,
        "lon": -1.729127,
        "name": "Berthault",
        "code": 1508
      },
      "arrival": 68880,
      "departure": 68880
    },
    {
      "stop": {
        "id": "2_1233",
        "lat": 48.107021,
        "lon": -1.72162,
        "name": "Lemaistre",
        "code": 1233
      },
      "arrival": 68940,
      "departure": 68940
    },
    {
      "stop": {
        "id": "2_1235",
        "lat": 48.108898,
        "lon": -1.709658,
        "name": "Géniaux",
        "code": 1235
      },
      "arrival": 69120,
      "departure": 69120
    },
    {
      "stop": {
        "id": "2_1238",
        "lat": 48.108687,
        "lon": -1.698735,
        "name": "Guilloux Lorient",
        "code": 1238
      },
      "arrival": 69240,
      "departure": 69240
    },
    {
      "stop": {
        "id": "2_1239",
        "lat": 48.108256,
        "lon": -1.694158,
        "name": "Chèques Postaux",
        "code": 1239
      },
      "arrival": 69300,
      "departure": 69300
    },
    {
      "stop": {
        "id": "2_1542",
        "lat": 48.10992,
        "lon": -1.68535,
        "name": "Pont de Bretagne",
        "code": 1542
      },
      "arrival": 69480,
      "departure": 69480
    },
    {
      "stop": {
        "id": "2_1242",
        "lat": 48.109758,
        "lon": -1.679532,
        "name": "République",
        "code": 1242
      },
      "arrival": 69600,
      "departure": 69600
    },
    {
      "stop": {
        "id": "2_1088",
        "lat": 48.107377,
        "lon": -1.674981,
        "name": "Liberté TNB",
        "code": 1088
      },
      "arrival": 69780,
      "departure": 69780
    },
    {
      "stop": {
        "id": "2_1567",
        "lat": 48.106213,
        "lon": -1.677425,
        "name": "Charles de Gaulle",
        "code": 1567
      },
      "arrival": 69900,
      "departure": 69900
    }
  ],
  "route": {
    "id": "2_0055",
    "textColor": "1A171B",
    "color": "F7A800",
    "description": "Métropolitaine",
    "longName": "Rennes (Charles de Gaulle) \u003c\u003e Mordelles / Le Verger",
    "shortName": "55",
    "type": 3,
    "agencyId": "2"
  }
}