{
  "headsign": "156 | Rennes République",
  "stopTimes": [
    {
      "stop": {
        "id": "2_4201",
        "lat": 48.051925,
        "lon": -1.797682,
        "name": "Croix Blanche",
        "code": 4201
      },
      "arrival": 25200,
      "departure": 25200
    },
    {
      "stop": {
        "id": "2_4202",
        "lat": 48.051992,
        "lon": -1.79066,
        "name": "Calvaire",
        "code": 4202
      },
      "arrival": 25320,
      "departure": 25320
    },
    {
      "stop": {
        "id": "2_4210",
        "lat": 48.054885,
        "lon": -1.790003,
        "name": "Alfred de Musset",
        "code": 4210
      },
      "arrival": 25380,
      "departure": 25380
    },
    {
      "stop": {
        "id": "2_4204",
        "lat": 48.053984,
        "lon": -1.783762,
        "name": "Avenir",
        "code": 4204
      },
      "arrival": 25500,
      "departure": 25500
    },
    {
      "stop": {
        "id": "2_1242",
        "lat": 48.109758,
        "lon": -1.679532,
        "name": "République",
        "code": 1242
      },
      "arrival": 26820,
      "departure": 26820
    }
  ],
  "route": {
    "id": "2_0156",
    "textColor": "3D3C3F",
    "color": "FFDD00",
    "description": "Express métropolitaine",
    "longName": "Rennes (République) \u003c\u003e Chavagne",
    "shortName": "156",
    "type": 3,
    "agencyId": "2"
  }
}