{
  "headsign": "70 | Saint-Sulpice-la-Forêt",
  "stopTimes": [
    {
      "stop": {
        "id": "2_1606",
        "lat": 48.11563108,
        "lon": -1.67670645,
        "name": "Hoche",
        "code": 1606
      },
      "arrival": 61500,
      "departure": 61500
    },
    {
      "stop": {
        "id": "2_1027",
        "lat": 48.11723114,
        "lon": -1.67736823,
        "name": "Hôtel Dieu",
        "code": 1027
      },
      "arrival": 61560,
      "departure": 61560
    },
    {
      "stop": {
        "id": "2_1029",
        "lat": 48.11831975,
        "lon": -1.66969704,
        "name": "Fac de Droit",
        "code": 1029
      },
      "arrival": 61680,
      "departure": 61680
    },
    {
      "stop": {
        "id": "2_1031",
        "lat": 48.1220044,
        "lon": -1.66224129,
        "name": "Metz Volney",
        "code": 1031
      },
      "arrival": 61800,
      "departure": 61800
    },
    {
      "stop": {
        "id": "2_1430",
        "lat": 48.12365829,
        "lon": -1.65939845,
        "name": "Painlevé",
        "code": 1430
      },
      "arrival": 61860,
      "departure": 61860
    },
    {
      "stop": {
        "id": "2_1429",
        "lat": 48.1276684,
        "lon": -1.65098708,
        "name": "Joliot-Curie",
        "code": 1429
      },
      "arrival": 61980,
      "departure": 61980
    },
    {
      "stop": {
        "id": "2_1481",
        "lat": 48.12981846,
        "lon": -1.64241093,
        "name": "ZAC Saint-Sulpice (futur Pâtis Tatelin)",
        "code": 1481
      },
      "arrival": 62100,
      "departure": 62100
    },
    {
      "stop": {
        "id": "2_1480",
        "lat": 48.13202871,
        "lon": -1.63503782,
        "name": "Gaudinais (futur ZA Saint-Sulpice)",
        "code": 1480
      },
      "arrival": 62220,
      "departure": 62220
    },
    {
      "stop": {
        "id": "2_2077",
        "lat": 48.13420321,
        "lon": -1.62879212,
        "name": "Lande Bouhard",
        "code": 2077
      },
      "arrival": 62280,
      "departure": 62280
    },
    {
      "stop": {
        "id": "2_2426",
        "lat": 48.1641638,
        "lon": -1.62491276,
        "name": "Tihouït",
        "code": 2426
      },
      "arrival": 62520,
      "departure": 62520
    },
    {
      "stop": {
        "id": "2_2427",
        "lat": 48.17040578,
        "lon": -1.62203733,
        "name": "Champ Giron",
        "code": 2427
      },
      "arrival": 62580,
      "departure": 62580
    },
    {
      "stop": {
        "id": "2_2428",
        "lat": 48.17553811,
        "lon": -1.62286433,
        "name": "Cour Neuve",
        "code": 2428
      },
      "arrival": 62640,
      "departure": 62640
    },
    {
      "stop": {
        "id": "2_2429",
        "lat": 48.18209898,
        "lon": -1.61621525,
        "name": "Petite Hublais",
        "code": 2429
      },
      "arrival": 62700,
      "departure": 62700
    },
    {
      "stop": {
        "id": "2_3957",
        "lat": 48.19743651,
        "lon": -1.59945215,
        "name": "Oliverie",
        "code": 3957
      },
      "arrival": 62820,
      "departure": 62820
    },
    {
      "stop": {
        "id": "2_3958",
        "lat": 48.20320481,
        "lon": -1.59506102,
        "name": "Lande Saint Denis",
        "code": 3958
      },
      "arrival": 62880,
      "departure": 62880
    },
    {
      "stop": {
        "id": "2_3959",
        "lat": 48.21179703,
        "lon": -1.59059123,
        "name": "Tronchay",
        "code": 3959
      },
      "arrival": 62940,
      "departure": 62940
    },
    {
      "stop": {
        "id": "2_3954",
        "lat": 48.21479222,
        "lon": -1.58657706,
        "name": "Terrain des Sports",
        "code": 3954
      },
      "arrival": 63000,
      "departure": 63000
    },
    {
      "stop": {
        "id": "2_3961",
        "lat": 48.21773209,
        "lon": -1.58139746,
        "name": "Bourg",
        "code": 3961
      },
      "arrival": 63060,
      "departure": 63060
    },
    {
      "stop": {
        "id": "2_3962",
        "lat": 48.22315211,
        "lon": -1.57693236,
        "name": "Chesnais",
        "code": 3962
      },
      "arrival": 63180,
      "departure": 63180
    },
    {
      "stop": {
        "id": "2_3951",
        "lat": 48.22528095,
        "lon": -1.57037306,
        "name": "Cropy",
        "code": 3951
      },
      "arrival": 63240,
      "departure": 63240
    }
  ],
  "route": {
    "id": "2_0070",
    "textColor": "FFFFFF",
    "color": "EA748A",
    "description": "Métropolitaine",
    "longName": "Rennes (Hoche) \u003c\u003e Saint-Sulpice-la-Forêt",
    "shortName": "70",
    "type": 3,
    "agencyId": "2"
  }
}