{
  "headsign": "11 | ZI Ouest",
  "stopTimes": [
    {
      "stop": {
        "id": "2_1208",
        "lat": 48.10412827,
        "lon": -1.63784292,
        "name": "Saint-Saëns",
        "code": 1208
      },
      "arrival": 23760,
      "departure": 23760
    },
    {
      "stop": {
        "id": "2_1209",
        "lat": 48.10500817,
        "lon": -1.64456415,
        "name": "Pavie",
        "code": 1209
      },
      "arrival": 23820,
      "departure": 23820
    },
    {
      "stop": {
        "id": "2_1210",
        "lat": 48.10429184,
        "lon": -1.64969605,
        "name": "Cimetière de l\u0027Est",
        "code": 1210
      },
      "arrival": 23880,
      "departure": 23880
    },
    {
      "stop": {
        "id": "2_1245",
        "lat": 48.10313609,
        "lon": -1.65250463,
        "name": "Serpette",
        "code": 1245
      },
      "arrival": 23940,
      "departure": 23940
    },
    {
      "stop": {
        "id": "2_1212",
        "lat": 48.10191268,
        "lon": -1.65652502,
        "name": "Mouézy",
        "code": 1212
      },
      "arrival": 24000,
      "departure": 24000
    },
    {
      "stop": {
        "id": "2_1213",
        "lat": 48.10287126,
        "lon": -1.66143906,
        "name": "Croix Saint-Hélier",
        "code": 1213
      },
      "arrival": 24060,
      "departure": 24060
    },
    {
      "stop": {
        "id": "2_1057",
        "lat": 48.10469525,
        "lon": -1.66716416,
        "name": "Laënnec",
        "code": 1057
      },
      "arrival": 24180,
      "departure": 24180
    },
    {
      "stop": {
        "id": "2_1056",
        "lat": 48.10391821,
        "lon": -1.67317044,
        "name": "Gares",
        "code": 1056
      },
      "arrival": 24300,
      "departure": 24300
    },
    {
      "stop": {
        "id": "2_1055",
        "lat": 48.1053351,
        "lon": -1.67389232,
        "name": "Champs Libres",
        "code": 1055
      },
      "arrival": 24360,
      "departure": 24360
    },
    {
      "stop": {
        "id": "2_1054",
        "lat": 48.10755037,
        "lon": -1.67508432,
        "name": "Liberté TNB",
        "code": 1054
      },
      "arrival": 24420,
      "departure": 24420
    },
    {
      "stop": {
        "id": "2_1214",
        "lat": 48.10990137,
        "lon": -1.6796669,
        "name": "République",
        "code": 1214
      },
      "arrival": 24600,
      "departure": 24600
    },
    {
      "stop": {
        "id": "2_1051",
        "lat": 48.10985855,
        "lon": -1.68327915,
        "name": "Place de Bretagne",
        "code": 1051
      },
      "arrival": 24660,
      "departure": 24660
    },
    {
      "stop": {
        "id": "2_1216",
        "lat": 48.10918893,
        "lon": -1.69030518,
        "name": "Le Mail",
        "code": 1216
      },
      "arrival": 24780,
      "departure": 24780
    },
    {
      "stop": {
        "id": "2_1217",
        "lat": 48.10823293,
        "lon": -1.69450077,
        "name": "Chèques Postaux",
        "code": 1217
      },
      "arrival": 24840,
      "departure": 24840
    },
    {
      "stop": {
        "id": "2_1218",
        "lat": 48.10910111,
        "lon": -1.69795527,
        "name": "Guilloux Lorient",
        "code": 1218
      },
      "arrival": 24900,
      "departure": 24900
    },
    {
      "stop": {
        "id": "2_1219",
        "lat": 48.10824735,
        "lon": -1.70376126,
        "name": "Papeteries",
        "code": 1219
      },
      "arrival": 24960,
      "departure": 24960
    },
    {
      "stop": {
        "id": "2_1220",
        "lat": 48.10914313,
        "lon": -1.70638499,
        "name": "Kerviler",
        "code": 1220
      },
      "arrival": 25020,
      "departure": 25020
    },
    {
      "stop": {
        "id": "2_1221",
        "lat": 48.10886589,
        "lon": -1.71061365,
        "name": "Géniaux",
        "code": 1221
      },
      "arrival": 25020,
      "departure": 25020
    },
    {
      "stop": {
        "id": "2_1222",
        "lat": 48.10807385,
        "lon": -1.71396182,
        "name": "Stade Rennais",
        "code": 1222
      },
      "arrival": 25080,
      "departure": 25080
    },
    {
      "stop": {
        "id": "2_1223",
        "lat": 48.10622123,
        "lon": -1.72383097,
        "name": "Le Hô",
        "code": 1223
      },
      "arrival": 25200,
      "departure": 25200
    },
    {
      "stop": {
        "id": "2_1224",
        "lat": 48.10306403,
        "lon": -1.72335303,
        "name": "Robinot de St Cyr",
        "code": 1224
      },
      "arrival": 25260,
      "departure": 25260
    },
    {
      "stop": {
        "id": "2_1225",
        "lat": 48.10218214,
        "lon": -1.72623505,
        "name": "Jardin Moderne",
        "code": 1225
      },
      "arrival": 25260,
      "departure": 25260
    },
    {
      "stop": {
        "id": "2_1226",
        "lat": 48.10122369,
        "lon": -1.73169411,
        "name": "Servigné",
        "code": 1226
      },
      "arrival": 25320,
      "departure": 25320
    },
    {
      "stop": {
        "id": "2_3768",
        "lat": 48.10412708,
        "lon": -1.73593806,
        "name": "Marais",
        "code": 3768
      },
      "arrival": 25380,
      "departure": 25380
    },
    {
      "stop": {
        "id": "2_3753",
        "lat": 48.10575532,
        "lon": -1.74005862,
        "name": "Trois Marches",
        "code": 3753
      },
      "arrival": 25440,
      "departure": 25440
    },
    {
      "stop": {
        "id": "2_3751",
        "lat": 48.10740153,
        "lon": -1.73924668,
        "name": "ZI Ouest",
        "code": 3751
      },
      "arrival": 25500,
      "departure": 25500
    }
  ],
  "route": {
    "id": "2_0011",
    "textColor": "FFFFFF",
    "color": "DD84B1",
    "description": "Urbaine",
    "longName": "ZI Ouest / Stade Rennais \u003c\u003e Saint-Saëns / La Poterie",
    "shortName": "11",
    "type": 3,
    "agencyId": "2"
  }
}