{
  "headsign": "55 | Mordelles",
  "stopTimes": [
    {
      "stop": {
        "id": "2_1567",
        "lat": 48.106213,
        "lon": -1.677425,
        "name": "Charles de Gaulle",
        "code": 1567
      },
      "arrival": 37860,
      "departure": 37860
    },
    {
      "stop": {
        "id": "2_1214",
        "lat": 48.109932,
        "lon": -1.679644,
        "name": "République",
        "code": 1214
      },
      "arrival": 38100,
      "departure": 38100
    },
    {
      "stop": {
        "id": "2_1540",
        "lat": 48.109999,
        "lon": -1.685158,
        "name": "Pont de Bretagne",
        "code": 1540
      },
      "arrival": 38160,
      "departure": 38160
    },
    {
      "stop": {
        "id": "2_1217",
        "lat": 48.108252,
        "lon": -1.694511,
        "name": "Chèques Postaux",
        "code": 1217
      },
      "arrival": 38340,
      "departure": 38340
    },
    {
      "stop": {
        "id": "2_1218",
        "lat": 48.109099,
        "lon": -1.697997,
        "name": "Guilloux Lorient",
        "code": 1218
      },
      "arrival": 38400,
      "departure": 38400
    },
    {
      "stop": {
        "id": "2_1221",
        "lat": 48.108871,
        "lon": -1.710766,
        "name": "Géniaux",
        "code": 1221
      },
      "arrival": 38580,
      "departure": 38580
    },
    {
      "stop": {
        "id": "2_1539",
        "lat": 48.107253,
        "lon": -1.723135,
        "name": "Lemaistre",
        "code": 1539
      },
      "arrival": 38700,
      "departure": 38700
    },
    {
      "stop": {
        "id": "2_1506",
        "lat": 48.106477,
        "lon": -1.73157,
        "name": "Berthault",
        "code": 1506
      },
      "arrival": 38820,
      "departure": 38820
    },
    {
      "stop": {
        "id": "2_3766",
        "lat": 48.104998,
        "lon": -1.740624,
        "name": "Trois Marches",
        "code": 3766
      },
      "arrival": 38940,
      "departure": 38940
    },
    {
      "stop": {
        "id": "2_2512",
        "lat": 48.096246,
        "lon": -1.764714,
        "name": "Pont d\u0027Avoine",
        "code": 2512
      },
      "arrival": 39180,
      "departure": 39180
    },
    {
      "stop": {
        "id": "2_2523",
        "lat": 48.0941,
        "lon": -1.774098,
        "name": "Mahomat",
        "code": 2523
      },
      "arrival": 39240,
      "departure": 39240
    },
    {
      "stop": {
        "id": "2_2524",
        "lat": 48.091379,
        "lon": -1.78572,
        "name": "Gerhoui",
        "code": 2524
      },
      "arrival": 39300,
      "departure": 39300
    },
    {
      "stop": {
        "id": "2_3859",
        "lat": 48.088106,
        "lon": -1.799966,
        "name": "Vivier des Bois",
        "code": 3859
      },
      "arrival": 39420,
      "departure": 39420
    },
    {
      "stop": {
        "id": "2_3860",
        "lat": 48.083671,
        "lon": -1.81582,
        "name": "Grande Fontaine",
        "code": 3860
      },
      "arrival": 39540,
      "departure": 39540
    },
    {
      "stop": {
        "id": "2_3861",
        "lat": 48.081392,
        "lon": -1.827027,
        "name": "Croix Ignon",
        "code": 3861
      },
      "arrival": 39600,
      "departure": 39600
    },
    {
      "stop": {
        "id": "2_3862",
        "lat": 48.077836,
        "lon": -1.837377,
        "name": "Gretay",
        "code": 3862
      },
      "arrival": 39660,
      "departure": 39660
    },
    {
      "stop": {
        "id": "2_3863",
        "lat": 48.075604,
        "lon": -1.842827,
        "name": "Mordelles Lilas",
        "code": 3863
      },
      "arrival": 39720,
      "departure": 39720
    },
    {
      "stop": {
        "id": "2_3864",
        "lat": 48.073558,
        "lon": -1.846884,
        "name": "Mordelles Mairie",
        "code": 3864
      },
      "arrival": 39780,
      "departure": 39780
    },
    {
      "stop": {
        "id": "2_3865",
        "lat": 48.071883,
        "lon": -1.85024,
        "name": "Mordelles Eglise",
        "code": 3865
      },
      "arrival": 39840,
      "departure": 39840
    },
    {
      "stop": {
        "id": "2_3851",
        "lat": 48.074582,
        "lon": -1.853723,
        "name": "Mordelles Pâtis",
        "code": 3851
      },
      "arrival": 39960,
      "departure": 39960
    }
  ],
  "route": {
    "id": "2_0055",
    "textColor": "1A171B",
    "color": "F7A800",
    "description": "Métropolitaine",
    "longName": "Rennes (Charles de Gaulle) \u003c\u003e Mordelles / Le Verger",
    "shortName": "55",
    "type": 3,
    "agencyId": "2"
  }
}