{
  "headsign": "55 | Mordelles Le Verger",
  "stopTimes": [
    {
      "stop": {
        "id": "2_1567",
        "lat": 48.106213,
        "lon": -1.677425,
        "name": "Charles de Gaulle",
        "code": 1567
      },
      "arrival": 32460,
      "departure": 32460
    },
    {
      "stop": {
        "id": "2_1214",
        "lat": 48.109932,
        "lon": -1.679644,
        "name": "République",
        "code": 1214
      },
      "arrival": 32700,
      "departure": 32700
    },
    {
      "stop": {
        "id": "2_1540",
        "lat": 48.109999,
        "lon": -1.685158,
        "name": "Pont de Bretagne",
        "code": 1540
      },
      "arrival": 32820,
      "departure": 32820
    },
    {
      "stop": {
        "id": "2_1217",
        "lat": 48.108252,
        "lon": -1.694511,
        "name": "Chèques Postaux",
        "code": 1217
      },
      "arrival": 33000,
      "departure": 33000
    },
    {
      "stop": {
        "id": "2_1218",
        "lat": 48.109099,
        "lon": -1.697997,
        "name": "Guilloux Lorient",
        "code": 1218
      },
      "arrival": 33060,
      "departure": 33060
    },
    {
      "stop": {
        "id": "2_1221",
        "lat": 48.108871,
        "lon": -1.710766,
        "name": "Géniaux",
        "code": 1221
      },
      "arrival": 33240,
      "departure": 33240
    },
    {
      "stop": {
        "id": "2_1539",
        "lat": 48.107253,
        "lon": -1.723135,
        "name": "Lemaistre",
        "code": 1539
      },
      "arrival": 33360,
      "departure": 33360
    },
    {
      "stop": {
        "id": "2_1506",
        "lat": 48.106477,
        "lon": -1.73157,
        "name": "Berthault",
        "code": 1506
      },
      "arrival": 33480,
      "departure": 33480
    },
    {
      "stop": {
        "id": "2_3766",
        "lat": 48.104998,
        "lon": -1.740624,
        "name": "Trois Marches",
        "code": 3766
      },
      "arrival": 33600,
      "departure": 33600
    },
    {
      "stop": {
        "id": "2_2512",
        "lat": 48.096246,
        "lon": -1.764714,
        "name": "Pont d\u0027Avoine",
        "code": 2512
      },
      "arrival": 33840,
      "departure": 33840
    },
    {
      "stop": {
        "id": "2_2523",
        "lat": 48.0941,
        "lon": -1.774098,
        "name": "Mahomat",
        "code": 2523
      },
      "arrival": 33900,
      "departure": 33900
    },
    {
      "stop": {
        "id": "2_2524",
        "lat": 48.091379,
        "lon": -1.78572,
        "name": "Gerhoui",
        "code": 2524
      },
      "arrival": 33960,
      "departure": 33960
    },
    {
      "stop": {
        "id": "2_3859",
        "lat": 48.088106,
        "lon": -1.799966,
        "name": "Vivier des Bois",
        "code": 3859
      },
      "arrival": 34080,
      "departure": 34080
    },
    {
      "stop": {
        "id": "2_3860",
        "lat": 48.083671,
        "lon": -1.81582,
        "name": "Grande Fontaine",
        "code": 3860
      },
      "arrival": 34200,
      "departure": 34200
    },
    {
      "stop": {
        "id": "2_3861",
        "lat": 48.081392,
        "lon": -1.827027,
        "name": "Croix Ignon",
        "code": 3861
      },
      "arrival": 34260,
      "departure": 34260
    },
    {
      "stop": {
        "id": "2_3862",
        "lat": 48.077836,
        "lon": -1.837377,
        "name": "Gretay",
        "code": 3862
      },
      "arrival": 34320,
      "departure": 34320
    },
    {
      "stop": {
        "id": "2_3863",
        "lat": 48.075604,
        "lon": -1.842827,
        "name": "Mordelles Lilas",
        "code": 3863
      },
      "arrival": 34380,
      "departure": 34380
    },
    {
      "stop": {
        "id": "2_3864",
        "lat": 48.073558,
        "lon": -1.846884,
        "name": "Mordelles Mairie",
        "code": 3864
      },
      "arrival": 34440,
      "departure": 34440
    },
    {
      "stop": {
        "id": "2_3865",
        "lat": 48.071883,
        "lon": -1.85024,
        "name": "Mordelles Eglise",
        "code": 3865
      },
      "arrival": 34500,
      "departure": 34500
    },
    {
      "stop": {
        "id": "2_3869",
        "lat": 48.073924,
        "lon": -1.85372,
        "name": "Mordelles Pâtis",
        "code": 3869
      },
      "arrival": 34620,
      "departure": 34620
    },
    {
      "stop": {
        "id": "2_4403",
        "lat": 48.070056,
        "lon": -1.930273,
        "name": "Bouvrais",
        "code": 4403
      },
      "arrival": 35160,
      "departure": 35160
    },
    {
      "stop": {
        "id": "2_4408",
        "lat": 48.070227,
        "lon": -1.932356,
        "name": "Le Verger Eglise",
        "code": 4408
      },
      "arrival": 35160,
      "departure": 35160
    }
  ],
  "route": {
    "id": "2_0055",
    "textColor": "1A171B",
    "color": "F7A800",
    "description": "Métropolitaine",
    "longName": "Rennes (Charles de Gaulle) \u003c\u003e Mordelles / Le Verger",
    "shortName": "55",
    "type": 3,
    "agencyId": "2"
  }
}