{
  "headsign": "32 | Beaulieu Atalante",
  "stopTimes": [
    {
      "stop": {
        "id": "2_1441",
        "lat": 48.08608,
        "lon": -1.660855,
        "name": "Triangle",
        "code": 1441
      },
      "arrival": 32400,
      "departure": 32400
    },
    {
      "stop": {
        "id": "2_1574",
        "lat": 48.090875,
        "lon": -1.661101,
        "name": "Binquenais Le Moine",
        "code": 1574
      },
      "arrival": 32520,
      "departure": 32520
    },
    {
      "stop": {
        "id": "2_1360",
        "lat": 48.092518,
        "lon": -1.658308,
        "name": "Gide",
        "code": 1360
      },
      "arrival": 32580,
      "departure": 32580
    },
    {
      "stop": {
        "id": "2_1361",
        "lat": 48.094222,
        "lon": -1.658163,
        "name": "Langevin",
        "code": 1361
      },
      "arrival": 32640,
      "departure": 32640
    },
    {
      "stop": {
        "id": "2_1439",
        "lat": 48.098234,
        "lon": -1.655137,
        "name": "Bourgeois",
        "code": 1439
      },
      "arrival": 32760,
      "departure": 32760
    },
    {
      "stop": {
        "id": "2_1469",
        "lat": 48.099276,
        "lon": -1.652485,
        "name": "Le Dantec",
        "code": 1469
      },
      "arrival": 32820,
      "departure": 32820
    },
    {
      "stop": {
        "id": "2_1326",
        "lat": 48.101207,
        "lon": -1.649587,
        "name": "Villebois-Mareuil",
        "code": 1326
      },
      "arrival": 32880,
      "departure": 32880
    },
    {
      "stop": {
        "id": "2_1471",
        "lat": 48.103763,
        "lon": -1.649492,
        "name": "Cimetière de l\u0027Est",
        "code": 1471
      },
      "arrival": 32940,
      "departure": 32940
    },
    {
      "stop": {
        "id": "2_1472",
        "lat": 48.107199,
        "lon": -1.650946,
        "name": "Chardonnet",
        "code": 1472
      },
      "arrival": 33000,
      "departure": 33000
    },
    {
      "stop": {
        "id": "2_1473",
        "lat": 48.110761,
        "lon": -1.655608,
        "name": "Pont de Strasbourg",
        "code": 1473
      },
      "arrival": 33120,
      "departure": 33120
    },
    {
      "stop": {
        "id": "2_1433",
        "lat": 48.113595,
        "lon": -1.65655,
        "name": "Durafour Strasbourg",
        "code": 1433
      },
      "arrival": 33180,
      "departure": 33180
    },
    {
      "stop": {
        "id": "2_1524",
        "lat": 48.114621,
        "lon": -1.651278,
        "name": "Hôpital Régnier",
        "code": 1524
      },
      "arrival": 33240,
      "departure": 33240
    },
    {
      "stop": {
        "id": "2_1523",
        "lat": 48.114277,
        "lon": -1.649131,
        "name": "Moulin de Joué",
        "code": 1523
      },
      "arrival": 33240,
      "departure": 33240
    },
    {
      "stop": {
        "id": "2_1522",
        "lat": 48.113884,
        "lon": -1.642719,
        "name": "Piletière",
        "code": 1522
      },
      "arrival": 33360,
      "departure": 33360
    },
    {
      "stop": {
        "id": "2_1610",
        "lat": 48.114025,
        "lon": -1.636082,
        "name": "Tournebride",
        "code": 1610
      },
      "arrival": 33420,
      "departure": 33420
    },
    {
      "stop": {
        "id": "2_1175",
        "lat": 48.117101,
        "lon": -1.633896,
        "name": "Beaulieu Chimie",
        "code": 1175
      },
      "arrival": 33480,
      "departure": 33480
    },
    {
      "stop": {
        "id": "2_1204",
        "lat": 48.119511,
        "lon": -1.635317,
        "name": "Beaulieu INSA",
        "code": 1204
      },
      "arrival": 33540,
      "departure": 33540
    },
    {
      "stop": {
        "id": "2_1313",
        "lat": 48.121929,
        "lon": -1.638311,
        "name": "Beaulieu Restau U",
        "code": 1313
      },
      "arrival": 33600,
      "departure": 33600
    },
    {
      "stop": {
        "id": "2_1314",
        "lat": 48.125106,
        "lon": -1.632973,
        "name": "IUT",
        "code": 1314
      },
      "arrival": 33660,
      "departure": 33660
    },
    {
      "stop": {
        "id": "2_1290",
        "lat": 48.126929,
        "lon": -1.629221,
        "name": "Clos Courtel",
        "code": 1290
      },
      "arrival": 33720,
      "departure": 33720
    }
  ],
  "route": {
    "id": "2_0032",
    "textColor": "E2001A",
    "color": "FFF164",
    "description": "Inter-quartiers",
    "longName": "Triangle \u003c\u003e Beaulieu Atalante",
    "shortName": "32",
    "type": 3,
    "agencyId": "2"
  }
}