{
  "headsign": "153 | Rennes République",
  "stopTimes": [
    {
      "stop": {
        "id": "2_4267",
        "lat": 48.12259522,
        "lon": -1.86836925,
        "name": "Ville aux Archers",
        "code": 4267
      },
      "arrival": 24900,
      "departure": 24900
    },
    {
      "stop": {
        "id": "2_4264",
        "lat": 48.12308355,
        "lon": -1.86591426,
        "name": "Place de la Mairie",
        "code": 4264
      },
      "arrival": 24960,
      "departure": 24960
    },
    {
      "stop": {
        "id": "2_4252",
        "lat": 48.12305645,
        "lon": -1.86073456,
        "name": "Rochers",
        "code": 4252
      },
      "arrival": 25020,
      "departure": 25020
    },
    {
      "stop": {
        "id": "2_4322",
        "lat": 48.12547104,
        "lon": -1.81549739,
        "name": "L\u0027Hermitage Centre",
        "code": 4322
      },
      "arrival": 25380,
      "departure": 25380
    },
    {
      "stop": {
        "id": "2_4305",
        "lat": 48.12464354,
        "lon": -1.81159175,
        "name": "Village",
        "code": 4305
      },
      "arrival": 25440,
      "departure": 25440
    },
    {
      "stop": {
        "id": "2_4306",
        "lat": 48.12320965,
        "lon": -1.8063041,
        "name": "Clairefontaine",
        "code": 4306
      },
      "arrival": 25440,
      "departure": 25440
    },
    {
      "stop": {
        "id": "2_3756",
        "lat": 48.1190811,
        "lon": -1.76101447,
        "name": "Lion d\u0027Or",
        "code": 3756
      },
      "arrival": 25860,
      "departure": 25860
    },
    {
      "stop": {
        "id": "2_3757",
        "lat": 48.11889936,
        "lon": -1.75681107,
        "name": "Vezin Centre",
        "code": 3757
      },
      "arrival": 25920,
      "departure": 25920
    },
    {
      "stop": {
        "id": "2_3770",
        "lat": 48.11902243,
        "lon": -1.74936828,
        "name": "Champs Bleus",
        "code": 3770
      },
      "arrival": 25980,
      "departure": 25980
    },
    {
      "stop": {
        "id": "2_1167",
        "lat": 48.10936738,
        "lon": -1.678658,
        "name": "République Pré Botté",
        "code": 1167
      },
      "arrival": 26760,
      "departure": 26760
    }
  ],
  "route": {
    "id": "2_0153",
    "textColor": "3D3C3F",
    "color": "FFDD00",
    "description": "Express métropolitaine",
    "longName": "Rennes (République) \u003c\u003e Vezin-le-Coquet / L\u0027Hermitage / La Chapelle-Thouarault",
    "shortName": "153",
    "type": 3,
    "agencyId": "2"
  }
}