{
  "headsign": "65 | Pacé Parthenay-de-B.",
  "stopTimes": [
    {
      "stop": {
        "id": "2_1519",
        "lat": 48.121064,
        "lon": -1.702976,
        "name": "Villejean-Université",
        "code": 1519
      },
      "arrival": 41400,
      "departure": 41400
    },
    {
      "stop": {
        "id": "2_1518",
        "lat": 48.120593,
        "lon": -1.710572,
        "name": "Bourbonnais",
        "code": 1518
      },
      "arrival": 41580,
      "departure": 41580
    },
    {
      "stop": {
        "id": "2_1521",
        "lat": 48.118462,
        "lon": -1.713825,
        "name": "Berry",
        "code": 1521
      },
      "arrival": 41640,
      "departure": 41640
    },
    {
      "stop": {
        "id": "2_3113",
        "lat": 48.143401,
        "lon": -1.770386,
        "name": "Le Ponant",
        "code": 3113
      },
      "arrival": 42000,
      "departure": 42000
    },
    {
      "stop": {
        "id": "2_3114",
        "lat": 48.146022,
        "lon": -1.770492,
        "name": "Carré Dumaine",
        "code": 3114
      },
      "arrival": 42060,
      "departure": 42060
    },
    {
      "stop": {
        "id": "2_3115",
        "lat": 48.148099,
        "lon": -1.769731,
        "name": "Pacé Cimetière",
        "code": 3115
      },
      "arrival": 42120,
      "departure": 42120
    },
    {
      "stop": {
        "id": "2_3116",
        "lat": 48.150865,
        "lon": -1.772035,
        "name": "Duchesse Anne",
        "code": 3116
      },
      "arrival": 42180,
      "departure": 42180
    },
    {
      "stop": {
        "id": "2_3117",
        "lat": 48.151275,
        "lon": -1.777656,
        "name": "Renan",
        "code": 3117
      },
      "arrival": 42240,
      "departure": 42240
    },
    {
      "stop": {
        "id": "2_3141",
        "lat": 48.154821,
        "lon": -1.784386,
        "name": "Pont Amelin",
        "code": 3141
      },
      "arrival": 42360,
      "departure": 42360
    },
    {
      "stop": {
        "id": "2_3143",
        "lat": 48.169948,
        "lon": -1.787892,
        "name": "Haute Rabine",
        "code": 3143
      },
      "arrival": 42540,
      "departure": 42540
    },
    {
      "stop": {
        "id": "2_3124",
        "lat": 48.175366,
        "lon": -1.789981,
        "name": "Chapitre",
        "code": 3124
      },
      "arrival": 42600,
      "departure": 42600
    },
    {
      "stop": {
        "id": "2_3146",
        "lat": 48.18012,
        "lon": -1.801817,
        "name": "Touche Champagne",
        "code": 3146
      },
      "arrival": 42720,
      "departure": 42720
    },
    {
      "stop": {
        "id": "2_3611",
        "lat": 48.186413,
        "lon": -1.816451,
        "name": "Le Reuvre",
        "code": 3611
      },
      "arrival": 42840,
      "departure": 42840
    },
    {
      "stop": {
        "id": "2_3612",
        "lat": 48.189949,
        "lon": -1.820176,
        "name": "Placis de la Touche",
        "code": 3612
      },
      "arrival": 42900,
      "departure": 42900
    },
    {
      "stop": {
        "id": "2_3613",
        "lat": 48.191297,
        "lon": -1.8243,
        "name": "La Noë",
        "code": 3613
      },
      "arrival": 42900,
      "departure": 42900
    },
    {
      "stop": {
        "id": "2_3614",
        "lat": 48.191822,
        "lon": -1.82784,
        "name": "Clos des Tilleuls",
        "code": 3614
      },
      "arrival": 42960,
      "departure": 42960
    },
    {
      "stop": {
        "id": "2_3615",
        "lat": 48.192104,
        "lon": -1.831432,
        "name": "Parthenay Mairie",
        "code": 3615
      },
      "arrival": 42960,
      "departure": 42960
    },
    {
      "stop": {
        "id": "2_3617",
        "lat": 48.193762,
        "lon": -1.832214,
        "name": "Parthenay Fontaine",
        "code": 3617
      },
      "arrival": 43020,
      "departure": 43020
    }
  ],
  "route": {
    "id": "2_0065",
    "textColor": "FFFFFF",
    "color": "E36DA3",
    "description": "Métropolitaine",
    "longName": "Rennes (Villejean-Université) \u003c\u003e Pacé / Parthenay-de-Bretagne",
    "shortName": "65",
    "type": 3,
    "agencyId": "2"
  }
}