{
  "headsign": "6 | Saint-Jacques Morinais",
  "stopTimes": [
    {
      "stop": {
        "id": "2_2088",
        "lat": 48.12467563,
        "lon": -1.59065314,
        "name": "Base de Loisirs",
        "code": 2088
      },
      "arrival": 45780,
      "departure": 45780
    },
    {
      "stop": {
        "id": "2_2005",
        "lat": 48.12449724,
        "lon": -1.59420301,
        "name": "Grand Domaine",
        "code": 2005
      },
      "arrival": 45840,
      "departure": 45840
    },
    {
      "stop": {
        "id": "2_2006",
        "lat": 48.12522678,
        "lon": -1.59652827,
        "name": "Petits Champs",
        "code": 2006
      },
      "arrival": 45840,
      "departure": 45840
    },
    {
      "stop": {
        "id": "2_2050",
        "lat": 48.12011703,
        "lon": -1.59927397,
        "name": "Cesson Collège",
        "code": 2050
      },
      "arrival": 45960,
      "departure": 45960
    },
    {
      "stop": {
        "id": "2_2007",
        "lat": 48.12311351,
        "lon": -1.6005581,
        "name": "Bourgchevreuil",
        "code": 2007
      },
      "arrival": 46140,
      "departure": 46140
    },
    {
      "stop": {
        "id": "2_2008",
        "lat": 48.12358605,
        "lon": -1.60438229,
        "name": "La Coulée",
        "code": 2008
      },
      "arrival": 46200,
      "departure": 46200
    },
    {
      "stop": {
        "id": "2_2009",
        "lat": 48.12352951,
        "lon": -1.60813346,
        "name": "Fontenelle",
        "code": 2009
      },
      "arrival": 46260,
      "departure": 46260
    },
    {
      "stop": {
        "id": "2_2010",
        "lat": 48.12279943,
        "lon": -1.61089689,
        "name": "Mare Pavée",
        "code": 2010
      },
      "arrival": 46320,
      "departure": 46320
    },
    {
      "stop": {
        "id": "2_2011",
        "lat": 48.12112468,
        "lon": -1.60992947,
        "name": "Maison d\u0027Accueil",
        "code": 2011
      },
      "arrival": 46380,
      "departure": 46380
    },
    {
      "stop": {
        "id": "2_2012",
        "lat": 48.11844317,
        "lon": -1.60843003,
        "name": "Muguet",
        "code": 2012
      },
      "arrival": 46440,
      "departure": 46440
    },
    {
      "stop": {
        "id": "2_2013",
        "lat": 48.11643917,
        "lon": -1.60735329,
        "name": "Vilaine",
        "code": 2013
      },
      "arrival": 46500,
      "departure": 46500
    },
    {
      "stop": {
        "id": "2_2014",
        "lat": 48.11468124,
        "lon": -1.60966321,
        "name": "Place Sévigné",
        "code": 2014
      },
      "arrival": 46560,
      "departure": 46560
    },
    {
      "stop": {
        "id": "2_2015",
        "lat": 48.11422249,
        "lon": -1.616313,
        "name": "Hublais",
        "code": 2015
      },
      "arrival": 46620,
      "departure": 46620
    },
    {
      "stop": {
        "id": "2_2016",
        "lat": 48.11418172,
        "lon": -1.62194938,
        "name": "Taillis",
        "code": 2016
      },
      "arrival": 46740,
      "departure": 46740
    },
    {
      "stop": {
        "id": "2_2017",
        "lat": 48.11408545,
        "lon": -1.63036724,
        "name": "Champs Péans",
        "code": 2017
      },
      "arrival": 46860,
      "departure": 46860
    },
    {
      "stop": {
        "id": "2_1160",
        "lat": 48.11406412,
        "lon": -1.63761839,
        "name": "Tournebride",
        "code": 1160
      },
      "arrival": 46920,
      "departure": 46920
    },
    {
      "stop": {
        "id": "2_1603",
        "lat": 48.11319466,
        "lon": -1.64121462,
        "name": "Préales",
        "code": 1603
      },
      "arrival": 46980,
      "departure": 46980
    },
    {
      "stop": {
        "id": "2_1161",
        "lat": 48.11219183,
        "lon": -1.64423633,
        "name": "Plaine de Baud",
        "code": 1161
      },
      "arrival": 47040,
      "departure": 47040
    },
    {
      "stop": {
        "id": "2_1162",
        "lat": 48.1103356,
        "lon": -1.6559754,
        "name": "Pont de Strasbourg",
        "code": 1162
      },
      "arrival": 47160,
      "departure": 47160
    },
    {
      "stop": {
        "id": "2_1163",
        "lat": 48.1101066,
        "lon": -1.66054614,
        "name": "Robidou",
        "code": 1163
      },
      "arrival": 47220,
      "departure": 47220
    },
    {
      "stop": {
        "id": "2_1164",
        "lat": 48.11009515,
        "lon": -1.66397755,
        "name": "Pont de Châteaudun",
        "code": 1164
      },
      "arrival": 47280,
      "departure": 47280
    },
    {
      "stop": {
        "id": "2_1165",
        "lat": 48.11006169,
        "lon": -1.67017835,
        "name": "Paul Bert",
        "code": 1165
      },
      "arrival": 47340,
      "departure": 47340
    },
    {
      "stop": {
        "id": "2_1166",
        "lat": 48.10988328,
        "lon": -1.67512929,
        "name": "Musée Beaux Arts",
        "code": 1166
      },
      "arrival": 47460,
      "departure": 47460
    },
    {
      "stop": {
        "id": "2_1052",
        "lat": 48.10989306,
        "lon": -1.67887428,
        "name": "République",
        "code": 1052
      },
      "arrival": 47580,
      "departure": 47580
    },
    {
      "stop": {
        "id": "2_1051",
        "lat": 48.10985855,
        "lon": -1.68327915,
        "name": "Place de Bretagne",
        "code": 1051
      },
      "arrival": 47640,
      "departure": 47640
    },
    {
      "stop": {
        "id": "2_1402",
        "lat": 48.10558068,
        "lon": -1.68517914,
        "name": "Cité Judiciaire",
        "code": 1402
      },
      "arrival": 47880,
      "departure": 47880
    },
    {
      "stop": {
        "id": "2_1611",
        "lat": 48.10546246,
        "lon": -1.6884217,
        "name": "Inkermann",
        "code": 1611
      },
      "arrival": 47940,
      "departure": 47940
    },
    {
      "stop": {
        "id": "2_1613",
        "lat": 48.10301225,
        "lon": -1.68880827,
        "name": "Saint-Conwoïon",
        "code": 1613
      },
      "arrival": 48000,
      "departure": 48000
    },
    {
      "stop": {
        "id": "2_1591",
        "lat": 48.09890967,
        "lon": -1.69367982,
        "name": "Jules Verne",
        "code": 1591
      },
      "arrival": 48120,
      "departure": 48120
    },
    {
      "stop": {
        "id": "2_1571",
        "lat": 48.09828989,
        "lon": -1.69938898,
        "name": "Cœur de Courrouze",
        "code": 1571
      },
      "arrival": 48180,
      "departure": 48180
    },
    {
      "stop": {
        "id": "2_1589",
        "lat": 48.0979352,
        "lon": -1.70398528,
        "name": "Jules Maniez",
        "code": 1589
      },
      "arrival": 48240,
      "departure": 48240
    },
    {
      "stop": {
        "id": "2_2260",
        "lat": 48.09343267,
        "lon": -1.70457002,
        "name": "Dominos",
        "code": 2260
      },
      "arrival": 48360,
      "departure": 48360
    },
    {
      "stop": {
        "id": "2_2211",
        "lat": 48.08727159,
        "lon": -1.70734318,
        "name": "Gaité",
        "code": 2211
      },
      "arrival": 48540,
      "departure": 48540
    },
    {
      "stop": {
        "id": "2_2212",
        "lat": 48.0844398,
        "lon": -1.70917627,
        "name": "Blosne",
        "code": 2212
      },
      "arrival": 48600,
      "departure": 48600
    },
    {
      "stop": {
        "id": "2_2264",
        "lat": 48.08278771,
        "lon": -1.71306508,
        "name": "Jean Jaurès",
        "code": 2264
      },
      "arrival": 48660,
      "departure": 48660
    },
    {
      "stop": {
        "id": "2_2213",
        "lat": 48.0824956,
        "lon": -1.71540682,
        "name": "Jean Marin",
        "code": 2213
      },
      "arrival": 48660,
      "departure": 48660
    },
    {
      "stop": {
        "id": "2_2203",
        "lat": 48.07942003,
        "lon": -1.71567051,
        "name": "Médiathèque",
        "code": 2203
      },
      "arrival": 48720,
      "departure": 48720
    },
    {
      "stop": {
        "id": "2_2215",
        "lat": 48.0769585,
        "lon": -1.71590826,
        "name": "Collège Jean Moulin",
        "code": 2215
      },
      "arrival": 48780,
      "departure": 48780
    },
    {
      "stop": {
        "id": "2_2201",
        "lat": 48.07546225,
        "lon": -1.71635318,
        "name": "Morinais",
        "code": 2201
      },
      "arrival": 48840,
      "departure": 48840
    }
  ],
  "route": {
    "id": "2_0006",
    "textColor": "ffffff",
    "color": "66bfd3",
    "description": "Majeure",
    "longName": "Cesson-Sévigné (Base de Loisirs) \u003c\u003e Saint-Jacques-de-la-Lande (Morinais)",
    "shortName": "6",
    "type": 3,
    "agencyId": "2"
  }
}