{
  "headsign": "55 | Rennes Charles de Gaulle",
  "stopTimes": [
    {
      "stop": {
        "id": "2_4401",
        "lat": 48.06992252,
        "lon": -1.93239808,
        "name": "Le Verger Eglise",
        "code": 4401
      },
      "arrival": 26580,
      "departure": 26580
    },
    {
      "stop": {
        "id": "2_4402",
        "lat": 48.07025095,
        "lon": -1.92907905,
        "name": "Bouvrais",
        "code": 4402
      },
      "arrival": 26580,
      "departure": 26580
    },
    {
      "stop": {
        "id": "2_3851",
        "lat": 48.07460255,
        "lon": -1.85367611,
        "name": "Mordelles Pâtis",
        "code": 3851
      },
      "arrival": 27300,
      "departure": 27300
    },
    {
      "stop": {
        "id": "2_3852",
        "lat": 48.07194171,
        "lon": -1.84998802,
        "name": "Mordelles Eglise",
        "code": 3852
      },
      "arrival": 27480,
      "departure": 27480
    },
    {
      "stop": {
        "id": "2_3853",
        "lat": 48.07371137,
        "lon": -1.84642407,
        "name": "Mordelles Mairie",
        "code": 3853
      },
      "arrival": 27540,
      "departure": 27540
    },
    {
      "stop": {
        "id": "2_3854",
        "lat": 48.07584083,
        "lon": -1.8422202,
        "name": "Mordelles Lilas",
        "code": 3854
      },
      "arrival": 27600,
      "departure": 27600
    },
    {
      "stop": {
        "id": "2_3855",
        "lat": 48.07771885,
        "lon": -1.83754903,
        "name": "Gretay",
        "code": 3855
      },
      "arrival": 27720,
      "departure": 27720
    },
    {
      "stop": {
        "id": "2_3856",
        "lat": 48.08132274,
        "lon": -1.82684642,
        "name": "Croix Ignon",
        "code": 3856
      },
      "arrival": 27780,
      "departure": 27780
    },
    {
      "stop": {
        "id": "2_3857",
        "lat": 48.08396909,
        "lon": -1.81374094,
        "name": "Grande Fontaine",
        "code": 3857
      },
      "arrival": 27900,
      "departure": 27900
    },
    {
      "stop": {
        "id": "2_3858",
        "lat": 48.08822018,
        "lon": -1.79882901,
        "name": "Vivier des Bois",
        "code": 3858
      },
      "arrival": 28020,
      "departure": 28020
    },
    {
      "stop": {
        "id": "2_2521",
        "lat": 48.09102311,
        "lon": -1.78689214,
        "name": "Gerhoui",
        "code": 2521
      },
      "arrival": 28080,
      "departure": 28080
    },
    {
      "stop": {
        "id": "2_2522",
        "lat": 48.09401721,
        "lon": -1.77398903,
        "name": "Mahomat",
        "code": 2522
      },
      "arrival": 28200,
      "departure": 28200
    },
    {
      "stop": {
        "id": "2_2509",
        "lat": 48.0961416,
        "lon": -1.76472044,
        "name": "Pont d\u0027Avoine",
        "code": 2509
      },
      "arrival": 28320,
      "departure": 28320
    },
    {
      "stop": {
        "id": "2_3752",
        "lat": 48.10474061,
        "lon": -1.73906178,
        "name": "Trois Marches",
        "code": 3752
      },
      "arrival": 28620,
      "departure": 28620
    },
    {
      "stop": {
        "id": "2_1508",
        "lat": 48.10673486,
        "lon": -1.7291459,
        "name": "Berthault",
        "code": 1508
      },
      "arrival": 28740,
      "departure": 28740
    },
    {
      "stop": {
        "id": "2_1233",
        "lat": 48.10704452,
        "lon": -1.72187845,
        "name": "Lemaistre",
        "code": 1233
      },
      "arrival": 28800,
      "departure": 28800
    },
    {
      "stop": {
        "id": "2_1235",
        "lat": 48.10892663,
        "lon": -1.70977108,
        "name": "Géniaux",
        "code": 1235
      },
      "arrival": 28980,
      "departure": 28980
    },
    {
      "stop": {
        "id": "2_1238",
        "lat": 48.1086959,
        "lon": -1.69884796,
        "name": "Guilloux Lorient",
        "code": 1238
      },
      "arrival": 29100,
      "departure": 29100
    },
    {
      "stop": {
        "id": "2_1239",
        "lat": 48.10814248,
        "lon": -1.6948685,
        "name": "Chèques Postaux",
        "code": 1239
      },
      "arrival": 29160,
      "departure": 29160
    },
    {
      "stop": {
        "id": "2_1542",
        "lat": 48.10997275,
        "lon": -1.68535336,
        "name": "Pont de Bretagne",
        "code": 1542
      },
      "arrival": 29340,
      "departure": 29340
    },
    {
      "stop": {
        "id": "2_1242",
        "lat": 48.10980333,
        "lon": -1.6795219,
        "name": "République",
        "code": 1242
      },
      "arrival": 29460,
      "departure": 29460
    },
    {
      "stop": {
        "id": "2_1088",
        "lat": 48.10744897,
        "lon": -1.67491383,
        "name": "Liberté TNB",
        "code": 1088
      },
      "arrival": 29640,
      "departure": 29640
    },
    {
      "stop": {
        "id": "2_1567",
        "lat": 48.1062288,
        "lon": -1.67750174,
        "name": "Charles de Gaulle",
        "code": 1567
      },
      "arrival": 29760,
      "departure": 29760
    }
  ],
  "route": {
    "id": "2_0055",
    "textColor": "201d21",
    "color": "f2ab00",
    "description": "Métropolitaine",
    "longName": "Rennes (Charles de Gaulle) \u003c\u003e Mordelles / Le Verger",
    "shortName": "55",
    "type": 3,
    "agencyId": "2"
  }
}