{
  "headsign": "52 | Montgermont La Chapelle",
  "stopTimes": [
    {
      "stop": {
        "id": "2_3732",
        "lat": 48.14933,
        "lon": -1.839024,
        "name": "Ile des Bois",
        "code": 3732
      },
      "arrival": 42300,
      "departure": 42300
    },
    {
      "stop": {
        "id": "2_3717",
        "lat": 48.153985,
        "lon": -1.8376,
        "name": "Maison Neuve",
        "code": 3717
      },
      "arrival": 42360,
      "departure": 42360
    },
    {
      "stop": {
        "id": "2_3715",
        "lat": 48.153745,
        "lon": -1.834034,
        "name": "Clos des Cerisiers",
        "code": 3715
      },
      "arrival": 42420,
      "departure": 42420
    },
    {
      "stop": {
        "id": "2_3705",
        "lat": 48.15298,
        "lon": -1.829806,
        "name": "Saint-Gilles Centre",
        "code": 3705
      },
      "arrival": 42420,
      "departure": 42420
    },
    {
      "stop": {
        "id": "2_3707",
        "lat": 48.150683,
        "lon": -1.825279,
        "name": "Pont aux Moines",
        "code": 3707
      },
      "arrival": 42540,
      "departure": 42540
    },
    {
      "stop": {
        "id": "2_3708",
        "lat": 48.152801,
        "lon": -1.820678,
        "name": "Vigne",
        "code": 3708
      },
      "arrival": 42600,
      "departure": 42600
    },
    {
      "stop": {
        "id": "2_3709",
        "lat": 48.152952,
        "lon": -1.809229,
        "name": "Fouaye",
        "code": 3709
      },
      "arrival": 42720,
      "departure": 42720
    },
    {
      "stop": {
        "id": "2_3102",
        "lat": 48.151381,
        "lon": -1.792259,
        "name": "Pie Neuve",
        "code": 3102
      },
      "arrival": 42840,
      "departure": 42840
    },
    {
      "stop": {
        "id": "2_3103",
        "lat": 48.149232,
        "lon": -1.788989,
        "name": "Docteur Léon",
        "code": 3103
      },
      "arrival": 42900,
      "departure": 42900
    },
    {
      "stop": {
        "id": "2_3104",
        "lat": 48.148463,
        "lon": -1.784791,
        "name": "Touche Milon",
        "code": 3104
      },
      "arrival": 42960,
      "departure": 42960
    },
    {
      "stop": {
        "id": "2_3119",
        "lat": 48.147515,
        "lon": -1.781103,
        "name": "Pinault",
        "code": 3119
      },
      "arrival": 43020,
      "departure": 43020
    },
    {
      "stop": {
        "id": "2_3134",
        "lat": 48.141622,
        "lon": -1.770457,
        "name": "Nominoë",
        "code": 3134
      },
      "arrival": 43140,
      "departure": 43140
    },
    {
      "stop": {
        "id": "2_1517",
        "lat": 48.118565,
        "lon": -1.713574,
        "name": "Berry",
        "code": 1517
      },
      "arrival": 43560,
      "departure": 43560
    },
    {
      "stop": {
        "id": "2_1520",
        "lat": 48.120473,
        "lon": -1.709574,
        "name": "Bourbonnais",
        "code": 1520
      },
      "arrival": 43620,
      "departure": 43620
    },
    {
      "stop": {
        "id": "2_1494",
        "lat": 48.121217,
        "lon": -1.70297,
        "name": "Villejean-Université",
        "code": 1494
      },
      "arrival": 43800,
      "departure": 43800
    },
    {
      "stop": {
        "id": "2_1495",
        "lat": 48.126607,
        "lon": -1.693012,
        "name": "Lycée Basch",
        "code": 1495
      },
      "arrival": 44040,
      "departure": 44040
    },
    {
      "stop": {
        "id": "2_1537",
        "lat": 48.131596,
        "lon": -1.69166,
        "name": "Léonard",
        "code": 1537
      },
      "arrival": 44160,
      "departure": 44160
    },
    {
      "stop": {
        "id": "2_2830",
        "lat": 48.134376,
        "lon": -1.694471,
        "name": "Grand Quartier",
        "code": 2830
      },
      "arrival": 44220,
      "departure": 44220
    },
    {
      "stop": {
        "id": "2_3508",
        "lat": 48.148382,
        "lon": -1.703613,
        "name": "Vizeule",
        "code": 3508
      },
      "arrival": 44340,
      "departure": 44340
    },
    {
      "stop": {
        "id": "2_3509",
        "lat": 48.153005,
        "lon": -1.708878,
        "name": "Métrie",
        "code": 3509
      },
      "arrival": 44460,
      "departure": 44460
    },
    {
      "stop": {
        "id": "2_3510",
        "lat": 48.155558,
        "lon": -1.710743,
        "name": "Belle Epine",
        "code": 3510
      },
      "arrival": 44460,
      "departure": 44460
    },
    {
      "stop": {
        "id": "2_3511",
        "lat": 48.157373,
        "lon": -1.714588,
        "name": "Courtines",
        "code": 3511
      },
      "arrival": 44520,
      "departure": 44520
    },
    {
      "stop": {
        "id": "2_3512",
        "lat": 48.155644,
        "lon": -1.716708,
        "name": "Montgermont Mairie",
        "code": 3512
      },
      "arrival": 44580,
      "departure": 44580
    },
    {
      "stop": {
        "id": "2_3513",
        "lat": 48.155723,
        "lon": -1.720748,
        "name": "Pierre Texier",
        "code": 3513
      },
      "arrival": 44640,
      "departure": 44640
    },
    {
      "stop": {
        "id": "2_3501",
        "lat": 48.157089,
        "lon": -1.723308,
        "name": "Fougerolle",
        "code": 3501
      },
      "arrival": 44700,
      "departure": 44700
    },
    {
      "stop": {
        "id": "2_3515",
        "lat": 48.162759,
        "lon": -1.730576,
        "name": "Silandière",
        "code": 3515
      },
      "arrival": 44760,
      "departure": 44760
    },
    {
      "stop": {
        "id": "2_4057",
        "lat": 48.170401,
        "lon": -1.736205,
        "name": "Sénestrais",
        "code": 4057
      },
      "arrival": 44880,
      "departure": 44880
    },
    {
      "stop": {
        "id": "2_4058",
        "lat": 48.173991,
        "lon": -1.735178,
        "name": "Viennais",
        "code": 4058
      },
      "arrival": 44940,
      "departure": 44940
    },
    {
      "stop": {
        "id": "2_4059",
        "lat": 48.17669,
        "lon": -1.732757,
        "name": "Mairie",
        "code": 4059
      },
      "arrival": 44940,
      "departure": 44940
    },
    {
      "stop": {
        "id": "2_4060",
        "lat": 48.179388,
        "lon": -1.729057,
        "name": "Métairie",
        "code": 4060
      },
      "arrival": 45000,
      "departure": 45000
    },
    {
      "stop": {
        "id": "2_4069",
        "lat": 48.183129,
        "lon": -1.726001,
        "name": "Besneraie",
        "code": 4069
      },
      "arrival": 45120,
      "departure": 45120
    }
  ],
  "route": {
    "id": "2_0052",
    "textColor": "FFFFFF",
    "color": "007C77",
    "description": "Métropolitaine",
    "longName": "Saint-Gilles / Pacé \u003c\u003e Rennes (Villejean-Université) \u003c\u003e Montgermont / La Chapelle-des-Fougeretz",
    "shortName": "52",
    "type": 3,
    "agencyId": "2"
  }
}