{
  "headsign": "72 | Chartres Pont-Péan",
  "stopTimes": [
    {
      "stop": {
        "id": "2_1510",
        "lat": 48.08777947,
        "lon": -1.67446532,
        "name": "Henri Fréville",
        "code": 1510
      },
      "arrival": 46500,
      "departure": 46500
    },
    {
      "stop": {
        "id": "2_1449",
        "lat": 48.08682379,
        "lon": -1.6830757,
        "name": "Norvège",
        "code": 1449
      },
      "arrival": 46680,
      "departure": 46680
    },
    {
      "stop": {
        "id": "2_1450",
        "lat": 48.08665851,
        "lon": -1.68837187,
        "name": "Coubertin",
        "code": 1450
      },
      "arrival": 46740,
      "departure": 46740
    },
    {
      "stop": {
        "id": "2_1267",
        "lat": 48.0857359,
        "lon": -1.69390359,
        "name": "Félix Eboué",
        "code": 1267
      },
      "arrival": 46860,
      "departure": 46860
    },
    {
      "stop": {
        "id": "2_2262",
        "lat": 48.06879203,
        "lon": -1.69785635,
        "name": "Vallon",
        "code": 2262
      },
      "arrival": 47040,
      "departure": 47040
    },
    {
      "stop": {
        "id": "2_2704",
        "lat": 48.0593778,
        "lon": -1.70119071,
        "name": "Janais",
        "code": 2704
      },
      "arrival": 47160,
      "departure": 47160
    },
    {
      "stop": {
        "id": "2_2907",
        "lat": 48.04566035,
        "lon": -1.71043502,
        "name": "Croix aux Potiers",
        "code": 2907
      },
      "arrival": 47340,
      "departure": 47340
    },
    {
      "stop": {
        "id": "2_2918",
        "lat": 48.04201304,
        "lon": -1.71105813,
        "name": "Callouët",
        "code": 2918
      },
      "arrival": 47400,
      "departure": 47400
    },
    {
      "stop": {
        "id": "2_2919",
        "lat": 48.04229207,
        "lon": -1.70746679,
        "name": "Chartres Centre",
        "code": 2919
      },
      "arrival": 47460,
      "departure": 47460
    },
    {
      "stop": {
        "id": "2_2920",
        "lat": 48.04158293,
        "lon": -1.70288204,
        "name": "Auditoire",
        "code": 2920
      },
      "arrival": 47520,
      "departure": 47520
    },
    {
      "stop": {
        "id": "2_2921",
        "lat": 48.04125573,
        "lon": -1.69776297,
        "name": "Collège Pôle Sud",
        "code": 2921
      },
      "arrival": 47580,
      "departure": 47580
    },
    {
      "stop": {
        "id": "2_2922",
        "lat": 48.03705289,
        "lon": -1.69713431,
        "name": "Vieux Bourg",
        "code": 2922
      },
      "arrival": 47700,
      "departure": 47700
    },
    {
      "stop": {
        "id": "2_2923",
        "lat": 48.03470268,
        "lon": -1.69977512,
        "name": "Cornouaille",
        "code": 2923
      },
      "arrival": 47760,
      "departure": 47760
    },
    {
      "stop": {
        "id": "2_2924",
        "lat": 48.03549509,
        "lon": -1.70610918,
        "name": "Argoat",
        "code": 2924
      },
      "arrival": 47820,
      "departure": 47820
    },
    {
      "stop": {
        "id": "2_2927",
        "lat": 48.03317188,
        "lon": -1.70739442,
        "name": "Parc de Loisirs",
        "code": 2927
      },
      "arrival": 47880,
      "departure": 47880
    },
    {
      "stop": {
        "id": "2_2930",
        "lat": 48.03121562,
        "lon": -1.70919607,
        "name": "Constant Mérel",
        "code": 2930
      },
      "arrival": 47940,
      "departure": 47940
    },
    {
      "stop": {
        "id": "2_3909",
        "lat": 48.01988822,
        "lon": -1.70705918,
        "name": "Renaissance",
        "code": 3909
      },
      "arrival": 48060,
      "departure": 48060
    },
    {
      "stop": {
        "id": "2_3910",
        "lat": 48.0169427,
        "lon": -1.7051982,
        "name": "Fontaine Blanche",
        "code": 3910
      },
      "arrival": 48120,
      "departure": 48120
    },
    {
      "stop": {
        "id": "2_3911",
        "lat": 48.01367131,
        "lon": -1.70764824,
        "name": "Rivaudière",
        "code": 3911
      },
      "arrival": 48180,
      "departure": 48180
    },
    {
      "stop": {
        "id": "2_3912",
        "lat": 48.01082475,
        "lon": -1.706468,
        "name": "Pont Péan Mairie",
        "code": 3912
      },
      "arrival": 48240,
      "departure": 48240
    },
    {
      "stop": {
        "id": "2_3904",
        "lat": 48.01295576,
        "lon": -1.70300304,
        "name": "Chemin Vert",
        "code": 3904
      },
      "arrival": 48240,
      "departure": 48240
    },
    {
      "stop": {
        "id": "2_3914",
        "lat": 48.01038435,
        "lon": -1.70102798,
        "name": "Mouton Blanc",
        "code": 3914
      },
      "arrival": 48300,
      "departure": 48300
    },
    {
      "stop": {
        "id": "2_3915",
        "lat": 48.00553207,
        "lon": -1.69815207,
        "name": "Caliorne",
        "code": 3915
      },
      "arrival": 48360,
      "departure": 48360
    },
    {
      "stop": {
        "id": "2_3901",
        "lat": 47.99990894,
        "lon": -1.69696794,
        "name": "Bois Esnault",
        "code": 3901
      },
      "arrival": 48420,
      "departure": 48420
    }
  ],
  "route": {
    "id": "2_0072",
    "textColor": "FFFFFF",
    "color": "0C3C91",
    "description": "Métropolitaine",
    "longName": "Rennes (Henri Fréville) \u003c\u003e Chartres-de-Bretagne / Pont-Péan / Laillé",
    "shortName": "72",
    "type": 3,
    "agencyId": "2"
  }
}