{
  "headsign": "72 | Chartres Pont-Péan Laillé",
  "stopTimes": [
    {
      "stop": {
        "id": "2_1510",
        "lat": 48.08777947,
        "lon": -1.67446532,
        "name": "Henri Fréville",
        "code": 1510
      },
      "arrival": 47700,
      "departure": 47700
    },
    {
      "stop": {
        "id": "2_1449",
        "lat": 48.08682379,
        "lon": -1.6830757,
        "name": "Norvège",
        "code": 1449
      },
      "arrival": 47880,
      "departure": 47880
    },
    {
      "stop": {
        "id": "2_1450",
        "lat": 48.08665851,
        "lon": -1.68837187,
        "name": "Coubertin",
        "code": 1450
      },
      "arrival": 47940,
      "departure": 47940
    },
    {
      "stop": {
        "id": "2_1267",
        "lat": 48.0857359,
        "lon": -1.69390359,
        "name": "Félix Eboué",
        "code": 1267
      },
      "arrival": 48060,
      "departure": 48060
    },
    {
      "stop": {
        "id": "2_2262",
        "lat": 48.06879203,
        "lon": -1.69785635,
        "name": "Vallon",
        "code": 2262
      },
      "arrival": 48240,
      "departure": 48240
    },
    {
      "stop": {
        "id": "2_2704",
        "lat": 48.0593778,
        "lon": -1.70119071,
        "name": "Janais",
        "code": 2704
      },
      "arrival": 48360,
      "departure": 48360
    },
    {
      "stop": {
        "id": "2_2907",
        "lat": 48.04566035,
        "lon": -1.71043502,
        "name": "Croix aux Potiers",
        "code": 2907
      },
      "arrival": 48540,
      "departure": 48540
    },
    {
      "stop": {
        "id": "2_2918",
        "lat": 48.04201304,
        "lon": -1.71105813,
        "name": "Callouët",
        "code": 2918
      },
      "arrival": 48600,
      "departure": 48600
    },
    {
      "stop": {
        "id": "2_2919",
        "lat": 48.04229207,
        "lon": -1.70746679,
        "name": "Chartres Centre",
        "code": 2919
      },
      "arrival": 48660,
      "departure": 48660
    },
    {
      "stop": {
        "id": "2_2920",
        "lat": 48.04158293,
        "lon": -1.70288204,
        "name": "Auditoire",
        "code": 2920
      },
      "arrival": 48720,
      "departure": 48720
    },
    {
      "stop": {
        "id": "2_2921",
        "lat": 48.04125573,
        "lon": -1.69776297,
        "name": "Collège Pôle Sud",
        "code": 2921
      },
      "arrival": 48780,
      "departure": 48780
    },
    {
      "stop": {
        "id": "2_2922",
        "lat": 48.03705289,
        "lon": -1.69713431,
        "name": "Vieux Bourg",
        "code": 2922
      },
      "arrival": 48900,
      "departure": 48900
    },
    {
      "stop": {
        "id": "2_2923",
        "lat": 48.03470268,
        "lon": -1.69977512,
        "name": "Cornouaille",
        "code": 2923
      },
      "arrival": 48960,
      "departure": 48960
    },
    {
      "stop": {
        "id": "2_2924",
        "lat": 48.03549509,
        "lon": -1.70610918,
        "name": "Argoat",
        "code": 2924
      },
      "arrival": 49020,
      "departure": 49020
    },
    {
      "stop": {
        "id": "2_2927",
        "lat": 48.03317188,
        "lon": -1.70739442,
        "name": "Parc de Loisirs",
        "code": 2927
      },
      "arrival": 49080,
      "departure": 49080
    },
    {
      "stop": {
        "id": "2_2930",
        "lat": 48.03121562,
        "lon": -1.70919607,
        "name": "Constant Mérel",
        "code": 2930
      },
      "arrival": 49140,
      "departure": 49140
    },
    {
      "stop": {
        "id": "2_3909",
        "lat": 48.01988822,
        "lon": -1.70705918,
        "name": "Renaissance",
        "code": 3909
      },
      "arrival": 49260,
      "departure": 49260
    },
    {
      "stop": {
        "id": "2_3910",
        "lat": 48.0169427,
        "lon": -1.7051982,
        "name": "Fontaine Blanche",
        "code": 3910
      },
      "arrival": 49320,
      "departure": 49320
    },
    {
      "stop": {
        "id": "2_3911",
        "lat": 48.01367131,
        "lon": -1.70764824,
        "name": "Rivaudière",
        "code": 3911
      },
      "arrival": 49380,
      "departure": 49380
    },
    {
      "stop": {
        "id": "2_3912",
        "lat": 48.01082475,
        "lon": -1.706468,
        "name": "Pont Péan Mairie",
        "code": 3912
      },
      "arrival": 49440,
      "departure": 49440
    },
    {
      "stop": {
        "id": "2_3904",
        "lat": 48.01295576,
        "lon": -1.70300304,
        "name": "Chemin Vert",
        "code": 3904
      },
      "arrival": 49440,
      "departure": 49440
    },
    {
      "stop": {
        "id": "2_3914",
        "lat": 48.01038435,
        "lon": -1.70102798,
        "name": "Mouton Blanc",
        "code": 3914
      },
      "arrival": 49500,
      "departure": 49500
    },
    {
      "stop": {
        "id": "2_3915",
        "lat": 48.00553207,
        "lon": -1.69815207,
        "name": "Caliorne",
        "code": 3915
      },
      "arrival": 49560,
      "departure": 49560
    },
    {
      "stop": {
        "id": "2_3901",
        "lat": 47.99990894,
        "lon": -1.69696794,
        "name": "Bois Esnault",
        "code": 3901
      },
      "arrival": 49620,
      "departure": 49620
    },
    {
      "stop": {
        "id": "2_4701",
        "lat": 47.97860622,
        "lon": -1.71298793,
        "name": "Point du Jour",
        "code": 4701
      },
      "arrival": 49980,
      "departure": 49980
    },
    {
      "stop": {
        "id": "2_4703",
        "lat": 47.97550719,
        "lon": -1.71717487,
        "name": "Orée du Bois",
        "code": 4703
      },
      "arrival": 50040,
      "departure": 50040
    },
    {
      "stop": {
        "id": "2_4705",
        "lat": 47.97798342,
        "lon": -1.71968327,
        "name": "Laillé Eglise",
        "code": 4705
      },
      "arrival": 50100,
      "departure": 50100
    },
    {
      "stop": {
        "id": "2_4707",
        "lat": 47.97928745,
        "lon": -1.72433103,
        "name": "Châtaigneraie",
        "code": 4707
      },
      "arrival": 50160,
      "departure": 50160
    },
    {
      "stop": {
        "id": "2_4708",
        "lat": 47.98009235,
        "lon": -1.7309092,
        "name": "Gingouillère",
        "code": 4708
      },
      "arrival": 50220,
      "departure": 50220
    }
  ],
  "route": {
    "id": "2_0072",
    "textColor": "FFFFFF",
    "color": "0C3C91",
    "description": "Métropolitaine",
    "longName": "Rennes (Henri Fréville) \u003c\u003e Chartres-de-Bretagne / Pont-Péan / Laillé",
    "shortName": "72",
    "type": 3,
    "agencyId": "2"
  }
}