{
  "headsign": "77 | Pacé Pâtis Roussel",
  "stopTimes": [
    {
      "stop": {
        "id": "2_1519",
        "lat": 48.121064,
        "lon": -1.702976,
        "name": "Villejean-Université",
        "code": 1519
      },
      "arrival": 24000,
      "departure": 24000
    },
    {
      "stop": {
        "id": "2_1518",
        "lat": 48.120593,
        "lon": -1.710572,
        "name": "Bourbonnais",
        "code": 1518
      },
      "arrival": 24180,
      "departure": 24180
    },
    {
      "stop": {
        "id": "2_1521",
        "lat": 48.118462,
        "lon": -1.713825,
        "name": "Berry",
        "code": 1521
      },
      "arrival": 24240,
      "departure": 24240
    },
    {
      "stop": {
        "id": "2_3112",
        "lat": 48.141059,
        "lon": -1.767294,
        "name": "Opéra",
        "code": 3112
      },
      "arrival": 24720,
      "departure": 24720
    },
    {
      "stop": {
        "id": "2_3137",
        "lat": 48.140206,
        "lon": -1.763554,
        "name": "Rive Ouest",
        "code": 3137
      },
      "arrival": 24720,
      "departure": 24720
    },
    {
      "stop": {
        "id": "2_3144",
        "lat": 48.141054,
        "lon": -1.766273,
        "name": "Opéra",
        "code": 3144
      },
      "arrival": 24780,
      "departure": 24780
    },
    {
      "stop": {
        "id": "2_3113",
        "lat": 48.143401,
        "lon": -1.770386,
        "name": "Le Ponant",
        "code": 3113
      },
      "arrival": 24780,
      "departure": 24780
    },
    {
      "stop": {
        "id": "2_3114",
        "lat": 48.146022,
        "lon": -1.770492,
        "name": "Carré Dumaine",
        "code": 3114
      },
      "arrival": 24840,
      "departure": 24840
    },
    {
      "stop": {
        "id": "2_3115",
        "lat": 48.148099,
        "lon": -1.769731,
        "name": "Pacé Cimetière",
        "code": 3115
      },
      "arrival": 24900,
      "departure": 24900
    },
    {
      "stop": {
        "id": "2_3130",
        "lat": 48.151605,
        "lon": -1.770461,
        "name": "Le Brix",
        "code": 3130
      },
      "arrival": 24960,
      "departure": 24960
    },
    {
      "stop": {
        "id": "2_3131",
        "lat": 48.154401,
        "lon": -1.770358,
        "name": "Pacé Collèges",
        "code": 3131
      },
      "arrival": 25020,
      "departure": 25020
    },
    {
      "stop": {
        "id": "2_3132",
        "lat": 48.155458,
        "lon": -1.764526,
        "name": "Champalaune",
        "code": 3132
      },
      "arrival": 25080,
      "departure": 25080
    },
    {
      "stop": {
        "id": "2_3133",
        "lat": 48.157383,
        "lon": -1.765666,
        "name": "Ouessant",
        "code": 3133
      },
      "arrival": 25140,
      "departure": 25140
    },
    {
      "stop": {
        "id": "2_3125",
        "lat": 48.16049,
        "lon": -1.768011,
        "name": "Pâtis Roussel",
        "code": 3125
      },
      "arrival": 25200,
      "departure": 25200
    }
  ],
  "route": {
    "id": "2_0077",
    "textColor": "1A171B",
    "color": "FCC000",
    "description": "Métropolitaine",
    "longName": "Rennes (Villejean-Université) \u003c\u003e Pacé",
    "shortName": "77",
    "type": 3,
    "agencyId": "2"
  }
}