{
  "headsign": "79 | Pont-Péan Laillé",
  "stopTimes": [
    {
      "stop": {
        "id": "2_1510",
        "lat": 48.08777947,
        "lon": -1.67446532,
        "name": "Henri Fréville",
        "code": 1510
      },
      "arrival": 27900,
      "departure": 27900
    },
    {
      "stop": {
        "id": "2_3910",
        "lat": 48.0169427,
        "lon": -1.7051982,
        "name": "Fontaine Blanche",
        "code": 3910
      },
      "arrival": 28620,
      "departure": 28620
    },
    {
      "stop": {
        "id": "2_3911",
        "lat": 48.01367131,
        "lon": -1.70764824,
        "name": "Rivaudière",
        "code": 3911
      },
      "arrival": 28680,
      "departure": 28680
    },
    {
      "stop": {
        "id": "2_3912",
        "lat": 48.01082475,
        "lon": -1.706468,
        "name": "Pont Péan Mairie",
        "code": 3912
      },
      "arrival": 28740,
      "departure": 28740
    },
    {
      "stop": {
        "id": "2_3904",
        "lat": 48.01295576,
        "lon": -1.70300304,
        "name": "Chemin Vert",
        "code": 3904
      },
      "arrival": 28800,
      "departure": 28800
    },
    {
      "stop": {
        "id": "2_3914",
        "lat": 48.01038435,
        "lon": -1.70102798,
        "name": "Mouton Blanc",
        "code": 3914
      },
      "arrival": 28860,
      "departure": 28860
    },
    {
      "stop": {
        "id": "2_4701",
        "lat": 47.97860622,
        "lon": -1.71298793,
        "name": "Point du Jour",
        "code": 4701
      },
      "arrival": 29340,
      "departure": 29340
    },
    {
      "stop": {
        "id": "2_4703",
        "lat": 47.97550719,
        "lon": -1.71717487,
        "name": "Orée du Bois",
        "code": 4703
      },
      "arrival": 29400,
      "departure": 29400
    },
    {
      "stop": {
        "id": "2_4705",
        "lat": 47.97798342,
        "lon": -1.71968327,
        "name": "Laillé Eglise",
        "code": 4705
      },
      "arrival": 29460,
      "departure": 29460
    },
    {
      "stop": {
        "id": "2_4707",
        "lat": 47.97928745,
        "lon": -1.72433103,
        "name": "Châtaigneraie",
        "code": 4707
      },
      "arrival": 29520,
      "departure": 29520
    },
    {
      "stop": {
        "id": "2_4708",
        "lat": 47.98009235,
        "lon": -1.7309092,
        "name": "Gingouillère",
        "code": 4708
      },
      "arrival": 29580,
      "departure": 29580
    }
  ],
  "route": {
    "id": "2_0079",
    "textColor": "000000",
    "color": "62C3D5",
    "description": "Métropolitaine",
    "longName": "Rennes (Henri Fréville) \u003c\u003e Laillé",
    "shortName": "79",
    "type": 3,
    "agencyId": "2"
  }
}