{
  "headsign": "79 | Rennes Henri Fréville",
  "stopTimes": [
    {
      "stop": {
        "id": "2_4708",
        "lat": 47.98009235,
        "lon": -1.7309092,
        "name": "Gingouillère",
        "code": 4708
      },
      "arrival": 60600,
      "departure": 60600
    },
    {
      "stop": {
        "id": "2_4706",
        "lat": 47.97919009,
        "lon": -1.72431431,
        "name": "Châtaigneraie",
        "code": 4706
      },
      "arrival": 60660,
      "departure": 60660
    },
    {
      "stop": {
        "id": "2_4704",
        "lat": 47.978117,
        "lon": -1.72041031,
        "name": "Laillé Eglise",
        "code": 4704
      },
      "arrival": 60720,
      "departure": 60720
    },
    {
      "stop": {
        "id": "2_4702",
        "lat": 47.97543276,
        "lon": -1.71711069,
        "name": "Orée du Bois",
        "code": 4702
      },
      "arrival": 60780,
      "departure": 60780
    },
    {
      "stop": {
        "id": "2_4700",
        "lat": 47.97843783,
        "lon": -1.71368821,
        "name": "Point du Jour",
        "code": 4700
      },
      "arrival": 60840,
      "departure": 60840
    },
    {
      "stop": {
        "id": "2_3903",
        "lat": 48.01062005,
        "lon": -1.70099518,
        "name": "Mouton Blanc",
        "code": 3903
      },
      "arrival": 61380,
      "departure": 61380
    },
    {
      "stop": {
        "id": "2_3913",
        "lat": 48.01296314,
        "lon": -1.703044,
        "name": "Chemin Vert",
        "code": 3913
      },
      "arrival": 61440,
      "departure": 61440
    },
    {
      "stop": {
        "id": "2_3905",
        "lat": 48.01057926,
        "lon": -1.70697013,
        "name": "Pont Péan Mairie",
        "code": 3905
      },
      "arrival": 61500,
      "departure": 61500
    },
    {
      "stop": {
        "id": "2_3906",
        "lat": 48.0136449,
        "lon": -1.70763245,
        "name": "Rivaudière",
        "code": 3906
      },
      "arrival": 61560,
      "departure": 61560
    },
    {
      "stop": {
        "id": "2_3907",
        "lat": 48.01629245,
        "lon": -1.70567784,
        "name": "Fontaine Blanche",
        "code": 3907
      },
      "arrival": 61620,
      "departure": 61620
    },
    {
      "stop": {
        "id": "2_1510",
        "lat": 48.08777947,
        "lon": -1.67446532,
        "name": "Henri Fréville",
        "code": 1510
      },
      "arrival": 62340,
      "departure": 62340
    }
  ],
  "route": {
    "id": "2_0079",
    "textColor": "000000",
    "color": "62C3D5",
    "description": "Métropolitaine",
    "longName": "Rennes (Henri Fréville) \u003c\u003e Laillé",
    "shortName": "79",
    "type": 3,
    "agencyId": "2"
  }
}