{
  "headsign": "52 | Pacé Saint-Gilles",
  "stopTimes": [
    {
      "stop": {
        "id": "2_4069",
        "lat": 48.18315711,
        "lon": -1.72604447,
        "name": "Besneraie",
        "code": 4069
      },
      "arrival": 63960,
      "departure": 63960
    },
    {
      "stop": {
        "id": "2_4053",
        "lat": 48.17949446,
        "lon": -1.72926703,
        "name": "Métairie",
        "code": 4053
      },
      "arrival": 64080,
      "departure": 64080
    },
    {
      "stop": {
        "id": "2_4054",
        "lat": 48.17710926,
        "lon": -1.73209913,
        "name": "Mairie",
        "code": 4054
      },
      "arrival": 64140,
      "departure": 64140
    },
    {
      "stop": {
        "id": "2_4055",
        "lat": 48.17409345,
        "lon": -1.73514392,
        "name": "Viennais",
        "code": 4055
      },
      "arrival": 64200,
      "departure": 64200
    },
    {
      "stop": {
        "id": "2_4066",
        "lat": 48.1685816,
        "lon": -1.74294935,
        "name": "Quatre Vents",
        "code": 4066
      },
      "arrival": 64260,
      "departure": 64260
    },
    {
      "stop": {
        "id": "2_3514",
        "lat": 48.15717858,
        "lon": -1.7233011,
        "name": "Fougerolle",
        "code": 3514
      },
      "arrival": 64560,
      "departure": 64560
    },
    {
      "stop": {
        "id": "2_3502",
        "lat": 48.15565719,
        "lon": -1.72061072,
        "name": "Pierre Texier",
        "code": 3502
      },
      "arrival": 64620,
      "departure": 64620
    },
    {
      "stop": {
        "id": "2_3503",
        "lat": 48.1557406,
        "lon": -1.71658864,
        "name": "Montgermont Mairie",
        "code": 3503
      },
      "arrival": 64680,
      "departure": 64680
    },
    {
      "stop": {
        "id": "2_3504",
        "lat": 48.15726126,
        "lon": -1.71446656,
        "name": "Courtines",
        "code": 3504
      },
      "arrival": 64740,
      "departure": 64740
    },
    {
      "stop": {
        "id": "2_3505",
        "lat": 48.15531129,
        "lon": -1.7108321,
        "name": "Belle Epine",
        "code": 3505
      },
      "arrival": 64800,
      "departure": 64800
    },
    {
      "stop": {
        "id": "2_3506",
        "lat": 48.15311386,
        "lon": -1.706642,
        "name": "Décoparc",
        "code": 3506
      },
      "arrival": 64860,
      "departure": 64860
    },
    {
      "stop": {
        "id": "2_3507",
        "lat": 48.14897164,
        "lon": -1.70405003,
        "name": "Vizeule",
        "code": 3507
      },
      "arrival": 64920,
      "departure": 64920
    },
    {
      "stop": {
        "id": "2_1492",
        "lat": 48.13384612,
        "lon": -1.69386845,
        "name": "Grand Quartier",
        "code": 1492
      },
      "arrival": 65100,
      "departure": 65100
    },
    {
      "stop": {
        "id": "2_1543",
        "lat": 48.13134643,
        "lon": -1.69183513,
        "name": "Léonard",
        "code": 1543
      },
      "arrival": 65160,
      "departure": 65160
    },
    {
      "stop": {
        "id": "2_1493",
        "lat": 48.12716786,
        "lon": -1.69331907,
        "name": "Lycée Basch",
        "code": 1493
      },
      "arrival": 65280,
      "departure": 65280
    },
    {
      "stop": {
        "id": "2_1497",
        "lat": 48.12102411,
        "lon": -1.70300103,
        "name": "Villejean-Université",
        "code": 1497
      },
      "arrival": 65700,
      "departure": 65700
    },
    {
      "stop": {
        "id": "2_1518",
        "lat": 48.12062672,
        "lon": -1.71046453,
        "name": "Bourbonnais",
        "code": 1518
      },
      "arrival": 65940,
      "departure": 65940
    },
    {
      "stop": {
        "id": "2_1521",
        "lat": 48.11845974,
        "lon": -1.71376004,
        "name": "Berry",
        "code": 1521
      },
      "arrival": 66000,
      "departure": 66000
    },
    {
      "stop": {
        "id": "2_3135",
        "lat": 48.14172254,
        "lon": -1.77090905,
        "name": "Nominoë",
        "code": 3135
      },
      "arrival": 66420,
      "departure": 66420
    },
    {
      "stop": {
        "id": "2_3105",
        "lat": 48.14754061,
        "lon": -1.78105296,
        "name": "Pinault",
        "code": 3105
      },
      "arrival": 66540,
      "departure": 66540
    },
    {
      "stop": {
        "id": "2_3120",
        "lat": 48.14853531,
        "lon": -1.78475327,
        "name": "Touche Milon",
        "code": 3120
      },
      "arrival": 66600,
      "departure": 66600
    },
    {
      "stop": {
        "id": "2_3121",
        "lat": 48.1492868,
        "lon": -1.78888968,
        "name": "Docteur Léon",
        "code": 3121
      },
      "arrival": 66660,
      "departure": 66660
    },
    {
      "stop": {
        "id": "2_3122",
        "lat": 48.15128452,
        "lon": -1.79230415,
        "name": "Pie Neuve",
        "code": 3122
      },
      "arrival": 66720,
      "departure": 66720
    },
    {
      "stop": {
        "id": "2_3710",
        "lat": 48.15356445,
        "lon": -1.81046986,
        "name": "Fouaye",
        "code": 3710
      },
      "arrival": 66840,
      "departure": 66840
    },
    {
      "stop": {
        "id": "2_3711",
        "lat": 48.15413317,
        "lon": -1.81993908,
        "name": "Vigne",
        "code": 3711
      },
      "arrival": 66960,
      "departure": 66960
    },
    {
      "stop": {
        "id": "2_3712",
        "lat": 48.15067999,
        "lon": -1.82479689,
        "name": "Pont aux Moines",
        "code": 3712
      },
      "arrival": 67080,
      "departure": 67080
    },
    {
      "stop": {
        "id": "2_3714",
        "lat": 48.15249376,
        "lon": -1.82982513,
        "name": "Saint-Gilles Centre",
        "code": 3714
      },
      "arrival": 67140,
      "departure": 67140
    },
    {
      "stop": {
        "id": "2_3724",
        "lat": 48.15381862,
        "lon": -1.8340467,
        "name": "Clos des Cerisiers",
        "code": 3724
      },
      "arrival": 67200,
      "departure": 67200
    },
    {
      "stop": {
        "id": "2_3723",
        "lat": 48.15403633,
        "lon": -1.83780571,
        "name": "Maison Neuve",
        "code": 3723
      },
      "arrival": 67260,
      "departure": 67260
    },
    {
      "stop": {
        "id": "2_3732",
        "lat": 48.14932288,
        "lon": -1.83903709,
        "name": "Ile des Bois",
        "code": 3732
      },
      "arrival": 67380,
      "departure": 67380
    }
  ],
  "route": {
    "id": "2_0052",
    "textColor": "FFFFFF",
    "color": "007C77",
    "description": "Métropolitaine",
    "longName": "Saint-Gilles / Pacé \u003c\u003e Rennes (Villejean-Université) \u003c\u003e Montgermont / La Chapelle-des-Fougeretz",
    "shortName": "52",
    "type": 3,
    "agencyId": "2"
  }
}