{
  "headsign": "52 | Pacé Saint-Gilles",
  "stopTimes": [
    {
      "stop": {
        "id": "2_4069",
        "lat": 48.183129,
        "lon": -1.726001,
        "name": "Besneraie",
        "code": 4069
      },
      "arrival": 62820,
      "departure": 62820
    },
    {
      "stop": {
        "id": "2_4053",
        "lat": 48.17951,
        "lon": -1.729201,
        "name": "Métairie",
        "code": 4053
      },
      "arrival": 62940,
      "departure": 62940
    },
    {
      "stop": {
        "id": "2_4054",
        "lat": 48.177108,
        "lon": -1.732207,
        "name": "Mairie",
        "code": 4054
      },
      "arrival": 63000,
      "departure": 63000
    },
    {
      "stop": {
        "id": "2_4055",
        "lat": 48.174111,
        "lon": -1.735204,
        "name": "Viennais",
        "code": 4055
      },
      "arrival": 63060,
      "departure": 63060
    },
    {
      "stop": {
        "id": "2_4056",
        "lat": 48.17016,
        "lon": -1.736188,
        "name": "Sénestrais",
        "code": 4056
      },
      "arrival": 63120,
      "departure": 63120
    },
    {
      "stop": {
        "id": "2_3500",
        "lat": 48.163969,
        "lon": -1.731752,
        "name": "Silandière",
        "code": 3500
      },
      "arrival": 63240,
      "departure": 63240
    },
    {
      "stop": {
        "id": "2_3514",
        "lat": 48.157221,
        "lon": -1.723306,
        "name": "Fougerolle",
        "code": 3514
      },
      "arrival": 63360,
      "departure": 63360
    },
    {
      "stop": {
        "id": "2_3502",
        "lat": 48.155655,
        "lon": -1.720614,
        "name": "Pierre Texier",
        "code": 3502
      },
      "arrival": 63420,
      "departure": 63420
    },
    {
      "stop": {
        "id": "2_3503",
        "lat": 48.15574,
        "lon": -1.71654,
        "name": "Montgermont Mairie",
        "code": 3503
      },
      "arrival": 63480,
      "departure": 63480
    },
    {
      "stop": {
        "id": "2_3504",
        "lat": 48.157226,
        "lon": -1.714447,
        "name": "Courtines",
        "code": 3504
      },
      "arrival": 63540,
      "departure": 63540
    },
    {
      "stop": {
        "id": "2_3505",
        "lat": 48.155304,
        "lon": -1.710895,
        "name": "Belle Epine",
        "code": 3505
      },
      "arrival": 63600,
      "departure": 63600
    },
    {
      "stop": {
        "id": "2_3506",
        "lat": 48.152987,
        "lon": -1.706581,
        "name": "Décoparc",
        "code": 3506
      },
      "arrival": 63660,
      "departure": 63660
    },
    {
      "stop": {
        "id": "2_3507",
        "lat": 48.148918,
        "lon": -1.704108,
        "name": "Vizeule",
        "code": 3507
      },
      "arrival": 63720,
      "departure": 63720
    },
    {
      "stop": {
        "id": "2_1492",
        "lat": 48.133784,
        "lon": -1.69386,
        "name": "Grand Quartier",
        "code": 1492
      },
      "arrival": 63900,
      "departure": 63900
    },
    {
      "stop": {
        "id": "2_1543",
        "lat": 48.131341,
        "lon": -1.691889,
        "name": "Léonard",
        "code": 1543
      },
      "arrival": 63960,
      "departure": 63960
    },
    {
      "stop": {
        "id": "2_1493",
        "lat": 48.127175,
        "lon": -1.693387,
        "name": "Lycée Basch",
        "code": 1493
      },
      "arrival": 64080,
      "departure": 64080
    },
    {
      "stop": {
        "id": "2_1497",
        "lat": 48.120973,
        "lon": -1.70298,
        "name": "Villejean-Université",
        "code": 1497
      },
      "arrival": 64500,
      "departure": 64500
    },
    {
      "stop": {
        "id": "2_1518",
        "lat": 48.120593,
        "lon": -1.710572,
        "name": "Bourbonnais",
        "code": 1518
      },
      "arrival": 64740,
      "departure": 64740
    },
    {
      "stop": {
        "id": "2_1521",
        "lat": 48.118462,
        "lon": -1.713825,
        "name": "Berry",
        "code": 1521
      },
      "arrival": 64800,
      "departure": 64800
    },
    {
      "stop": {
        "id": "2_3135",
        "lat": 48.141755,
        "lon": -1.771001,
        "name": "Nominoë",
        "code": 3135
      },
      "arrival": 65280,
      "departure": 65280
    },
    {
      "stop": {
        "id": "2_3105",
        "lat": 48.14765,
        "lon": -1.780916,
        "name": "Pinault",
        "code": 3105
      },
      "arrival": 65400,
      "departure": 65400
    },
    {
      "stop": {
        "id": "2_3120",
        "lat": 48.1486,
        "lon": -1.785006,
        "name": "Touche Milon",
        "code": 3120
      },
      "arrival": 65460,
      "departure": 65460
    },
    {
      "stop": {
        "id": "2_3121",
        "lat": 48.149381,
        "lon": -1.789012,
        "name": "Docteur Léon",
        "code": 3121
      },
      "arrival": 65520,
      "departure": 65520
    },
    {
      "stop": {
        "id": "2_3122",
        "lat": 48.151278,
        "lon": -1.792357,
        "name": "Pie Neuve",
        "code": 3122
      },
      "arrival": 65580,
      "departure": 65580
    },
    {
      "stop": {
        "id": "2_3710",
        "lat": 48.153626,
        "lon": -1.810538,
        "name": "Fouaye",
        "code": 3710
      },
      "arrival": 65700,
      "departure": 65700
    },
    {
      "stop": {
        "id": "2_3711",
        "lat": 48.154152,
        "lon": -1.819988,
        "name": "Vigne",
        "code": 3711
      },
      "arrival": 65820,
      "departure": 65820
    },
    {
      "stop": {
        "id": "2_3712",
        "lat": 48.150714,
        "lon": -1.824791,
        "name": "Pont aux Moines",
        "code": 3712
      },
      "arrival": 65940,
      "departure": 65940
    },
    {
      "stop": {
        "id": "2_3714",
        "lat": 48.152522,
        "lon": -1.829773,
        "name": "Saint-Gilles Centre",
        "code": 3714
      },
      "arrival": 66000,
      "departure": 66000
    },
    {
      "stop": {
        "id": "2_3724",
        "lat": 48.153843,
        "lon": -1.834042,
        "name": "Clos des Cerisiers",
        "code": 3724
      },
      "arrival": 66060,
      "departure": 66060
    },
    {
      "stop": {
        "id": "2_3723",
        "lat": 48.15406,
        "lon": -1.837815,
        "name": "Maison Neuve",
        "code": 3723
      },
      "arrival": 66120,
      "departure": 66120
    },
    {
      "stop": {
        "id": "2_3732",
        "lat": 48.14933,
        "lon": -1.839024,
        "name": "Ile des Bois",
        "code": 3732
      },
      "arrival": 66240,
      "departure": 66240
    }
  ],
  "route": {
    "id": "2_0052",
    "textColor": "FFFFFF",
    "color": "007C77",
    "description": "Métropolitaine",
    "longName": "Saint-Gilles / Pacé \u003c\u003e Rennes (Villejean-Université) \u003c\u003e Montgermont / La Chapelle-des-Fougeretz",
    "shortName": "52",
    "type": 3,
    "agencyId": "2"
  }
}