{
  "headsign": "77 | Rennes Villejean-Université",
  "stopTimes": [
    {
      "stop": {
        "id": "2_3125",
        "lat": 48.16049,
        "lon": -1.768011,
        "name": "Pâtis Roussel",
        "code": 3125
      },
      "arrival": 33900,
      "departure": 33900
    },
    {
      "stop": {
        "id": "2_3126",
        "lat": 48.15725,
        "lon": -1.765795,
        "name": "Ouessant",
        "code": 3126
      },
      "arrival": 33960,
      "departure": 33960
    },
    {
      "stop": {
        "id": "2_3127",
        "lat": 48.155532,
        "lon": -1.764696,
        "name": "Champalaune",
        "code": 3127
      },
      "arrival": 34020,
      "departure": 34020
    },
    {
      "stop": {
        "id": "2_3128",
        "lat": 48.154019,
        "lon": -1.771157,
        "name": "Pacé Collèges",
        "code": 3128
      },
      "arrival": 34140,
      "departure": 34140
    },
    {
      "stop": {
        "id": "2_3129",
        "lat": 48.150694,
        "lon": -1.770839,
        "name": "Le Brix",
        "code": 3129
      },
      "arrival": 34200,
      "departure": 34200
    },
    {
      "stop": {
        "id": "2_3109",
        "lat": 48.148142,
        "lon": -1.769909,
        "name": "Pacé Cimetière",
        "code": 3109
      },
      "arrival": 34260,
      "departure": 34260
    },
    {
      "stop": {
        "id": "2_3110",
        "lat": 48.145758,
        "lon": -1.770753,
        "name": "Carré Dumaine",
        "code": 3110
      },
      "arrival": 34320,
      "departure": 34320
    },
    {
      "stop": {
        "id": "2_3111",
        "lat": 48.142756,
        "lon": -1.770101,
        "name": "Le Ponant",
        "code": 3111
      },
      "arrival": 34380,
      "departure": 34380
    },
    {
      "stop": {
        "id": "2_3112",
        "lat": 48.141059,
        "lon": -1.767294,
        "name": "Opéra",
        "code": 3112
      },
      "arrival": 34560,
      "departure": 34560
    },
    {
      "stop": {
        "id": "2_3139",
        "lat": 48.140153,
        "lon": -1.763318,
        "name": "Rive Ouest",
        "code": 3139
      },
      "arrival": 34560,
      "departure": 34560
    },
    {
      "stop": {
        "id": "2_3144",
        "lat": 48.141054,
        "lon": -1.766273,
        "name": "Opéra",
        "code": 3144
      },
      "arrival": 34620,
      "departure": 34620
    },
    {
      "stop": {
        "id": "2_1517",
        "lat": 48.118565,
        "lon": -1.713574,
        "name": "Berry",
        "code": 1517
      },
      "arrival": 34980,
      "departure": 34980
    },
    {
      "stop": {
        "id": "2_1520",
        "lat": 48.120473,
        "lon": -1.709574,
        "name": "Bourbonnais",
        "code": 1520
      },
      "arrival": 35040,
      "departure": 35040
    },
    {
      "stop": {
        "id": "2_1519",
        "lat": 48.121064,
        "lon": -1.702976,
        "name": "Villejean-Université",
        "code": 1519
      },
      "arrival": 35220,
      "departure": 35220
    }
  ],
  "route": {
    "id": "2_0077",
    "textColor": "1A171B",
    "color": "FCC000",
    "description": "Métropolitaine",
    "longName": "Rennes (Villejean-Université) \u003c\u003e Pacé",
    "shortName": "77",
    "type": 3,
    "agencyId": "2"
  }
}