{
  "headsign": "64 | Rennes République",
  "stopTimes": [
    {
      "stop": {
        "id": "2_4001",
        "lat": 48.137043,
        "lon": -1.526335,
        "name": "Timonière",
        "code": 4001
      },
      "arrival": 31200,
      "departure": 31200
    },
    {
      "stop": {
        "id": "2_4002",
        "lat": 48.136905,
        "lon": -1.533137,
        "name": "Verdaudais",
        "code": 4002
      },
      "arrival": 31380,
      "departure": 31380
    },
    {
      "stop": {
        "id": "2_4003",
        "lat": 48.134242,
        "lon": -1.534801,
        "name": "Acigné Mairie",
        "code": 4003
      },
      "arrival": 31440,
      "departure": 31440
    },
    {
      "stop": {
        "id": "2_4004",
        "lat": 48.133958,
        "lon": -1.537791,
        "name": "Foyer",
        "code": 4004
      },
      "arrival": 31500,
      "departure": 31500
    },
    {
      "stop": {
        "id": "2_4018",
        "lat": 48.134021,
        "lon": -1.540447,
        "name": "Lande",
        "code": 4018
      },
      "arrival": 31560,
      "departure": 31560
    },
    {
      "stop": {
        "id": "2_4006",
        "lat": 48.137273,
        "lon": -1.549814,
        "name": "Pont d\u0027Ohin",
        "code": 4006
      },
      "arrival": 31620,
      "departure": 31620
    },
    {
      "stop": {
        "id": "2_4007",
        "lat": 48.139094,
        "lon": -1.558744,
        "name": "Boulais",
        "code": 4007
      },
      "arrival": 31680,
      "departure": 31680
    },
    {
      "stop": {
        "id": "2_3317",
        "lat": 48.141094,
        "lon": -1.573652,
        "name": "Pâtis du Moulinet",
        "code": 3317
      },
      "arrival": 31800,
      "departure": 31800
    },
    {
      "stop": {
        "id": "2_2101",
        "lat": 48.131755,
        "lon": -1.597946,
        "name": "Saint-Etienne",
        "code": 2101
      },
      "arrival": 31980,
      "departure": 31980
    },
    {
      "stop": {
        "id": "2_2079",
        "lat": 48.12886,
        "lon": -1.605971,
        "name": "Verger",
        "code": 2079
      },
      "arrival": 32100,
      "departure": 32100
    },
    {
      "stop": {
        "id": "2_2080",
        "lat": 48.127399,
        "lon": -1.612799,
        "name": "Gaudais",
        "code": 2080
      },
      "arrival": 32160,
      "departure": 32160
    },
    {
      "stop": {
        "id": "2_2082",
        "lat": 48.126993,
        "lon": -1.619975,
        "name": "Bouriande",
        "code": 2082
      },
      "arrival": 32220,
      "departure": 32220
    },
    {
      "stop": {
        "id": "2_2044",
        "lat": 48.127362,
        "lon": -1.62431,
        "name": "Belle Fontaine",
        "code": 2044
      },
      "arrival": 32280,
      "departure": 32280
    },
    {
      "stop": {
        "id": "2_2045",
        "lat": 48.127387,
        "lon": -1.628256,
        "name": "Clos Courtel",
        "code": 2045
      },
      "arrival": 32340,
      "departure": 32340
    },
    {
      "stop": {
        "id": "2_1177",
        "lat": 48.12191,
        "lon": -1.640321,
        "name": "Beaulieu Restau U",
        "code": 1177
      },
      "arrival": 32520,
      "departure": 32520
    },
    {
      "stop": {
        "id": "2_1178",
        "lat": 48.120832,
        "lon": -1.643865,
        "name": "Beaulieu Cité U",
        "code": 1178
      },
      "arrival": 32580,
      "departure": 32580
    },
    {
      "stop": {
        "id": "2_1432",
        "lat": 48.118675,
        "lon": -1.649887,
        "name": "Vitré Foulon",
        "code": 1432
      },
      "arrival": 32700,
      "departure": 32700
    },
    {
      "stop": {
        "id": "2_1513",
        "lat": 48.115378,
        "lon": -1.648495,
        "name": "Bois Perrin",
        "code": 1513
      },
      "arrival": 32760,
      "departure": 32760
    },
    {
      "stop": {
        "id": "2_1514",
        "lat": 48.113326,
        "lon": -1.647648,
        "name": "Moulin de Joué",
        "code": 1514
      },
      "arrival": 32820,
      "departure": 32820
    },
    {
      "stop": {
        "id": "2_1163",
        "lat": 48.110164,
        "lon": -1.660479,
        "name": "Robidou",
        "code": 1163
      },
      "arrival": 33000,
      "departure": 33000
    },
    {
      "stop": {
        "id": "2_1166",
        "lat": 48.109914,
        "lon": -1.675145,
        "name": "Musée Beaux Arts",
        "code": 1166
      },
      "arrival": 33180,
      "departure": 33180
    },
    {
      "stop": {
        "id": "2_1167",
        "lat": 48.109405,
        "lon": -1.678734,
        "name": "République Pré Botté",
        "code": 1167
      },
      "arrival": 33240,
      "departure": 33240
    }
  ],
  "route": {
    "id": "2_0064",
    "textColor": "FFFFFF",
    "color": "0094D8",
    "description": "Métropolitaine",
    "longName": "Rennes (République) \u003c\u003e Acigné",
    "shortName": "64",
    "type": 3,
    "agencyId": "2"
  }
}