{
  "headsign": "77 | Rennes Villejean-Université",
  "stopTimes": [
    {
      "stop": {
        "id": "2_3125",
        "lat": 48.16046527,
        "lon": -1.7679822,
        "name": "Pâtis Roussel",
        "code": 3125
      },
      "arrival": 45900,
      "departure": 45900
    },
    {
      "stop": {
        "id": "2_3126",
        "lat": 48.15732007,
        "lon": -1.76573096,
        "name": "Ouessant",
        "code": 3126
      },
      "arrival": 45960,
      "departure": 45960
    },
    {
      "stop": {
        "id": "2_3127",
        "lat": 48.1554893,
        "lon": -1.76463602,
        "name": "Champalaune",
        "code": 3127
      },
      "arrival": 46020,
      "departure": 46020
    },
    {
      "stop": {
        "id": "2_3128",
        "lat": 48.15407302,
        "lon": -1.77112297,
        "name": "Pacé Collèges",
        "code": 3128
      },
      "arrival": 46140,
      "departure": 46140
    },
    {
      "stop": {
        "id": "2_3129",
        "lat": 48.15071817,
        "lon": -1.77071191,
        "name": "Le Brix",
        "code": 3129
      },
      "arrival": 46200,
      "departure": 46200
    },
    {
      "stop": {
        "id": "2_3109",
        "lat": 48.14815858,
        "lon": -1.76980701,
        "name": "Pacé Cimetière",
        "code": 3109
      },
      "arrival": 46260,
      "departure": 46260
    },
    {
      "stop": {
        "id": "2_3110",
        "lat": 48.1457978,
        "lon": -1.77067127,
        "name": "Carré Dumaine",
        "code": 3110
      },
      "arrival": 46320,
      "departure": 46320
    },
    {
      "stop": {
        "id": "2_3111",
        "lat": 48.14284412,
        "lon": -1.77014839,
        "name": "Le Ponant",
        "code": 3111
      },
      "arrival": 46380,
      "departure": 46380
    },
    {
      "stop": {
        "id": "2_3112",
        "lat": 48.14112507,
        "lon": -1.76740703,
        "name": "Opéra",
        "code": 3112
      },
      "arrival": 46560,
      "departure": 46560
    },
    {
      "stop": {
        "id": "2_3139",
        "lat": 48.14020952,
        "lon": -1.76329723,
        "name": "Rive Ouest",
        "code": 3139
      },
      "arrival": 46560,
      "departure": 46560
    },
    {
      "stop": {
        "id": "2_3144",
        "lat": 48.14098531,
        "lon": -1.76618221,
        "name": "Opéra",
        "code": 3144
      },
      "arrival": 46620,
      "departure": 46620
    },
    {
      "stop": {
        "id": "2_1517",
        "lat": 48.11854026,
        "lon": -1.71363649,
        "name": "Berry",
        "code": 1517
      },
      "arrival": 46980,
      "departure": 46980
    },
    {
      "stop": {
        "id": "2_1520",
        "lat": 48.12050245,
        "lon": -1.70973991,
        "name": "Bourbonnais",
        "code": 1520
      },
      "arrival": 47040,
      "departure": 47040
    },
    {
      "stop": {
        "id": "2_1519",
        "lat": 48.12110069,
        "lon": -1.70297631,
        "name": "Villejean-Université",
        "code": 1519
      },
      "arrival": 47220,
      "departure": 47220
    }
  ],
  "route": {
    "id": "2_0077",
    "textColor": "1A171B",
    "color": "FCC000",
    "description": "Métropolitaine",
    "longName": "Rennes (Villejean-Université) \u003c\u003e Pacé",
    "shortName": "77",
    "type": 3,
    "agencyId": "2"
  }
}