{
  "headsign": "155 | Rennes République",
  "stopTimes": [
    {
      "stop": {
        "id": "2_3851",
        "lat": 48.07460255,
        "lon": -1.85367611,
        "name": "Mordelles Pâtis",
        "code": 3851
      },
      "arrival": 25500,
      "departure": 25500
    },
    {
      "stop": {
        "id": "2_3852",
        "lat": 48.07194172,
        "lon": -1.84998802,
        "name": "Mordelles Eglise",
        "code": 3852
      },
      "arrival": 25680,
      "departure": 25680
    },
    {
      "stop": {
        "id": "2_3853",
        "lat": 48.07371138,
        "lon": -1.84642407,
        "name": "Mordelles Mairie",
        "code": 3853
      },
      "arrival": 25740,
      "departure": 25740
    },
    {
      "stop": {
        "id": "2_3854",
        "lat": 48.07584083,
        "lon": -1.8422202,
        "name": "Mordelles Lilas",
        "code": 3854
      },
      "arrival": 25800,
      "departure": 25800
    },
    {
      "stop": {
        "id": "2_3855",
        "lat": 48.07771886,
        "lon": -1.83754903,
        "name": "Gretay",
        "code": 3855
      },
      "arrival": 25920,
      "departure": 25920
    },
    {
      "stop": {
        "id": "2_1542",
        "lat": 48.10997275,
        "lon": -1.68535336,
        "name": "Pont de Bretagne",
        "code": 1542
      },
      "arrival": 27180,
      "departure": 27180
    },
    {
      "stop": {
        "id": "2_1242",
        "lat": 48.10980333,
        "lon": -1.6795219,
        "name": "République",
        "code": 1242
      },
      "arrival": 27240,
      "departure": 27240
    }
  ],
  "route": {
    "id": "2_0155",
    "textColor": "3D3C3F",
    "color": "FFDD00",
    "description": "Express métropolitaine",
    "longName": "Rennes (République) \u003c\u003e Mordelles",
    "shortName": "155",
    "type": 3,
    "agencyId": "2"
  }
}