{
  "headsign": "74 | Rennes Henri Fréville",
  "stopTimes": [
    {
      "stop": {
        "id": "2_3208",
        "lat": 47.99395077,
        "lon": -1.66549531,
        "name": "Chateaubriand",
        "code": 3208
      },
      "arrival": 27900,
      "departure": 27900
    },
    {
      "stop": {
        "id": "2_3209",
        "lat": 47.99249678,
        "lon": -1.66873811,
        "name": "Surcouf",
        "code": 3209
      },
      "arrival": 28020,
      "departure": 28020
    },
    {
      "stop": {
        "id": "2_3210",
        "lat": 47.99502136,
        "lon": -1.67075631,
        "name": "Coteau",
        "code": 3210
      },
      "arrival": 28080,
      "departure": 28080
    },
    {
      "stop": {
        "id": "2_3211",
        "lat": 47.99730201,
        "lon": -1.66850378,
        "name": "Groupe Scolaire",
        "code": 3211
      },
      "arrival": 28140,
      "departure": 28140
    },
    {
      "stop": {
        "id": "2_3212",
        "lat": 48.00074048,
        "lon": -1.66681908,
        "name": "Levant",
        "code": 3212
      },
      "arrival": 28260,
      "departure": 28260
    },
    {
      "stop": {
        "id": "2_3213",
        "lat": 48.00907966,
        "lon": -1.66635078,
        "name": "Plardière",
        "code": 3213
      },
      "arrival": 28380,
      "departure": 28380
    },
    {
      "stop": {
        "id": "2_3250",
        "lat": 48.01492814,
        "lon": -1.66383754,
        "name": "Orgerblon",
        "code": 3250
      },
      "arrival": 28440,
      "departure": 28440
    },
    {
      "stop": {
        "id": "2_4356",
        "lat": 48.01707558,
        "lon": -1.66458685,
        "name": "Croix du Pigeonnet",
        "code": 4356
      },
      "arrival": 28440,
      "departure": 28440
    },
    {
      "stop": {
        "id": "2_1534",
        "lat": 48.08831453,
        "lon": -1.67444337,
        "name": "Henri Fréville",
        "code": 1534
      },
      "arrival": 29340,
      "departure": 29340
    }
  ],
  "route": {
    "id": "2_0074",
    "textColor": "201D21",
    "color": "F6C200",
    "description": "Métropolitaine",
    "longName": "Rennes (Henri Fréville) \u003c\u003e Orgères / Bourgbarré",
    "shortName": "74",
    "type": 3,
    "agencyId": "2"
  }
}