{
  "headsign": "56 | Rennes Charles de Gaulle",
  "stopTimes": [
    {
      "stop": {
        "id": "2_4201",
        "lat": 48.051925,
        "lon": -1.797682,
        "name": "Croix Blanche",
        "code": 4201
      },
      "arrival": 70200,
      "departure": 70200
    },
    {
      "stop": {
        "id": "2_4202",
        "lat": 48.051992,
        "lon": -1.79066,
        "name": "Calvaire",
        "code": 4202
      },
      "arrival": 70320,
      "departure": 70320
    },
    {
      "stop": {
        "id": "2_4210",
        "lat": 48.054757,
        "lon": -1.790213,
        "name": "Alfred de Musset",
        "code": 4210
      },
      "arrival": 70380,
      "departure": 70380
    },
    {
      "stop": {
        "id": "2_4204",
        "lat": 48.053984,
        "lon": -1.783762,
        "name": "Avenir",
        "code": 4204
      },
      "arrival": 70440,
      "departure": 70440
    },
    {
      "stop": {
        "id": "2_4205",
        "lat": 48.0582,
        "lon": -1.776254,
        "name": "Grippay",
        "code": 4205
      },
      "arrival": 70560,
      "departure": 70560
    },
    {
      "stop": {
        "id": "2_4206",
        "lat": 48.063257,
        "lon": -1.772312,
        "name": "Mare Doux",
        "code": 4206
      },
      "arrival": 70620,
      "departure": 70620
    },
    {
      "stop": {
        "id": "2_2525",
        "lat": 48.078547,
        "lon": -1.771361,
        "name": "Haut Plessis",
        "code": 2525
      },
      "arrival": 70800,
      "departure": 70800
    },
    {
      "stop": {
        "id": "2_2526",
        "lat": 48.080424,
        "lon": -1.774424,
        "name": "Moigné",
        "code": 2526
      },
      "arrival": 70800,
      "departure": 70800
    },
    {
      "stop": {
        "id": "2_2522",
        "lat": 48.093981,
        "lon": -1.773941,
        "name": "Mahomat",
        "code": 2522
      },
      "arrival": 70980,
      "departure": 70980
    },
    {
      "stop": {
        "id": "2_2509",
        "lat": 48.096139,
        "lon": -1.764573,
        "name": "Pont d\u0027Avoine",
        "code": 2509
      },
      "arrival": 71040,
      "departure": 71040
    },
    {
      "stop": {
        "id": "2_3752",
        "lat": 48.104704,
        "lon": -1.739009,
        "name": "Trois Marches",
        "code": 3752
      },
      "arrival": 71280,
      "departure": 71280
    },
    {
      "stop": {
        "id": "2_1508",
        "lat": 48.106693,
        "lon": -1.729127,
        "name": "Berthault",
        "code": 1508
      },
      "arrival": 71340,
      "departure": 71340
    },
    {
      "stop": {
        "id": "2_1233",
        "lat": 48.107021,
        "lon": -1.72162,
        "name": "Lemaistre",
        "code": 1233
      },
      "arrival": 71400,
      "departure": 71400
    },
    {
      "stop": {
        "id": "2_1235",
        "lat": 48.108898,
        "lon": -1.709658,
        "name": "Géniaux",
        "code": 1235
      },
      "arrival": 71580,
      "departure": 71580
    },
    {
      "stop": {
        "id": "2_1238",
        "lat": 48.108687,
        "lon": -1.698735,
        "name": "Guilloux Lorient",
        "code": 1238
      },
      "arrival": 71700,
      "departure": 71700
    },
    {
      "stop": {
        "id": "2_1239",
        "lat": 48.108256,
        "lon": -1.694158,
        "name": "Chèques Postaux",
        "code": 1239
      },
      "arrival": 71760,
      "departure": 71760
    },
    {
      "stop": {
        "id": "2_1542",
        "lat": 48.10992,
        "lon": -1.68535,
        "name": "Pont de Bretagne",
        "code": 1542
      },
      "arrival": 71940,
      "departure": 71940
    },
    {
      "stop": {
        "id": "2_1242",
        "lat": 48.109758,
        "lon": -1.679532,
        "name": "République",
        "code": 1242
      },
      "arrival": 72000,
      "departure": 72000
    },
    {
      "stop": {
        "id": "2_1088",
        "lat": 48.107377,
        "lon": -1.674981,
        "name": "Liberté TNB",
        "code": 1088
      },
      "arrival": 72120,
      "departure": 72120
    },
    {
      "stop": {
        "id": "2_1595",
        "lat": 48.105833,
        "lon": -1.6773,
        "name": "Charles de Gaulle",
        "code": 1595
      },
      "arrival": 72240,
      "departure": 72240
    }
  ],
  "route": {
    "id": "2_0056",
    "textColor": "FFFFFF",
    "color": "009A47",
    "description": "Métropolitaine",
    "longName": "Rennes (Charles de Gaulle) \u003c\u003e Chavagne",
    "shortName": "56",
    "type": 3,
    "agencyId": "2"
  }
}