{
  "headsign": "75 | Rennes La Poterie",
  "stopTimes": [
    {
      "stop": {
        "id": "2_3401",
        "lat": 48.04139981,
        "lon": -1.55336797,
        "name": "Parc des Sports",
        "code": 3401
      },
      "arrival": 65700,
      "departure": 65700
    },
    {
      "stop": {
        "id": "2_3410",
        "lat": 48.0409078,
        "lon": -1.54977715,
        "name": "Langlois",
        "code": 3410
      },
      "arrival": 65760,
      "departure": 65760
    },
    {
      "stop": {
        "id": "2_3408",
        "lat": 48.04042495,
        "lon": -1.54198016,
        "name": "Chêne Centenaire",
        "code": 3408
      },
      "arrival": 65880,
      "departure": 65880
    },
    {
      "stop": {
        "id": "2_3404",
        "lat": 48.0412779,
        "lon": -1.54463411,
        "name": "Menault",
        "code": 3404
      },
      "arrival": 65940,
      "departure": 65940
    },
    {
      "stop": {
        "id": "2_3405",
        "lat": 48.04453229,
        "lon": -1.56162229,
        "name": "Eclosel",
        "code": 3405
      },
      "arrival": 66060,
      "departure": 66060
    },
    {
      "stop": {
        "id": "2_2631",
        "lat": 48.04763801,
        "lon": -1.59853624,
        "name": "Moulin",
        "code": 2631
      },
      "arrival": 66300,
      "departure": 66300
    },
    {
      "stop": {
        "id": "2_2630",
        "lat": 48.04502874,
        "lon": -1.59887396,
        "name": "Maillardière",
        "code": 2630
      },
      "arrival": 66360,
      "departure": 66360
    },
    {
      "stop": {
        "id": "2_2603",
        "lat": 48.04468923,
        "lon": -1.60398268,
        "name": "La Poste",
        "code": 2603
      },
      "arrival": 66480,
      "departure": 66480
    },
    {
      "stop": {
        "id": "2_1511",
        "lat": 48.08753912,
        "lon": -1.64345457,
        "name": "La Poterie",
        "code": 1511
      },
      "arrival": 66960,
      "departure": 66960
    }
  ],
  "route": {
    "id": "2_0075",
    "textColor": "ffffff",
    "color": "ef9940",
    "description": "Métropolitaine",
    "longName": "Rennes (La Poterie) \u003c\u003e Nouvoitou",
    "shortName": "75",
    "type": 3,
    "agencyId": "2"
  }
}