{
  "headsign": "67 | Rennes République",
  "stopTimes": [
    {
      "stop": {
        "id": "2_4151",
        "lat": 48.10975091,
        "lon": -1.48097238,
        "name": "Anjou",
        "code": 4151
      },
      "arrival": 39780,
      "departure": 39780
    },
    {
      "stop": {
        "id": "2_4152",
        "lat": 48.10905522,
        "lon": -1.47841022,
        "name": "Mainguère",
        "code": 4152
      },
      "arrival": 39900,
      "departure": 39900
    },
    {
      "stop": {
        "id": "2_4153",
        "lat": 48.10706253,
        "lon": -1.47914293,
        "name": "Saules",
        "code": 4153
      },
      "arrival": 39900,
      "departure": 39900
    },
    {
      "stop": {
        "id": "2_4154",
        "lat": 48.10749969,
        "lon": -1.48292686,
        "name": "Provence",
        "code": 4154
      },
      "arrival": 39960,
      "departure": 39960
    },
    {
      "stop": {
        "id": "2_4155",
        "lat": 48.10758916,
        "lon": -1.48614508,
        "name": "Destiers",
        "code": 4155
      },
      "arrival": 40020,
      "departure": 40020
    },
    {
      "stop": {
        "id": "2_4156",
        "lat": 48.10941494,
        "lon": -1.50301501,
        "name": "Pâtis",
        "code": 4156
      },
      "arrival": 40140,
      "departure": 40140
    },
    {
      "stop": {
        "id": "2_4162",
        "lat": 48.10839196,
        "lon": -1.5077338,
        "name": "Turbanière",
        "code": 4162
      },
      "arrival": 40200,
      "departure": 40200
    },
    {
      "stop": {
        "id": "2_2085",
        "lat": 48.11613433,
        "lon": -1.58235705,
        "name": "Champelé",
        "code": 2085
      },
      "arrival": 40740,
      "departure": 40740
    },
    {
      "stop": {
        "id": "2_2038",
        "lat": 48.11496603,
        "lon": -1.59060111,
        "name": "Haut Grippé",
        "code": 2038
      },
      "arrival": 40740,
      "departure": 40740
    },
    {
      "stop": {
        "id": "2_2089",
        "lat": 48.11358949,
        "lon": -1.59050027,
        "name": "Rigourdière",
        "code": 2089
      },
      "arrival": 40800,
      "departure": 40800
    },
    {
      "stop": {
        "id": "2_2039",
        "lat": 48.11441474,
        "lon": -1.60044452,
        "name": "Bordage",
        "code": 2039
      },
      "arrival": 40980,
      "departure": 40980
    },
    {
      "stop": {
        "id": "2_2057",
        "lat": 48.11388631,
        "lon": -1.60325405,
        "name": "Cesson Gare",
        "code": 2057
      },
      "arrival": 41040,
      "departure": 41040
    },
    {
      "stop": {
        "id": "2_2058",
        "lat": 48.11260659,
        "lon": -1.60716704,
        "name": "Peupliers",
        "code": 2058
      },
      "arrival": 41040,
      "departure": 41040
    },
    {
      "stop": {
        "id": "2_2059",
        "lat": 48.10930792,
        "lon": -1.60901705,
        "name": "Monniais",
        "code": 2059
      },
      "arrival": 41160,
      "departure": 41160
    },
    {
      "stop": {
        "id": "2_2060",
        "lat": 48.10779161,
        "lon": -1.61466557,
        "name": "Rond Point de Bray",
        "code": 2060
      },
      "arrival": 41220,
      "departure": 41220
    },
    {
      "stop": {
        "id": "2_2016",
        "lat": 48.11418172,
        "lon": -1.62194938,
        "name": "Taillis",
        "code": 2016
      },
      "arrival": 41400,
      "departure": 41400
    },
    {
      "stop": {
        "id": "2_2017",
        "lat": 48.11408545,
        "lon": -1.63036724,
        "name": "Champs Péans",
        "code": 2017
      },
      "arrival": 41460,
      "departure": 41460
    },
    {
      "stop": {
        "id": "2_1609",
        "lat": 48.11416988,
        "lon": -1.63650542,
        "name": "Tournebride",
        "code": 1609
      },
      "arrival": 41520,
      "departure": 41520
    },
    {
      "stop": {
        "id": "2_1528",
        "lat": 48.11399429,
        "lon": -1.64435828,
        "name": "Piletière",
        "code": 1528
      },
      "arrival": 41640,
      "departure": 41640
    },
    {
      "stop": {
        "id": "2_1527",
        "lat": 48.11433481,
        "lon": -1.64920718,
        "name": "Moulin de Joué",
        "code": 1527
      },
      "arrival": 41700,
      "departure": 41700
    },
    {
      "stop": {
        "id": "2_1526",
        "lat": 48.11479096,
        "lon": -1.65317793,
        "name": "Hôpital Régnier",
        "code": 1526
      },
      "arrival": 41760,
      "departure": 41760
    },
    {
      "stop": {
        "id": "2_1474",
        "lat": 48.1135156,
        "lon": -1.65671606,
        "name": "Durafour Strasbourg",
        "code": 1474
      },
      "arrival": 41820,
      "departure": 41820
    },
    {
      "stop": {
        "id": "2_1163",
        "lat": 48.1101066,
        "lon": -1.66054614,
        "name": "Robidou",
        "code": 1163
      },
      "arrival": 41940,
      "departure": 41940
    },
    {
      "stop": {
        "id": "2_1556",
        "lat": 48.10943229,
        "lon": -1.67763328,
        "name": "République",
        "code": 1556
      },
      "arrival": 42180,
      "departure": 42180
    }
  ],
  "route": {
    "id": "2_0067",
    "textColor": "FFFFFF",
    "color": "E2003B",
    "description": "Métropolitaine",
    "longName": "Rennes (République) \u003c\u003e Cesson-Sévigné / Brécé",
    "shortName": "67",
    "type": 3,
    "agencyId": "2"
  }
}