{
  "headsign": "70 | Rennes Hoche",
  "stopTimes": [
    {
      "stop": {
        "id": "2_3951",
        "lat": 48.225212,
        "lon": -1.570409,
        "name": "Cropy",
        "code": 3951
      },
      "arrival": 47100,
      "departure": 47100
    },
    {
      "stop": {
        "id": "2_3952",
        "lat": 48.223261,
        "lon": -1.576352,
        "name": "Chesnais",
        "code": 3952
      },
      "arrival": 47160,
      "departure": 47160
    },
    {
      "stop": {
        "id": "2_3953",
        "lat": 48.217907,
        "lon": -1.581457,
        "name": "Bourg",
        "code": 3953
      },
      "arrival": 47220,
      "departure": 47220
    },
    {
      "stop": {
        "id": "2_3960",
        "lat": 48.214637,
        "lon": -1.586893,
        "name": "Terrain des Sports",
        "code": 3960
      },
      "arrival": 47280,
      "departure": 47280
    },
    {
      "stop": {
        "id": "2_3955",
        "lat": 48.211688,
        "lon": -1.590809,
        "name": "Tronchay",
        "code": 3955
      },
      "arrival": 47340,
      "departure": 47340
    },
    {
      "stop": {
        "id": "2_3964",
        "lat": 48.203759,
        "lon": -1.594768,
        "name": "Lande Saint Denis",
        "code": 3964
      },
      "arrival": 47400,
      "departure": 47400
    },
    {
      "stop": {
        "id": "2_3956",
        "lat": 48.199844,
        "lon": -1.597564,
        "name": "Oliverie",
        "code": 3956
      },
      "arrival": 47400,
      "departure": 47400
    },
    {
      "stop": {
        "id": "2_2422",
        "lat": 48.182171,
        "lon": -1.616139,
        "name": "Petite Hublais",
        "code": 2422
      },
      "arrival": 47580,
      "departure": 47580
    },
    {
      "stop": {
        "id": "2_2423",
        "lat": 48.175419,
        "lon": -1.622928,
        "name": "Cour Neuve",
        "code": 2423
      },
      "arrival": 47700,
      "departure": 47700
    },
    {
      "stop": {
        "id": "2_2424",
        "lat": 48.170897,
        "lon": -1.622292,
        "name": "Champ Giron",
        "code": 2424
      },
      "arrival": 47760,
      "departure": 47760
    },
    {
      "stop": {
        "id": "2_2425",
        "lat": 48.163742,
        "lon": -1.625164,
        "name": "Tihouït",
        "code": 2425
      },
      "arrival": 47820,
      "departure": 47820
    },
    {
      "stop": {
        "id": "2_2076",
        "lat": 48.134108,
        "lon": -1.62911,
        "name": "Lande Bouhard",
        "code": 2076
      },
      "arrival": 48060,
      "departure": 48060
    },
    {
      "stop": {
        "id": "2_1484",
        "lat": 48.131875,
        "lon": -1.635896,
        "name": "ZA Saint-Sulpice",
        "code": 1484
      },
      "arrival": 48120,
      "departure": 48120
    },
    {
      "stop": {
        "id": "2_1483",
        "lat": 48.12955,
        "lon": -1.64367,
        "name": "Pâtis Tatelin",
        "code": 1483
      },
      "arrival": 48240,
      "departure": 48240
    },
    {
      "stop": {
        "id": "2_1409",
        "lat": 48.126831,
        "lon": -1.653313,
        "name": "Joliot-Curie",
        "code": 1409
      },
      "arrival": 48360,
      "departure": 48360
    },
    {
      "stop": {
        "id": "2_1008",
        "lat": 48.123212,
        "lon": -1.660216,
        "name": "Painlevé",
        "code": 1008
      },
      "arrival": 48480,
      "departure": 48480
    },
    {
      "stop": {
        "id": "2_1009",
        "lat": 48.121635,
        "lon": -1.663186,
        "name": "Metz Volney",
        "code": 1009
      },
      "arrival": 48540,
      "departure": 48540
    },
    {
      "stop": {
        "id": "2_1011",
        "lat": 48.118312,
        "lon": -1.671315,
        "name": "Fac de Droit",
        "code": 1011
      },
      "arrival": 48660,
      "departure": 48660
    },
    {
      "stop": {
        "id": "2_1606",
        "lat": 48.115697,
        "lon": -1.676699,
        "name": "Hoche",
        "code": 1606
      },
      "arrival": 48780,
      "departure": 48780
    }
  ],
  "route": {
    "id": "2_0070",
    "textColor": "FFFFFF",
    "color": "EC748D",
    "description": "Métropolitaine",
    "longName": "Rennes (Hoche) \u003c\u003e Saint-Sulpice-la-Forêt",
    "shortName": "70",
    "type": 3,
    "agencyId": "2"
  }
}