{
  "headsign": "59 | Vern-sur-Seiche",
  "stopTimes": [
    {
      "stop": {
        "id": "2_2301",
        "lat": 48.02452888,
        "lon": -1.74523499,
        "name": "Bruz Centre",
        "code": 2301
      },
      "arrival": 59400,
      "departure": 59400
    },
    {
      "stop": {
        "id": "2_2302",
        "lat": 48.02485673,
        "lon": -1.7507341,
        "name": "Herverie",
        "code": 2302
      },
      "arrival": 59520,
      "departure": 59520
    },
    {
      "stop": {
        "id": "2_2331",
        "lat": 48.0215012,
        "lon": -1.75234104,
        "name": "Noë",
        "code": 2331
      },
      "arrival": 59640,
      "departure": 59640
    },
    {
      "stop": {
        "id": "2_2332",
        "lat": 48.01951953,
        "lon": -1.74505273,
        "name": "Epalet",
        "code": 2332
      },
      "arrival": 59700,
      "departure": 59700
    },
    {
      "stop": {
        "id": "2_2333",
        "lat": 48.02094067,
        "lon": -1.73809815,
        "name": "Du Guesclin",
        "code": 2333
      },
      "arrival": 59820,
      "departure": 59820
    },
    {
      "stop": {
        "id": "2_2334",
        "lat": 48.02378686,
        "lon": -1.73611312,
        "name": "Pasteur",
        "code": 2334
      },
      "arrival": 59880,
      "departure": 59880
    },
    {
      "stop": {
        "id": "2_2335",
        "lat": 48.02625491,
        "lon": -1.73452897,
        "name": "Bobinais",
        "code": 2335
      },
      "arrival": 59940,
      "departure": 59940
    },
    {
      "stop": {
        "id": "2_2336",
        "lat": 48.03021172,
        "lon": -1.73446075,
        "name": "Champ Niguel",
        "code": 2336
      },
      "arrival": 60000,
      "departure": 60000
    },
    {
      "stop": {
        "id": "2_2337",
        "lat": 48.03296043,
        "lon": -1.73309587,
        "name": "Lavoisier",
        "code": 2337
      },
      "arrival": 60000,
      "departure": 60000
    },
    {
      "stop": {
        "id": "2_2359",
        "lat": 48.03571609,
        "lon": -1.72330707,
        "name": "Doublé",
        "code": 2359
      },
      "arrival": 60120,
      "departure": 60120
    },
    {
      "stop": {
        "id": "2_2901",
        "lat": 48.04675983,
        "lon": -1.71061532,
        "name": "Croix aux Potiers",
        "code": 2901
      },
      "arrival": 60300,
      "departure": 60300
    },
    {
      "stop": {
        "id": "2_2701",
        "lat": 48.05897113,
        "lon": -1.70107764,
        "name": "Janais",
        "code": 2701
      },
      "arrival": 60480,
      "departure": 60480
    },
    {
      "stop": {
        "id": "2_2702",
        "lat": 48.06829803,
        "lon": -1.69763551,
        "name": "Vallon",
        "code": 2702
      },
      "arrival": 60600,
      "departure": 60600
    },
    {
      "stop": {
        "id": "2_1267",
        "lat": 48.0857359,
        "lon": -1.69390359,
        "name": "Félix Eboué",
        "code": 1267
      },
      "arrival": 60840,
      "departure": 60840
    },
    {
      "stop": {
        "id": "2_1456",
        "lat": 48.08658018,
        "lon": -1.68739623,
        "name": "Coubertin",
        "code": 1456
      },
      "arrival": 60960,
      "departure": 60960
    },
    {
      "stop": {
        "id": "2_1457",
        "lat": 48.08679431,
        "lon": -1.6838896,
        "name": "Norvège",
        "code": 1457
      },
      "arrival": 61020,
      "departure": 61020
    },
    {
      "stop": {
        "id": "2_1509",
        "lat": 48.08810982,
        "lon": -1.67444972,
        "name": "Henri Fréville",
        "code": 1509
      },
      "arrival": 61260,
      "departure": 61260
    },
    {
      "stop": {
        "id": "2_1350",
        "lat": 48.08358341,
        "lon": -1.67230489,
        "name": "Portugal",
        "code": 1350
      },
      "arrival": 61440,
      "departure": 61440
    },
    {
      "stop": {
        "id": "2_1351",
        "lat": 48.08348914,
        "lon": -1.6673577,
        "name": "Douro",
        "code": 1351
      },
      "arrival": 61560,
      "departure": 61560
    },
    {
      "stop": {
        "id": "2_1352",
        "lat": 48.08346405,
        "lon": -1.66326727,
        "name": "Tage",
        "code": 1352
      },
      "arrival": 61620,
      "departure": 61620
    },
    {
      "stop": {
        "id": "2_1353",
        "lat": 48.08455564,
        "lon": -1.65800916,
        "name": "Torigné",
        "code": 1353
      },
      "arrival": 61740,
      "departure": 61740
    },
    {
      "stop": {
        "id": "2_1354",
        "lat": 48.08448593,
        "lon": -1.65324443,
        "name": "Hôpital Sud",
        "code": 1354
      },
      "arrival": 61800,
      "departure": 61800
    },
    {
      "stop": {
        "id": "2_1355",
        "lat": 48.08492855,
        "lon": -1.65085793,
        "name": "Sainte-Elisabeth",
        "code": 1355
      },
      "arrival": 61860,
      "departure": 61860
    },
    {
      "stop": {
        "id": "2_1356",
        "lat": 48.08753214,
        "lon": -1.64998384,
        "name": "Galicie",
        "code": 1356
      },
      "arrival": 61980,
      "departure": 61980
    },
    {
      "stop": {
        "id": "2_1533",
        "lat": 48.0876001,
        "lon": -1.64346288,
        "name": "La Poterie",
        "code": 1533
      },
      "arrival": 62100,
      "departure": 62100
    },
    {
      "stop": {
        "id": "2_3025",
        "lat": 48.07677535,
        "lon": -1.6317662,
        "name": "Martinière",
        "code": 3025
      },
      "arrival": 62520,
      "departure": 62520
    },
    {
      "stop": {
        "id": "2_2612",
        "lat": 48.07231683,
        "lon": -1.62869899,
        "name": "Hallerais",
        "code": 2612
      },
      "arrival": 62640,
      "departure": 62640
    },
    {
      "stop": {
        "id": "2_2613",
        "lat": 48.0675792,
        "lon": -1.62562134,
        "name": "Garenne",
        "code": 2613
      },
      "arrival": 62700,
      "departure": 62700
    },
    {
      "stop": {
        "id": "2_2614",
        "lat": 48.06399931,
        "lon": -1.62290098,
        "name": "Val d\u0027Orson",
        "code": 2614
      },
      "arrival": 62760,
      "departure": 62760
    },
    {
      "stop": {
        "id": "2_2615",
        "lat": 48.05902525,
        "lon": -1.61665722,
        "name": "Bretonnière",
        "code": 2615
      },
      "arrival": 62880,
      "departure": 62880
    },
    {
      "stop": {
        "id": "2_2616",
        "lat": 48.05258582,
        "lon": -1.61398421,
        "name": "Haute Abbaye",
        "code": 2616
      },
      "arrival": 63000,
      "departure": 63000
    },
    {
      "stop": {
        "id": "2_2637",
        "lat": 48.049703,
        "lon": -1.61531908,
        "name": "Solidor",
        "code": 2637
      },
      "arrival": 63060,
      "departure": 63060
    },
    {
      "stop": {
        "id": "2_2605",
        "lat": 48.04944754,
        "lon": -1.60981381,
        "name": "Fosse Gauchère",
        "code": 2605
      },
      "arrival": 63180,
      "departure": 63180
    },
    {
      "stop": {
        "id": "2_2618",
        "lat": 48.04914163,
        "lon": -1.6059535,
        "name": "Croix Rouge",
        "code": 2618
      },
      "arrival": 63240,
      "departure": 63240
    },
    {
      "stop": {
        "id": "2_2634",
        "lat": 48.04709878,
        "lon": -1.60264331,
        "name": "Vern Eglise",
        "code": 2634
      },
      "arrival": 63300,
      "departure": 63300
    },
    {
      "stop": {
        "id": "2_2620",
        "lat": 48.04354744,
        "lon": -1.60171592,
        "name": "Bel Air",
        "code": 2620
      },
      "arrival": 63360,
      "departure": 63360
    },
    {
      "stop": {
        "id": "2_2621",
        "lat": 48.04090176,
        "lon": -1.60229224,
        "name": "Vern La Touche",
        "code": 2621
      },
      "arrival": 63420,
      "departure": 63420
    },
    {
      "stop": {
        "id": "2_2601",
        "lat": 48.03852387,
        "lon": -1.60247514,
        "name": "Croix Malinge",
        "code": 2601
      },
      "arrival": 63480,
      "departure": 63480
    }
  ],
  "route": {
    "id": "2_0059",
    "textColor": "1A171B",
    "color": "F19FC1",
    "description": "Métropolitaine",
    "longName": "Vern-sur-Seiche \u003c\u003e Rennes (La Poterie) / Rennes (Henri Fréville) \u003c\u003e Bruz (Centre)",
    "shortName": "59",
    "type": 3,
    "agencyId": "2"
  }
}