{
  "headsign": "74 | Orgères",
  "stopTimes": [
    {
      "stop": {
        "id": "2_1534",
        "lat": 48.08831453,
        "lon": -1.67444337,
        "name": "Henri Fréville",
        "code": 1534
      },
      "arrival": 57900,
      "departure": 57900
    },
    {
      "stop": {
        "id": "2_4357",
        "lat": 48.01706279,
        "lon": -1.66474597,
        "name": "Croix du Pigeonnet",
        "code": 4357
      },
      "arrival": 58620,
      "departure": 58620
    },
    {
      "stop": {
        "id": "2_3249",
        "lat": 48.01492798,
        "lon": -1.66396872,
        "name": "Orgerblon",
        "code": 3249
      },
      "arrival": 58620,
      "departure": 58620
    },
    {
      "stop": {
        "id": "2_3216",
        "lat": 48.00913379,
        "lon": -1.66637462,
        "name": "Plardière",
        "code": 3216
      },
      "arrival": 58680,
      "departure": 58680
    },
    {
      "stop": {
        "id": "2_3217",
        "lat": 48.00045136,
        "lon": -1.66706223,
        "name": "Levant",
        "code": 3217
      },
      "arrival": 58800,
      "departure": 58800
    },
    {
      "stop": {
        "id": "2_3218",
        "lat": 47.99689445,
        "lon": -1.66900508,
        "name": "Groupe Scolaire",
        "code": 3218
      },
      "arrival": 58860,
      "departure": 58860
    },
    {
      "stop": {
        "id": "2_3219",
        "lat": 47.99494128,
        "lon": -1.67090261,
        "name": "Coteau",
        "code": 3219
      },
      "arrival": 58920,
      "departure": 58920
    },
    {
      "stop": {
        "id": "2_3220",
        "lat": 47.99225072,
        "lon": -1.66789719,
        "name": "Surcouf",
        "code": 3220
      },
      "arrival": 58980,
      "departure": 58980
    },
    {
      "stop": {
        "id": "2_3221",
        "lat": 47.99372623,
        "lon": -1.6652472,
        "name": "Chateaubriand",
        "code": 3221
      },
      "arrival": 59100,
      "departure": 59100
    }
  ],
  "route": {
    "id": "2_0074",
    "textColor": "201D21",
    "color": "F6C200",
    "description": "Métropolitaine",
    "longName": "Rennes (Henri Fréville) \u003c\u003e Orgères / Bourgbarré",
    "shortName": "74",
    "type": 3,
    "agencyId": "2"
  }
}