{
  "headsign": "76 | Rennes Lycée Basch",
  "stopTimes": [
    {
      "stop": {
        "id": "2_3851",
        "lat": 48.074582,
        "lon": -1.853723,
        "name": "Mordelles Pâtis",
        "code": 3851
      },
      "arrival": 32400,
      "departure": 32400
    },
    {
      "stop": {
        "id": "2_3852",
        "lat": 48.071956,
        "lon": -1.849829,
        "name": "Mordelles Eglise",
        "code": 3852
      },
      "arrival": 32520,
      "departure": 32520
    },
    {
      "stop": {
        "id": "2_3853",
        "lat": 48.073718,
        "lon": -1.846282,
        "name": "Mordelles Mairie",
        "code": 3853
      },
      "arrival": 32580,
      "departure": 32580
    },
    {
      "stop": {
        "id": "2_3854",
        "lat": 48.075808,
        "lon": -1.842153,
        "name": "Mordelles Lilas",
        "code": 3854
      },
      "arrival": 32640,
      "departure": 32640
    },
    {
      "stop": {
        "id": "2_3855",
        "lat": 48.077668,
        "lon": -1.837422,
        "name": "Gretay",
        "code": 3855
      },
      "arrival": 32760,
      "departure": 32760
    },
    {
      "stop": {
        "id": "2_2542",
        "lat": 48.094662,
        "lon": -1.795681,
        "name": "Egalité",
        "code": 2542
      },
      "arrival": 33180,
      "departure": 33180
    },
    {
      "stop": {
        "id": "2_2540",
        "lat": 48.09683,
        "lon": -1.79811,
        "name": "Acquêts",
        "code": 2540
      },
      "arrival": 33240,
      "departure": 33240
    },
    {
      "stop": {
        "id": "2_2504",
        "lat": 48.098973,
        "lon": -1.796821,
        "name": "Brassens",
        "code": 2504
      },
      "arrival": 33240,
      "departure": 33240
    },
    {
      "stop": {
        "id": "2_2505",
        "lat": 48.101535,
        "lon": -1.794453,
        "name": "Bouleaux",
        "code": 2505
      },
      "arrival": 33300,
      "departure": 33300
    },
    {
      "stop": {
        "id": "2_2538",
        "lat": 48.102271,
        "lon": -1.787379,
        "name": "Gaston Bardet",
        "code": 2538
      },
      "arrival": 33360,
      "departure": 33360
    },
    {
      "stop": {
        "id": "2_3756",
        "lat": 48.119004,
        "lon": -1.760926,
        "name": "Lion d\u0027Or",
        "code": 3756
      },
      "arrival": 33900,
      "departure": 33900
    },
    {
      "stop": {
        "id": "2_3757",
        "lat": 48.11887,
        "lon": -1.756833,
        "name": "Vezin Centre",
        "code": 3757
      },
      "arrival": 33960,
      "departure": 33960
    },
    {
      "stop": {
        "id": "2_3770",
        "lat": 48.118999,
        "lon": -1.749372,
        "name": "Champs Bleus",
        "code": 3770
      },
      "arrival": 34020,
      "departure": 34020
    },
    {
      "stop": {
        "id": "2_1503",
        "lat": 48.116133,
        "lon": -1.715924,
        "name": "Colin",
        "code": 1503
      },
      "arrival": 34320,
      "departure": 34320
    },
    {
      "stop": {
        "id": "2_1422",
        "lat": 48.116261,
        "lon": -1.711309,
        "name": "Merlin",
        "code": 1422
      },
      "arrival": 34380,
      "departure": 34380
    },
    {
      "stop": {
        "id": "2_1295",
        "lat": 48.116762,
        "lon": -1.704608,
        "name": "Berger",
        "code": 1295
      },
      "arrival": 34500,
      "departure": 34500
    },
    {
      "stop": {
        "id": "2_1297",
        "lat": 48.121918,
        "lon": -1.703705,
        "name": "Villejean-Université",
        "code": 1297
      },
      "arrival": 34680,
      "departure": 34680
    },
    {
      "stop": {
        "id": "2_1566",
        "lat": 48.125304,
        "lon": -1.692431,
        "name": "Lycée Basch",
        "code": 1566
      },
      "arrival": 34920,
      "departure": 34920
    }
  ],
  "route": {
    "id": "2_0076",
    "textColor": "1A171B",
    "color": "62C3D5",
    "description": "Métropolitaine",
    "longName": "Rennes (Villejean-Université) \u003c\u003e Vezin-le-Coquet / Le Rheu / Mordelles",
    "shortName": "76",
    "type": 3,
    "agencyId": "2"
  }
}