{
  "headsign": "159 | Rennes Henri Fréville",
  "stopTimes": [
    {
      "stop": {
        "id": "2_2301",
        "lat": 48.02452888,
        "lon": -1.74523499,
        "name": "Bruz Centre",
        "code": 2301
      },
      "arrival": 28200,
      "departure": 28200
    },
    {
      "stop": {
        "id": "2_2302",
        "lat": 48.02485673,
        "lon": -1.7507341,
        "name": "Herverie",
        "code": 2302
      },
      "arrival": 28320,
      "departure": 28320
    },
    {
      "stop": {
        "id": "2_2331",
        "lat": 48.0215012,
        "lon": -1.75234104,
        "name": "Noë",
        "code": 2331
      },
      "arrival": 28440,
      "departure": 28440
    },
    {
      "stop": {
        "id": "2_2332",
        "lat": 48.01951953,
        "lon": -1.74505273,
        "name": "Epalet",
        "code": 2332
      },
      "arrival": 28560,
      "departure": 28560
    },
    {
      "stop": {
        "id": "2_2333",
        "lat": 48.02094067,
        "lon": -1.73809815,
        "name": "Du Guesclin",
        "code": 2333
      },
      "arrival": 28680,
      "departure": 28680
    },
    {
      "stop": {
        "id": "2_2334",
        "lat": 48.02378685,
        "lon": -1.73611312,
        "name": "Pasteur",
        "code": 2334
      },
      "arrival": 28740,
      "departure": 28740
    },
    {
      "stop": {
        "id": "2_2335",
        "lat": 48.0262549,
        "lon": -1.73452897,
        "name": "Bobinais",
        "code": 2335
      },
      "arrival": 28800,
      "departure": 28800
    },
    {
      "stop": {
        "id": "2_2336",
        "lat": 48.03021172,
        "lon": -1.73446075,
        "name": "Champ Niguel",
        "code": 2336
      },
      "arrival": 28920,
      "departure": 28920
    },
    {
      "stop": {
        "id": "2_1509",
        "lat": 48.08810982,
        "lon": -1.67444972,
        "name": "Henri Fréville",
        "code": 1509
      },
      "arrival": 30000,
      "departure": 30000
    }
  ],
  "route": {
    "id": "2_0159",
    "textColor": "F09CBE",
    "color": "FCE000",
    "description": "Express métropolitaine",
    "longName": "Rennes (Henri Fréville) \u003c\u003e Bruz (Centre)",
    "shortName": "159",
    "type": 3,
    "agencyId": "2"
  }
}