{
  "headsign": "65 | Rennes Villejean-Université",
  "stopTimes": [
    {
      "stop": {
        "id": "2_3617",
        "lat": 48.193762,
        "lon": -1.832214,
        "name": "Parthenay Fontaine",
        "code": 3617
      },
      "arrival": 31500,
      "departure": 31500
    },
    {
      "stop": {
        "id": "2_3602",
        "lat": 48.192003,
        "lon": -1.831209,
        "name": "Parthenay Mairie",
        "code": 3602
      },
      "arrival": 31560,
      "departure": 31560
    },
    {
      "stop": {
        "id": "2_3603",
        "lat": 48.191638,
        "lon": -1.827121,
        "name": "Clos des Tilleuls",
        "code": 3603
      },
      "arrival": 31620,
      "departure": 31620
    },
    {
      "stop": {
        "id": "2_3604",
        "lat": 48.191281,
        "lon": -1.824629,
        "name": "La Noë",
        "code": 3604
      },
      "arrival": 31620,
      "departure": 31620
    },
    {
      "stop": {
        "id": "2_3605",
        "lat": 48.189982,
        "lon": -1.820845,
        "name": "Placis de la Touche",
        "code": 3605
      },
      "arrival": 31620,
      "departure": 31620
    },
    {
      "stop": {
        "id": "2_3606",
        "lat": 48.186405,
        "lon": -1.816641,
        "name": "Le Reuvre",
        "code": 3606
      },
      "arrival": 31680,
      "departure": 31680
    },
    {
      "stop": {
        "id": "2_3145",
        "lat": 48.179959,
        "lon": -1.801675,
        "name": "Touche Champagne",
        "code": 3145
      },
      "arrival": 31800,
      "departure": 31800
    },
    {
      "stop": {
        "id": "2_3123",
        "lat": 48.174088,
        "lon": -1.789401,
        "name": "Chapitre",
        "code": 3123
      },
      "arrival": 31920,
      "departure": 31920
    },
    {
      "stop": {
        "id": "2_3142",
        "lat": 48.167342,
        "lon": -1.787109,
        "name": "Haute Rabine",
        "code": 3142
      },
      "arrival": 32040,
      "departure": 32040
    },
    {
      "stop": {
        "id": "2_3136",
        "lat": 48.15469,
        "lon": -1.784414,
        "name": "Pont Amelin",
        "code": 3136
      },
      "arrival": 32160,
      "departure": 32160
    },
    {
      "stop": {
        "id": "2_3107",
        "lat": 48.151185,
        "lon": -1.77754,
        "name": "Renan",
        "code": 3107
      },
      "arrival": 32340,
      "departure": 32340
    },
    {
      "stop": {
        "id": "2_3108",
        "lat": 48.151022,
        "lon": -1.772024,
        "name": "Duchesse Anne",
        "code": 3108
      },
      "arrival": 32400,
      "departure": 32400
    },
    {
      "stop": {
        "id": "2_3109",
        "lat": 48.148142,
        "lon": -1.769909,
        "name": "Pacé Cimetière",
        "code": 3109
      },
      "arrival": 32460,
      "departure": 32460
    },
    {
      "stop": {
        "id": "2_3110",
        "lat": 48.145758,
        "lon": -1.770753,
        "name": "Carré Dumaine",
        "code": 3110
      },
      "arrival": 32520,
      "departure": 32520
    },
    {
      "stop": {
        "id": "2_3111",
        "lat": 48.142756,
        "lon": -1.770101,
        "name": "Le Ponant",
        "code": 3111
      },
      "arrival": 32580,
      "departure": 32580
    },
    {
      "stop": {
        "id": "2_1517",
        "lat": 48.118565,
        "lon": -1.713574,
        "name": "Berry",
        "code": 1517
      },
      "arrival": 33060,
      "departure": 33060
    },
    {
      "stop": {
        "id": "2_1520",
        "lat": 48.120473,
        "lon": -1.709574,
        "name": "Bourbonnais",
        "code": 1520
      },
      "arrival": 33120,
      "departure": 33120
    },
    {
      "stop": {
        "id": "2_1519",
        "lat": 48.121064,
        "lon": -1.702976,
        "name": "Villejean-Université",
        "code": 1519
      },
      "arrival": 33300,
      "departure": 33300
    }
  ],
  "route": {
    "id": "2_0065",
    "textColor": "FFFFFF",
    "color": "E36DA3",
    "description": "Métropolitaine",
    "longName": "Rennes (Villejean-Université) \u003c\u003e Pacé / Parthenay-de-Bretagne",
    "shortName": "65",
    "type": 3,
    "agencyId": "2"
  }
}