{
  "headsign": "78 | Rennes Villejean-Université",
  "stopTimes": [
    {
      "stop": {
        "id": "2_2437",
        "lat": 48.18157224,
        "lon": -1.63928389,
        "name": "Betton Centre",
        "code": 2437
      },
      "arrival": 36900,
      "departure": 36900
    },
    {
      "stop": {
        "id": "2_2418",
        "lat": 48.18191157,
        "lon": -1.64120022,
        "name": "Betton Mairie",
        "code": 2418
      },
      "arrival": 36900,
      "departure": 36900
    },
    {
      "stop": {
        "id": "2_2448",
        "lat": 48.18380616,
        "lon": -1.64642136,
        "name": "Trégor",
        "code": 2448
      },
      "arrival": 37020,
      "departure": 37020
    },
    {
      "stop": {
        "id": "2_2438",
        "lat": 48.18498629,
        "lon": -1.65009721,
        "name": "Mézières",
        "code": 2438
      },
      "arrival": 37020,
      "departure": 37020
    },
    {
      "stop": {
        "id": "2_2420",
        "lat": 48.18060633,
        "lon": -1.65213707,
        "name": "Brocéliande",
        "code": 2420
      },
      "arrival": 37200,
      "departure": 37200
    },
    {
      "stop": {
        "id": "2_2439",
        "lat": 48.1786926,
        "lon": -1.65586322,
        "name": "Renaudais",
        "code": 2439
      },
      "arrival": 37200,
      "departure": 37200
    },
    {
      "stop": {
        "id": "2_2442",
        "lat": 48.17827841,
        "lon": -1.66071277,
        "name": "Pont Brand",
        "code": 2442
      },
      "arrival": 37320,
      "departure": 37320
    },
    {
      "stop": {
        "id": "2_2452",
        "lat": 48.17544577,
        "lon": -1.66238804,
        "name": "Chaperonnais",
        "code": 2452
      },
      "arrival": 37380,
      "departure": 37380
    },
    {
      "stop": {
        "id": "2_2833",
        "lat": 48.16021057,
        "lon": -1.67713605,
        "name": "Jean-Paul II",
        "code": 2833
      },
      "arrival": 37560,
      "departure": 37560
    },
    {
      "stop": {
        "id": "2_2831",
        "lat": 48.15358811,
        "lon": -1.67869141,
        "name": "Holywell",
        "code": 2831
      },
      "arrival": 37680,
      "departure": 37680
    },
    {
      "stop": {
        "id": "2_2848",
        "lat": 48.15190932,
        "lon": -1.68441346,
        "name": "Forge",
        "code": 2848
      },
      "arrival": 37800,
      "departure": 37800
    },
    {
      "stop": {
        "id": "2_2850",
        "lat": 48.15450859,
        "lon": -1.6926089,
        "name": "Paul-Emile Victor",
        "code": 2850
      },
      "arrival": 37980,
      "departure": 37980
    },
    {
      "stop": {
        "id": "2_2838",
        "lat": 48.15390935,
        "lon": -1.69690048,
        "name": "Alphasis",
        "code": 2838
      },
      "arrival": 38040,
      "departure": 38040
    },
    {
      "stop": {
        "id": "2_2817",
        "lat": 48.14303309,
        "lon": -1.68650406,
        "name": "CHP Saint-Grégoire",
        "code": 2817
      },
      "arrival": 38280,
      "departure": 38280
    },
    {
      "stop": {
        "id": "2_2803",
        "lat": 48.13739455,
        "lon": -1.6885143,
        "name": "La Plesse",
        "code": 2803
      },
      "arrival": 38400,
      "departure": 38400
    },
    {
      "stop": {
        "id": "2_2801",
        "lat": 48.13580524,
        "lon": -1.69311343,
        "name": "Grand Quartier",
        "code": 2801
      },
      "arrival": 38460,
      "departure": 38460
    },
    {
      "stop": {
        "id": "2_1537",
        "lat": 48.13157495,
        "lon": -1.69170144,
        "name": "Léonard",
        "code": 1537
      },
      "arrival": 38580,
      "departure": 38580
    },
    {
      "stop": {
        "id": "2_1493",
        "lat": 48.12716785,
        "lon": -1.69331906,
        "name": "Lycée Basch",
        "code": 1493
      },
      "arrival": 38700,
      "departure": 38700
    },
    {
      "stop": {
        "id": "2_1497",
        "lat": 48.12102411,
        "lon": -1.70300103,
        "name": "Villejean-Université",
        "code": 1497
      },
      "arrival": 38940,
      "departure": 38940
    }
  ],
  "route": {
    "id": "2_0078",
    "textColor": "FFFFFF",
    "color": "E10068",
    "description": "Métropolitaine",
    "longName": "Rennes (Villejean-Université) \u003c\u003e Saint-Grégoire / Betton (Centre)",
    "shortName": "78",
    "type": 3,
    "agencyId": "2"
  }
}