{
  "headsign": "78 | Rennes Villejean-Université",
  "stopTimes": [
    {
      "stop": {
        "id": "2_2437",
        "lat": 48.18157224,
        "lon": -1.63928389,
        "name": "Betton Centre",
        "code": 2437
      },
      "arrival": 51300,
      "departure": 51300
    },
    {
      "stop": {
        "id": "2_2418",
        "lat": 48.18191157,
        "lon": -1.64120022,
        "name": "Betton Mairie",
        "code": 2418
      },
      "arrival": 51300,
      "departure": 51300
    },
    {
      "stop": {
        "id": "2_2448",
        "lat": 48.18380616,
        "lon": -1.64642136,
        "name": "Trégor",
        "code": 2448
      },
      "arrival": 51420,
      "departure": 51420
    },
    {
      "stop": {
        "id": "2_2438",
        "lat": 48.18498629,
        "lon": -1.65009721,
        "name": "Mézières",
        "code": 2438
      },
      "arrival": 51420,
      "departure": 51420
    },
    {
      "stop": {
        "id": "2_2420",
        "lat": 48.18060633,
        "lon": -1.65213707,
        "name": "Brocéliande",
        "code": 2420
      },
      "arrival": 51600,
      "departure": 51600
    },
    {
      "stop": {
        "id": "2_2439",
        "lat": 48.1786926,
        "lon": -1.65586322,
        "name": "Renaudais",
        "code": 2439
      },
      "arrival": 51600,
      "departure": 51600
    },
    {
      "stop": {
        "id": "2_2442",
        "lat": 48.17827841,
        "lon": -1.66071277,
        "name": "Pont Brand",
        "code": 2442
      },
      "arrival": 51720,
      "departure": 51720
    },
    {
      "stop": {
        "id": "2_2452",
        "lat": 48.17544577,
        "lon": -1.66238804,
        "name": "Chaperonnais",
        "code": 2452
      },
      "arrival": 51780,
      "departure": 51780
    },
    {
      "stop": {
        "id": "2_2833",
        "lat": 48.16021057,
        "lon": -1.67713605,
        "name": "Jean-Paul II",
        "code": 2833
      },
      "arrival": 51960,
      "departure": 51960
    },
    {
      "stop": {
        "id": "2_2831",
        "lat": 48.15358811,
        "lon": -1.67869141,
        "name": "Holywell",
        "code": 2831
      },
      "arrival": 52080,
      "departure": 52080
    },
    {
      "stop": {
        "id": "2_2848",
        "lat": 48.15190932,
        "lon": -1.68441346,
        "name": "Forge",
        "code": 2848
      },
      "arrival": 52200,
      "departure": 52200
    },
    {
      "stop": {
        "id": "2_2850",
        "lat": 48.15450859,
        "lon": -1.6926089,
        "name": "Paul-Emile Victor",
        "code": 2850
      },
      "arrival": 52380,
      "departure": 52380
    },
    {
      "stop": {
        "id": "2_2838",
        "lat": 48.15390935,
        "lon": -1.69690048,
        "name": "Alphasis",
        "code": 2838
      },
      "arrival": 52440,
      "departure": 52440
    },
    {
      "stop": {
        "id": "2_2817",
        "lat": 48.14303309,
        "lon": -1.68650406,
        "name": "CHP Saint-Grégoire",
        "code": 2817
      },
      "arrival": 52680,
      "departure": 52680
    },
    {
      "stop": {
        "id": "2_2803",
        "lat": 48.13739455,
        "lon": -1.6885143,
        "name": "La Plesse",
        "code": 2803
      },
      "arrival": 52800,
      "departure": 52800
    },
    {
      "stop": {
        "id": "2_2801",
        "lat": 48.13580524,
        "lon": -1.69311343,
        "name": "Grand Quartier",
        "code": 2801
      },
      "arrival": 52860,
      "departure": 52860
    },
    {
      "stop": {
        "id": "2_1537",
        "lat": 48.13157495,
        "lon": -1.69170144,
        "name": "Léonard",
        "code": 1537
      },
      "arrival": 52980,
      "departure": 52980
    },
    {
      "stop": {
        "id": "2_1493",
        "lat": 48.12716785,
        "lon": -1.69331906,
        "name": "Lycée Basch",
        "code": 1493
      },
      "arrival": 53100,
      "departure": 53100
    },
    {
      "stop": {
        "id": "2_1497",
        "lat": 48.12102411,
        "lon": -1.70300103,
        "name": "Villejean-Université",
        "code": 1497
      },
      "arrival": 53340,
      "departure": 53340
    }
  ],
  "route": {
    "id": "2_0078",
    "textColor": "FFFFFF",
    "color": "E10068",
    "description": "Métropolitaine",
    "longName": "Rennes (Villejean-Université) \u003c\u003e Saint-Grégoire / Betton (Centre)",
    "shortName": "78",
    "type": 3,
    "agencyId": "2"
  }
}