{
  "headsign": "55 | Rennes Charles de Gaulle",
  "stopTimes": [
    {
      "stop": {
        "id": "2_3851",
        "lat": 48.07460255,
        "lon": -1.85367611,
        "name": "Mordelles Pâtis",
        "code": 3851
      },
      "arrival": 31200,
      "departure": 31200
    },
    {
      "stop": {
        "id": "2_3852",
        "lat": 48.07194172,
        "lon": -1.84998802,
        "name": "Mordelles Eglise",
        "code": 3852
      },
      "arrival": 31380,
      "departure": 31380
    },
    {
      "stop": {
        "id": "2_3853",
        "lat": 48.07371138,
        "lon": -1.84642407,
        "name": "Mordelles Mairie",
        "code": 3853
      },
      "arrival": 31440,
      "departure": 31440
    },
    {
      "stop": {
        "id": "2_3854",
        "lat": 48.07584083,
        "lon": -1.8422202,
        "name": "Mordelles Lilas",
        "code": 3854
      },
      "arrival": 31500,
      "departure": 31500
    },
    {
      "stop": {
        "id": "2_3855",
        "lat": 48.07771885,
        "lon": -1.83754903,
        "name": "Gretay",
        "code": 3855
      },
      "arrival": 31620,
      "departure": 31620
    },
    {
      "stop": {
        "id": "2_3856",
        "lat": 48.08132274,
        "lon": -1.82684642,
        "name": "Croix Ignon",
        "code": 3856
      },
      "arrival": 31680,
      "departure": 31680
    },
    {
      "stop": {
        "id": "2_3857",
        "lat": 48.08396909,
        "lon": -1.81374094,
        "name": "Grande Fontaine",
        "code": 3857
      },
      "arrival": 31800,
      "departure": 31800
    },
    {
      "stop": {
        "id": "2_3858",
        "lat": 48.08822018,
        "lon": -1.79882901,
        "name": "Vivier des Bois",
        "code": 3858
      },
      "arrival": 31920,
      "departure": 31920
    },
    {
      "stop": {
        "id": "2_2521",
        "lat": 48.09102311,
        "lon": -1.78689214,
        "name": "Gerhoui",
        "code": 2521
      },
      "arrival": 31980,
      "departure": 31980
    },
    {
      "stop": {
        "id": "2_2522",
        "lat": 48.09401721,
        "lon": -1.77398903,
        "name": "Mahomat",
        "code": 2522
      },
      "arrival": 32100,
      "departure": 32100
    },
    {
      "stop": {
        "id": "2_2509",
        "lat": 48.09614161,
        "lon": -1.76472044,
        "name": "Pont d\u0027Avoine",
        "code": 2509
      },
      "arrival": 32220,
      "departure": 32220
    },
    {
      "stop": {
        "id": "2_3752",
        "lat": 48.10474061,
        "lon": -1.73906178,
        "name": "Trois Marches",
        "code": 3752
      },
      "arrival": 32520,
      "departure": 32520
    },
    {
      "stop": {
        "id": "2_1508",
        "lat": 48.10673486,
        "lon": -1.7291459,
        "name": "Berthault",
        "code": 1508
      },
      "arrival": 32640,
      "departure": 32640
    },
    {
      "stop": {
        "id": "2_1233",
        "lat": 48.10704453,
        "lon": -1.72187845,
        "name": "Lemaistre",
        "code": 1233
      },
      "arrival": 32700,
      "departure": 32700
    },
    {
      "stop": {
        "id": "2_1235",
        "lat": 48.10892663,
        "lon": -1.70977108,
        "name": "Géniaux",
        "code": 1235
      },
      "arrival": 32880,
      "departure": 32880
    },
    {
      "stop": {
        "id": "2_1238",
        "lat": 48.10869591,
        "lon": -1.69884796,
        "name": "Guilloux Lorient",
        "code": 1238
      },
      "arrival": 33000,
      "departure": 33000
    },
    {
      "stop": {
        "id": "2_1239",
        "lat": 48.10827073,
        "lon": -1.6941653,
        "name": "Chèques Postaux",
        "code": 1239
      },
      "arrival": 33120,
      "departure": 33120
    },
    {
      "stop": {
        "id": "2_1542",
        "lat": 48.10997275,
        "lon": -1.68535336,
        "name": "Pont de Bretagne",
        "code": 1542
      },
      "arrival": 33300,
      "departure": 33300
    },
    {
      "stop": {
        "id": "2_1242",
        "lat": 48.10980333,
        "lon": -1.6795219,
        "name": "République",
        "code": 1242
      },
      "arrival": 33420,
      "departure": 33420
    },
    {
      "stop": {
        "id": "2_1088",
        "lat": 48.10744897,
        "lon": -1.67491383,
        "name": "Liberté TNB",
        "code": 1088
      },
      "arrival": 33600,
      "departure": 33600
    },
    {
      "stop": {
        "id": "2_1567",
        "lat": 48.1062288,
        "lon": -1.67750174,
        "name": "Charles de Gaulle",
        "code": 1567
      },
      "arrival": 33720,
      "departure": 33720
    }
  ],
  "route": {
    "id": "2_0055",
    "textColor": "1A171B",
    "color": "F7A800",
    "description": "Métropolitaine",
    "longName": "Rennes (Charles de Gaulle) \u003c\u003e Mordelles / Le Verger",
    "shortName": "55",
    "type": 3,
    "agencyId": "2"
  }
}