{
  "headsign": "90 | Saint-Jacques Morinais",
  "stopTimes": [
    {
      "stop": {
        "id": "2_1447",
        "lat": 48.08731589,
        "lon": -1.6750163,
        "name": "Henri Fréville",
        "code": 1447
      },
      "arrival": 29700,
      "departure": 29700
    },
    {
      "stop": {
        "id": "2_2217",
        "lat": 48.09062505,
        "lon": -1.69500771,
        "name": "25 Fusillés",
        "code": 2217
      },
      "arrival": 30000,
      "departure": 30000
    },
    {
      "stop": {
        "id": "2_2231",
        "lat": 48.08691375,
        "lon": -1.70659822,
        "name": "Gaité",
        "code": 2231
      },
      "arrival": 30180,
      "departure": 30180
    },
    {
      "stop": {
        "id": "2_2251",
        "lat": 48.08662772,
        "lon": -1.7130712,
        "name": "Maffeys",
        "code": 2251
      },
      "arrival": 30240,
      "departure": 30240
    },
    {
      "stop": {
        "id": "2_2250",
        "lat": 48.08669367,
        "lon": -1.7219974,
        "name": "Reuzerais",
        "code": 2250
      },
      "arrival": 30360,
      "departure": 30360
    },
    {
      "stop": {
        "id": "2_2254",
        "lat": 48.08380838,
        "lon": -1.73009441,
        "name": "Le Pâtis",
        "code": 2254
      },
      "arrival": 30420,
      "departure": 30420
    },
    {
      "stop": {
        "id": "2_2255",
        "lat": 48.07927938,
        "lon": -1.73326336,
        "name": "Bellevue",
        "code": 2255
      },
      "arrival": 30540,
      "departure": 30540
    },
    {
      "stop": {
        "id": "2_2268",
        "lat": 48.07507222,
        "lon": -1.72879481,
        "name": "Auriol",
        "code": 2268
      },
      "arrival": 30660,
      "departure": 30660
    },
    {
      "stop": {
        "id": "2_2201",
        "lat": 48.07546225,
        "lon": -1.71635318,
        "name": "Morinais",
        "code": 2201
      },
      "arrival": 30780,
      "departure": 30780
    }
  ],
  "route": {
    "id": "2_0090",
    "textColor": "df171c",
    "color": "8fc255",
    "description": "Intercommunale",
    "longName": "Rennes (Henri Fréville) \u003c\u003e Saint-Jacques-de-la-Lande",
    "shortName": "90",
    "type": 3,
    "agencyId": "2"
  }
}