{
  "headsign": "78 | Saint-Grégoire Betton Centre",
  "stopTimes": [
    {
      "stop": {
        "id": "2_1497",
        "lat": 48.12102411,
        "lon": -1.70300103,
        "name": "Villejean-Université",
        "code": 1497
      },
      "arrival": 67200,
      "departure": 67200
    },
    {
      "stop": {
        "id": "2_1495",
        "lat": 48.12663856,
        "lon": -1.69309309,
        "name": "Lycée Basch",
        "code": 1495
      },
      "arrival": 67440,
      "departure": 67440
    },
    {
      "stop": {
        "id": "2_1543",
        "lat": 48.13134643,
        "lon": -1.69183512,
        "name": "Léonard",
        "code": 1543
      },
      "arrival": 67500,
      "departure": 67500
    },
    {
      "stop": {
        "id": "2_2826",
        "lat": 48.13558496,
        "lon": -1.69298612,
        "name": "Grand Quartier",
        "code": 2826
      },
      "arrival": 67620,
      "departure": 67620
    },
    {
      "stop": {
        "id": "2_2816",
        "lat": 48.13819857,
        "lon": -1.68643094,
        "name": "La Plesse",
        "code": 2816
      },
      "arrival": 67680,
      "departure": 67680
    },
    {
      "stop": {
        "id": "2_2814",
        "lat": 48.14290311,
        "lon": -1.68658457,
        "name": "CHP Saint-Grégoire",
        "code": 2814
      },
      "arrival": 67740,
      "departure": 67740
    },
    {
      "stop": {
        "id": "2_2839",
        "lat": 48.15439187,
        "lon": -1.69663974,
        "name": "Alphasis",
        "code": 2839
      },
      "arrival": 67980,
      "departure": 67980
    },
    {
      "stop": {
        "id": "2_2849",
        "lat": 48.15440619,
        "lon": -1.69248227,
        "name": "Paul-Emile Victor",
        "code": 2849
      },
      "arrival": 68040,
      "departure": 68040
    },
    {
      "stop": {
        "id": "2_2847",
        "lat": 48.15181495,
        "lon": -1.68451783,
        "name": "Forge",
        "code": 2847
      },
      "arrival": 68220,
      "departure": 68220
    },
    {
      "stop": {
        "id": "2_2832",
        "lat": 48.15462598,
        "lon": -1.67885041,
        "name": "Holywell",
        "code": 2832
      },
      "arrival": 68340,
      "departure": 68340
    },
    {
      "stop": {
        "id": "2_2834",
        "lat": 48.15986551,
        "lon": -1.67719977,
        "name": "Jean-Paul II",
        "code": 2834
      },
      "arrival": 68460,
      "departure": 68460
    },
    {
      "stop": {
        "id": "2_2453",
        "lat": 48.17546321,
        "lon": -1.66226843,
        "name": "Chaperonnais",
        "code": 2453
      },
      "arrival": 68640,
      "departure": 68640
    },
    {
      "stop": {
        "id": "2_2443",
        "lat": 48.17822808,
        "lon": -1.66061222,
        "name": "Pont Brand",
        "code": 2443
      },
      "arrival": 68700,
      "departure": 68700
    },
    {
      "stop": {
        "id": "2_2440",
        "lat": 48.17878617,
        "lon": -1.65554803,
        "name": "Renaudais",
        "code": 2440
      },
      "arrival": 68760,
      "departure": 68760
    },
    {
      "stop": {
        "id": "2_2403",
        "lat": 48.18066394,
        "lon": -1.65204781,
        "name": "Brocéliande",
        "code": 2403
      },
      "arrival": 68820,
      "departure": 68820
    },
    {
      "stop": {
        "id": "2_2441",
        "lat": 48.18495407,
        "lon": -1.65000002,
        "name": "Mézières",
        "code": 2441
      },
      "arrival": 68940,
      "departure": 68940
    },
    {
      "stop": {
        "id": "2_2449",
        "lat": 48.18368939,
        "lon": -1.64641107,
        "name": "Trégor",
        "code": 2449
      },
      "arrival": 69000,
      "departure": 69000
    },
    {
      "stop": {
        "id": "2_2405",
        "lat": 48.18191274,
        "lon": -1.64173916,
        "name": "Betton Mairie",
        "code": 2405
      },
      "arrival": 69060,
      "departure": 69060
    },
    {
      "stop": {
        "id": "2_2437",
        "lat": 48.18157224,
        "lon": -1.63928389,
        "name": "Betton Centre",
        "code": 2437
      },
      "arrival": 69120,
      "departure": 69120
    }
  ],
  "route": {
    "id": "2_0078",
    "textColor": "FFFFFF",
    "color": "E10068",
    "description": "Métropolitaine",
    "longName": "Rennes (Villejean-Université) \u003c\u003e Saint-Grégoire / Betton (Centre)",
    "shortName": "78",
    "type": 3,
    "agencyId": "2"
  }
}