{
  "headsign": "78 | Saint-Grégoire Betton Centre",
  "stopTimes": [
    {
      "stop": {
        "id": "2_1497",
        "lat": 48.12102411,
        "lon": -1.70300103,
        "name": "Villejean-Université",
        "code": 1497
      },
      "arrival": 60300,
      "departure": 60300
    },
    {
      "stop": {
        "id": "2_1495",
        "lat": 48.12663856,
        "lon": -1.69309309,
        "name": "Lycée Basch",
        "code": 1495
      },
      "arrival": 60540,
      "departure": 60540
    },
    {
      "stop": {
        "id": "2_1543",
        "lat": 48.13134643,
        "lon": -1.69183512,
        "name": "Léonard",
        "code": 1543
      },
      "arrival": 60600,
      "departure": 60600
    },
    {
      "stop": {
        "id": "2_2826",
        "lat": 48.13558496,
        "lon": -1.69298612,
        "name": "Grand Quartier",
        "code": 2826
      },
      "arrival": 60720,
      "departure": 60720
    },
    {
      "stop": {
        "id": "2_2816",
        "lat": 48.13819857,
        "lon": -1.68643094,
        "name": "La Plesse",
        "code": 2816
      },
      "arrival": 60840,
      "departure": 60840
    },
    {
      "stop": {
        "id": "2_2814",
        "lat": 48.14290311,
        "lon": -1.68658457,
        "name": "CHP Saint-Grégoire",
        "code": 2814
      },
      "arrival": 60900,
      "departure": 60900
    },
    {
      "stop": {
        "id": "2_2839",
        "lat": 48.15439187,
        "lon": -1.69663974,
        "name": "Alphasis",
        "code": 2839
      },
      "arrival": 61140,
      "departure": 61140
    },
    {
      "stop": {
        "id": "2_2849",
        "lat": 48.15440619,
        "lon": -1.69248227,
        "name": "Paul-Emile Victor",
        "code": 2849
      },
      "arrival": 61200,
      "departure": 61200
    },
    {
      "stop": {
        "id": "2_2847",
        "lat": 48.15181495,
        "lon": -1.68451783,
        "name": "Forge",
        "code": 2847
      },
      "arrival": 61380,
      "departure": 61380
    },
    {
      "stop": {
        "id": "2_2832",
        "lat": 48.15462598,
        "lon": -1.67885041,
        "name": "Holywell",
        "code": 2832
      },
      "arrival": 61500,
      "departure": 61500
    },
    {
      "stop": {
        "id": "2_2834",
        "lat": 48.15986551,
        "lon": -1.67719977,
        "name": "Jean-Paul II",
        "code": 2834
      },
      "arrival": 61620,
      "departure": 61620
    },
    {
      "stop": {
        "id": "2_2453",
        "lat": 48.17546321,
        "lon": -1.66226843,
        "name": "Chaperonnais",
        "code": 2453
      },
      "arrival": 61800,
      "departure": 61800
    },
    {
      "stop": {
        "id": "2_2443",
        "lat": 48.17822808,
        "lon": -1.66061222,
        "name": "Pont Brand",
        "code": 2443
      },
      "arrival": 61860,
      "departure": 61860
    },
    {
      "stop": {
        "id": "2_2440",
        "lat": 48.17878617,
        "lon": -1.65554803,
        "name": "Renaudais",
        "code": 2440
      },
      "arrival": 61920,
      "departure": 61920
    },
    {
      "stop": {
        "id": "2_2403",
        "lat": 48.18066394,
        "lon": -1.65204781,
        "name": "Brocéliande",
        "code": 2403
      },
      "arrival": 61980,
      "departure": 61980
    },
    {
      "stop": {
        "id": "2_2441",
        "lat": 48.18495407,
        "lon": -1.65000002,
        "name": "Mézières",
        "code": 2441
      },
      "arrival": 62160,
      "departure": 62160
    },
    {
      "stop": {
        "id": "2_2449",
        "lat": 48.18368939,
        "lon": -1.64641107,
        "name": "Trégor",
        "code": 2449
      },
      "arrival": 62220,
      "departure": 62220
    },
    {
      "stop": {
        "id": "2_2405",
        "lat": 48.18191274,
        "lon": -1.64173916,
        "name": "Betton Mairie",
        "code": 2405
      },
      "arrival": 62280,
      "departure": 62280
    },
    {
      "stop": {
        "id": "2_2437",
        "lat": 48.18157224,
        "lon": -1.63928389,
        "name": "Betton Centre",
        "code": 2437
      },
      "arrival": 62340,
      "departure": 62340
    }
  ],
  "route": {
    "id": "2_0078",
    "textColor": "FFFFFF",
    "color": "E10068",
    "description": "Métropolitaine",
    "longName": "Rennes (Villejean-Université) \u003c\u003e Saint-Grégoire / Betton (Centre)",
    "shortName": "78",
    "type": 3,
    "agencyId": "2"
  }
}