{
  "headsign": "155 | Rennes République",
  "stopTimes": [
    {
      "stop": {
        "id": "2_3851",
        "lat": 48.07460255,
        "lon": -1.85367611,
        "name": "Mordelles Pâtis",
        "code": 3851
      },
      "arrival": 26700,
      "departure": 26700
    },
    {
      "stop": {
        "id": "2_3852",
        "lat": 48.07194171,
        "lon": -1.84998802,
        "name": "Mordelles Eglise",
        "code": 3852
      },
      "arrival": 26880,
      "departure": 26880
    },
    {
      "stop": {
        "id": "2_3853",
        "lat": 48.07371137,
        "lon": -1.84642407,
        "name": "Mordelles Mairie",
        "code": 3853
      },
      "arrival": 26940,
      "departure": 26940
    },
    {
      "stop": {
        "id": "2_3854",
        "lat": 48.07584083,
        "lon": -1.8422202,
        "name": "Mordelles Lilas",
        "code": 3854
      },
      "arrival": 27000,
      "departure": 27000
    },
    {
      "stop": {
        "id": "2_3855",
        "lat": 48.07771885,
        "lon": -1.83754903,
        "name": "Gretay",
        "code": 3855
      },
      "arrival": 27120,
      "departure": 27120
    },
    {
      "stop": {
        "id": "2_1542",
        "lat": 48.10997275,
        "lon": -1.68535336,
        "name": "Pont de Bretagne",
        "code": 1542
      },
      "arrival": 28380,
      "departure": 28380
    },
    {
      "stop": {
        "id": "2_1242",
        "lat": 48.10980333,
        "lon": -1.6795219,
        "name": "République",
        "code": 1242
      },
      "arrival": 28440,
      "departure": 28440
    }
  ],
  "route": {
    "id": "2_0155",
    "textColor": "F2AB00",
    "color": "FCE000",
    "description": "Express métropolitaine",
    "longName": "Rennes (République) \u003c\u003e Mordelles",
    "shortName": "155",
    "type": 3,
    "agencyId": "2"
  }
}