{
  "headsign": "61 | Noyal-Châtillon Saint-Erblon",
  "stopTimes": [
    {
      "stop": {
        "id": "2_1534",
        "lat": 48.08831454,
        "lon": -1.67444337,
        "name": "Henri Fréville",
        "code": 1534
      },
      "arrival": 27600,
      "departure": 27600
    },
    {
      "stop": {
        "id": "2_1465",
        "lat": 48.08611757,
        "lon": -1.66106774,
        "name": "Triangle",
        "code": 1465
      },
      "arrival": 27840,
      "departure": 27840
    },
    {
      "stop": {
        "id": "2_2715",
        "lat": 48.07864104,
        "lon": -1.66122751,
        "name": "Hil-Bintinais",
        "code": 2715
      },
      "arrival": 27960,
      "departure": 27960
    },
    {
      "stop": {
        "id": "2_2716",
        "lat": 48.0686191,
        "lon": -1.66595219,
        "name": "Petit Beaulieu",
        "code": 2716
      },
      "arrival": 28080,
      "departure": 28080
    },
    {
      "stop": {
        "id": "2_2717",
        "lat": 48.06365396,
        "lon": -1.66385987,
        "name": "Mail Lancé",
        "code": 2717
      },
      "arrival": 28140,
      "departure": 28140
    },
    {
      "stop": {
        "id": "2_2718",
        "lat": 48.05597165,
        "lon": -1.66413694,
        "name": "Croix Fleurie",
        "code": 2718
      },
      "arrival": 28200,
      "departure": 28200
    },
    {
      "stop": {
        "id": "2_2719",
        "lat": 48.04706769,
        "lon": -1.66111999,
        "name": "Petite Saudrais",
        "code": 2719
      },
      "arrival": 28320,
      "departure": 28320
    },
    {
      "stop": {
        "id": "2_2720",
        "lat": 48.0440836,
        "lon": -1.66135439,
        "name": "Salle Polyvalente",
        "code": 2720
      },
      "arrival": 28380,
      "departure": 28380
    },
    {
      "stop": {
        "id": "2_2721",
        "lat": 48.04244672,
        "lon": -1.665579,
        "name": "Centre",
        "code": 2721
      },
      "arrival": 28440,
      "departure": 28440
    },
    {
      "stop": {
        "id": "2_2722",
        "lat": 48.04077157,
        "lon": -1.67212053,
        "name": "Potiers",
        "code": 2722
      },
      "arrival": 28560,
      "departure": 28560
    },
    {
      "stop": {
        "id": "2_2723",
        "lat": 48.03839894,
        "lon": -1.67062832,
        "name": "Molène",
        "code": 2723
      },
      "arrival": 28620,
      "departure": 28620
    },
    {
      "stop": {
        "id": "2_2732",
        "lat": 48.03865706,
        "lon": -1.66680397,
        "name": "Pont",
        "code": 2732
      },
      "arrival": 28680,
      "departure": 28680
    },
    {
      "stop": {
        "id": "2_2733",
        "lat": 48.03487037,
        "lon": -1.66409088,
        "name": "Côteaux",
        "code": 2733
      },
      "arrival": 28740,
      "departure": 28740
    },
    {
      "stop": {
        "id": "2_2724",
        "lat": 48.02864041,
        "lon": -1.65979212,
        "name": "Bray",
        "code": 2724
      },
      "arrival": 28800,
      "departure": 28800
    },
    {
      "stop": {
        "id": "2_4360",
        "lat": 48.02156395,
        "lon": -1.65364618,
        "name": "Leuzières",
        "code": 4360
      },
      "arrival": 28920,
      "departure": 28920
    },
    {
      "stop": {
        "id": "2_4361",
        "lat": 48.01776753,
        "lon": -1.64957701,
        "name": "Croix Faucheux",
        "code": 4361
      },
      "arrival": 28980,
      "departure": 28980
    },
    {
      "stop": {
        "id": "2_4363",
        "lat": 48.01629311,
        "lon": -1.65132633,
        "name": "Alexandre Gilois",
        "code": 4363
      },
      "arrival": 29040,
      "departure": 29040
    },
    {
      "stop": {
        "id": "2_4354",
        "lat": 48.01764653,
        "lon": -1.65445718,
        "name": "Paul Féval",
        "code": 4354
      },
      "arrival": 29100,
      "departure": 29100
    },
    {
      "stop": {
        "id": "2_4355",
        "lat": 48.01883506,
        "lon": -1.65767902,
        "name": "Champ Mulon",
        "code": 4355
      },
      "arrival": 29160,
      "departure": 29160
    },
    {
      "stop": {
        "id": "2_4351",
        "lat": 48.01725669,
        "lon": -1.66042889,
        "name": "Parc d\u0027Activités",
        "code": 4351
      },
      "arrival": 29220,
      "departure": 29220
    }
  ],
  "route": {
    "id": "2_0061",
    "textColor": "FFFFFF",
    "color": "E6396C",
    "description": "Métropolitaine",
    "longName": "Rennes (Henri Fréville) \u003c\u003e Noyal-Châtillon-sur-Seiche / Saint-Erblon",
    "shortName": "61",
    "type": 3,
    "agencyId": "2"
  }
}