{
  "headsign": "75 | Rennes La Poterie",
  "stopTimes": [
    {
      "stop": {
        "id": "2_3401",
        "lat": 48.041337,
        "lon": -1.553405,
        "name": "Parc des Sports",
        "code": 3401
      },
      "arrival": 72000,
      "departure": 72000
    },
    {
      "stop": {
        "id": "2_3410",
        "lat": 48.040657,
        "lon": -1.550104,
        "name": "Langlois",
        "code": 3410
      },
      "arrival": 72060,
      "departure": 72060
    },
    {
      "stop": {
        "id": "2_3408",
        "lat": 48.040431,
        "lon": -1.541908,
        "name": "Chêne Centenaire",
        "code": 3408
      },
      "arrival": 72240,
      "departure": 72240
    },
    {
      "stop": {
        "id": "2_3404",
        "lat": 48.041308,
        "lon": -1.544619,
        "name": "Menault",
        "code": 3404
      },
      "arrival": 72300,
      "departure": 72300
    },
    {
      "stop": {
        "id": "2_3405",
        "lat": 48.04458,
        "lon": -1.561621,
        "name": "Eclosel",
        "code": 3405
      },
      "arrival": 72420,
      "departure": 72420
    },
    {
      "stop": {
        "id": "2_2631",
        "lat": 48.047644,
        "lon": -1.598485,
        "name": "Moulin",
        "code": 2631
      },
      "arrival": 72660,
      "departure": 72660
    },
    {
      "stop": {
        "id": "2_2630",
        "lat": 48.045052,
        "lon": -1.598931,
        "name": "Maillardière",
        "code": 2630
      },
      "arrival": 72720,
      "departure": 72720
    },
    {
      "stop": {
        "id": "2_2603",
        "lat": 48.044735,
        "lon": -1.603959,
        "name": "La Poste",
        "code": 2603
      },
      "arrival": 72780,
      "departure": 72780
    },
    {
      "stop": {
        "id": "2_1511",
        "lat": 48.087572,
        "lon": -1.643466,
        "name": "La Poterie",
        "code": 1511
      },
      "arrival": 73260,
      "departure": 73260
    }
  ],
  "route": {
    "id": "2_0075",
    "textColor": "201D21",
    "color": "F2973E",
    "description": "Métropolitaine",
    "longName": "Rennes (La Poterie) \u003c\u003e Nouvoitou",
    "shortName": "75",
    "type": 3,
    "agencyId": "2"
  }
}