{
  "headsign": "37 | Rennes Henri Fréville",
  "stopTimes": [
    {
      "stop": {
        "id": "2_2201",
        "lat": 48.075489,
        "lon": -1.716264,
        "name": "Morinais",
        "code": 2201
      },
      "arrival": 64200,
      "departure": 64200
    },
    {
      "stop": {
        "id": "2_2267",
        "lat": 48.075289,
        "lon": -1.728986,
        "name": "Auriol",
        "code": 2267
      },
      "arrival": 64320,
      "departure": 64320
    },
    {
      "stop": {
        "id": "2_2248",
        "lat": 48.079303,
        "lon": -1.732963,
        "name": "Bellevue",
        "code": 2248
      },
      "arrival": 64380,
      "departure": 64380
    },
    {
      "stop": {
        "id": "2_2249",
        "lat": 48.082934,
        "lon": -1.731638,
        "name": "Le Pâtis",
        "code": 2249
      },
      "arrival": 64500,
      "departure": 64500
    },
    {
      "stop": {
        "id": "2_2253",
        "lat": 48.086647,
        "lon": -1.722185,
        "name": "Reuzerais",
        "code": 2253
      },
      "arrival": 64620,
      "departure": 64620
    },
    {
      "stop": {
        "id": "2_2252",
        "lat": 48.08665,
        "lon": -1.713003,
        "name": "Maffeys",
        "code": 2252
      },
      "arrival": 64740,
      "departure": 64740
    },
    {
      "stop": {
        "id": "2_2225",
        "lat": 48.086811,
        "lon": -1.70563,
        "name": "Gaité",
        "code": 2225
      },
      "arrival": 64860,
      "departure": 64860
    },
    {
      "stop": {
        "id": "2_2271",
        "lat": 48.090501,
        "lon": -1.69494,
        "name": "25 Fusillés",
        "code": 2271
      },
      "arrival": 65100,
      "departure": 65100
    },
    {
      "stop": {
        "id": "2_1447",
        "lat": 48.08721,
        "lon": -1.675075,
        "name": "Henri Fréville",
        "code": 1447
      },
      "arrival": 65340,
      "departure": 65340
    }
  ],
  "route": {
    "id": "2_0037",
    "textColor": "E2001A",
    "color": "FFF164",
    "description": "Inter-quartiers",
    "longName": "Henri Fréville \u003c\u003e Saint-Jacques-de-la-Lande (Morinais)",
    "shortName": "37",
    "type": 3,
    "agencyId": "2"
  }
}