{
  "headsign": "56 | Chavagne",
  "stopTimes": [
    {
      "stop": {
        "id": "2_1595",
        "lat": 48.10582657,
        "lon": -1.67734271,
        "name": "Charles de Gaulle",
        "code": 1595
      },
      "arrival": 28560,
      "departure": 28560
    },
    {
      "stop": {
        "id": "2_1214",
        "lat": 48.10990137,
        "lon": -1.6796669,
        "name": "République",
        "code": 1214
      },
      "arrival": 28800,
      "departure": 28800
    },
    {
      "stop": {
        "id": "2_1540",
        "lat": 48.1099522,
        "lon": -1.68519001,
        "name": "Pont de Bretagne",
        "code": 1540
      },
      "arrival": 28920,
      "departure": 28920
    },
    {
      "stop": {
        "id": "2_1217",
        "lat": 48.10823293,
        "lon": -1.69450077,
        "name": "Chèques Postaux",
        "code": 1217
      },
      "arrival": 29100,
      "departure": 29100
    },
    {
      "stop": {
        "id": "2_1218",
        "lat": 48.10910111,
        "lon": -1.69795527,
        "name": "Guilloux Lorient",
        "code": 1218
      },
      "arrival": 29160,
      "departure": 29160
    },
    {
      "stop": {
        "id": "2_1221",
        "lat": 48.10886589,
        "lon": -1.71061365,
        "name": "Géniaux",
        "code": 1221
      },
      "arrival": 29340,
      "departure": 29340
    },
    {
      "stop": {
        "id": "2_1539",
        "lat": 48.10723127,
        "lon": -1.72306614,
        "name": "Lemaistre",
        "code": 1539
      },
      "arrival": 29460,
      "departure": 29460
    },
    {
      "stop": {
        "id": "2_1506",
        "lat": 48.10648051,
        "lon": -1.73143819,
        "name": "Berthault",
        "code": 1506
      },
      "arrival": 29580,
      "departure": 29580
    },
    {
      "stop": {
        "id": "2_3766",
        "lat": 48.10499211,
        "lon": -1.74065229,
        "name": "Trois Marches",
        "code": 3766
      },
      "arrival": 29700,
      "departure": 29700
    },
    {
      "stop": {
        "id": "2_2512",
        "lat": 48.09623468,
        "lon": -1.76464809,
        "name": "Pont d\u0027Avoine",
        "code": 2512
      },
      "arrival": 29880,
      "departure": 29880
    },
    {
      "stop": {
        "id": "2_2523",
        "lat": 48.09407165,
        "lon": -1.77398049,
        "name": "Mahomat",
        "code": 2523
      },
      "arrival": 29940,
      "departure": 29940
    },
    {
      "stop": {
        "id": "2_2529",
        "lat": 48.0803048,
        "lon": -1.77444546,
        "name": "Moigné",
        "code": 2529
      },
      "arrival": 30120,
      "departure": 30120
    },
    {
      "stop": {
        "id": "2_2530",
        "lat": 48.07879295,
        "lon": -1.77215639,
        "name": "Haut Plessis",
        "code": 2530
      },
      "arrival": 30120,
      "departure": 30120
    },
    {
      "stop": {
        "id": "2_4207",
        "lat": 48.063395,
        "lon": -1.77238031,
        "name": "Mare Doux",
        "code": 4207
      },
      "arrival": 30360,
      "departure": 30360
    },
    {
      "stop": {
        "id": "2_4208",
        "lat": 48.05776111,
        "lon": -1.7763633,
        "name": "Grippay",
        "code": 4208
      },
      "arrival": 30420,
      "departure": 30420
    },
    {
      "stop": {
        "id": "2_4209",
        "lat": 48.05408189,
        "lon": -1.78370908,
        "name": "Avenir",
        "code": 4209
      },
      "arrival": 30540,
      "departure": 30540
    },
    {
      "stop": {
        "id": "2_4203",
        "lat": 48.05509706,
        "lon": -1.79000007,
        "name": "Alfred de Musset",
        "code": 4203
      },
      "arrival": 30600,
      "departure": 30600
    },
    {
      "stop": {
        "id": "2_4211",
        "lat": 48.05245322,
        "lon": -1.79050012,
        "name": "Calvaire",
        "code": 4211
      },
      "arrival": 30660,
      "departure": 30660
    },
    {
      "stop": {
        "id": "2_4201",
        "lat": 48.0519556,
        "lon": -1.79762199,
        "name": "Croix Blanche",
        "code": 4201
      },
      "arrival": 30780,
      "departure": 30780
    }
  ],
  "route": {
    "id": "2_0056",
    "textColor": "FFFFFF",
    "color": "009A47",
    "description": "Métropolitaine",
    "longName": "Rennes (Charles de Gaulle) \u003c\u003e Chavagne",
    "shortName": "56",
    "type": 3,
    "agencyId": "2"
  }
}