{
  "headsign": "77 | Pacé Pâtis Roussel",
  "stopTimes": [
    {
      "stop": {
        "id": "2_1519",
        "lat": 48.121064,
        "lon": -1.702976,
        "name": "Villejean-Université",
        "code": 1519
      },
      "arrival": 40800,
      "departure": 40800
    },
    {
      "stop": {
        "id": "2_1518",
        "lat": 48.120593,
        "lon": -1.710572,
        "name": "Bourbonnais",
        "code": 1518
      },
      "arrival": 40980,
      "departure": 40980
    },
    {
      "stop": {
        "id": "2_1521",
        "lat": 48.118462,
        "lon": -1.713825,
        "name": "Berry",
        "code": 1521
      },
      "arrival": 41040,
      "departure": 41040
    },
    {
      "stop": {
        "id": "2_3112",
        "lat": 48.141059,
        "lon": -1.767294,
        "name": "Opéra",
        "code": 3112
      },
      "arrival": 41520,
      "departure": 41520
    },
    {
      "stop": {
        "id": "2_3137",
        "lat": 48.140206,
        "lon": -1.763554,
        "name": "Rive Ouest",
        "code": 3137
      },
      "arrival": 41520,
      "departure": 41520
    },
    {
      "stop": {
        "id": "2_3144",
        "lat": 48.141054,
        "lon": -1.766273,
        "name": "Opéra",
        "code": 3144
      },
      "arrival": 41580,
      "departure": 41580
    },
    {
      "stop": {
        "id": "2_3113",
        "lat": 48.143401,
        "lon": -1.770386,
        "name": "Le Ponant",
        "code": 3113
      },
      "arrival": 41580,
      "departure": 41580
    },
    {
      "stop": {
        "id": "2_3114",
        "lat": 48.146022,
        "lon": -1.770492,
        "name": "Carré Dumaine",
        "code": 3114
      },
      "arrival": 41640,
      "departure": 41640
    },
    {
      "stop": {
        "id": "2_3115",
        "lat": 48.148099,
        "lon": -1.769731,
        "name": "Pacé Cimetière",
        "code": 3115
      },
      "arrival": 41700,
      "departure": 41700
    },
    {
      "stop": {
        "id": "2_3130",
        "lat": 48.151605,
        "lon": -1.770461,
        "name": "Le Brix",
        "code": 3130
      },
      "arrival": 41760,
      "departure": 41760
    },
    {
      "stop": {
        "id": "2_3131",
        "lat": 48.154401,
        "lon": -1.770358,
        "name": "Pacé Collèges",
        "code": 3131
      },
      "arrival": 41820,
      "departure": 41820
    },
    {
      "stop": {
        "id": "2_3132",
        "lat": 48.155458,
        "lon": -1.764526,
        "name": "Champalaune",
        "code": 3132
      },
      "arrival": 41880,
      "departure": 41880
    },
    {
      "stop": {
        "id": "2_3133",
        "lat": 48.157383,
        "lon": -1.765666,
        "name": "Ouessant",
        "code": 3133
      },
      "arrival": 41940,
      "departure": 41940
    },
    {
      "stop": {
        "id": "2_3125",
        "lat": 48.16049,
        "lon": -1.768011,
        "name": "Pâtis Roussel",
        "code": 3125
      },
      "arrival": 42000,
      "departure": 42000
    }
  ],
  "route": {
    "id": "2_0077",
    "textColor": "1A171B",
    "color": "FCC000",
    "description": "Métropolitaine",
    "longName": "Rennes (Villejean-Université) \u003c\u003e Pacé",
    "shortName": "77",
    "type": 3,
    "agencyId": "2"
  }
}