{
  "headsign": "67 | Cesson-Sévigné Brécé",
  "stopTimes": [
    {
      "stop": {
        "id": "2_1556",
        "lat": 48.1094,
        "lon": -1.677626,
        "name": "République",
        "code": 1556
      },
      "arrival": 27300,
      "departure": 27300
    },
    {
      "stop": {
        "id": "2_1169",
        "lat": 48.109809,
        "lon": -1.674483,
        "name": "Musée Beaux Arts",
        "code": 1169
      },
      "arrival": 27420,
      "departure": 27420
    },
    {
      "stop": {
        "id": "2_1172",
        "lat": 48.11003,
        "lon": -1.659227,
        "name": "Robidou",
        "code": 1172
      },
      "arrival": 27600,
      "departure": 27600
    },
    {
      "stop": {
        "id": "2_1525",
        "lat": 48.11461,
        "lon": -1.655223,
        "name": "Durafour Strasbourg",
        "code": 1525
      },
      "arrival": 27720,
      "departure": 27720
    },
    {
      "stop": {
        "id": "2_1524",
        "lat": 48.114621,
        "lon": -1.651278,
        "name": "Hôpital Régnier",
        "code": 1524
      },
      "arrival": 27780,
      "departure": 27780
    },
    {
      "stop": {
        "id": "2_1523",
        "lat": 48.114277,
        "lon": -1.649131,
        "name": "Moulin de Joué",
        "code": 1523
      },
      "arrival": 27840,
      "departure": 27840
    },
    {
      "stop": {
        "id": "2_1522",
        "lat": 48.113884,
        "lon": -1.642719,
        "name": "Piletière",
        "code": 1522
      },
      "arrival": 27900,
      "departure": 27900
    },
    {
      "stop": {
        "id": "2_1610",
        "lat": 48.114025,
        "lon": -1.636082,
        "name": "Tournebride",
        "code": 1610
      },
      "arrival": 28020,
      "departure": 28020
    },
    {
      "stop": {
        "id": "2_2019",
        "lat": 48.114037,
        "lon": -1.628008,
        "name": "Champs Péans",
        "code": 2019
      },
      "arrival": 28140,
      "departure": 28140
    },
    {
      "stop": {
        "id": "2_2020",
        "lat": 48.114105,
        "lon": -1.621837,
        "name": "Taillis",
        "code": 2020
      },
      "arrival": 28200,
      "departure": 28200
    },
    {
      "stop": {
        "id": "2_2062",
        "lat": 48.107771,
        "lon": -1.614065,
        "name": "Rond Point de Bray",
        "code": 2062
      },
      "arrival": 28380,
      "departure": 28380
    },
    {
      "stop": {
        "id": "2_2063",
        "lat": 48.108743,
        "lon": -1.60963,
        "name": "Monniais",
        "code": 2063
      },
      "arrival": 28440,
      "departure": 28440
    },
    {
      "stop": {
        "id": "2_2064",
        "lat": 48.112543,
        "lon": -1.607297,
        "name": "Peupliers",
        "code": 2064
      },
      "arrival": 28560,
      "departure": 28560
    },
    {
      "stop": {
        "id": "2_2065",
        "lat": 48.113984,
        "lon": -1.603204,
        "name": "Cesson Gare",
        "code": 2065
      },
      "arrival": 28620,
      "departure": 28620
    },
    {
      "stop": {
        "id": "2_2086",
        "lat": 48.114279,
        "lon": -1.600415,
        "name": "Bordage",
        "code": 2086
      },
      "arrival": 28680,
      "departure": 28680
    },
    {
      "stop": {
        "id": "2_2104",
        "lat": 48.114919,
        "lon": -1.590425,
        "name": "Haut Grippé",
        "code": 2104
      },
      "arrival": 28740,
      "departure": 28740
    },
    {
      "stop": {
        "id": "2_2106",
        "lat": 48.116039,
        "lon": -1.582351,
        "name": "Champelé",
        "code": 2106
      },
      "arrival": 28800,
      "departure": 28800
    },
    {
      "stop": {
        "id": "2_2103",
        "lat": 48.113318,
        "lon": -1.59004,
        "name": "Rigourdière",
        "code": 2103
      },
      "arrival": 28980,
      "departure": 28980
    },
    {
      "stop": {
        "id": "2_4163",
        "lat": 48.108239,
        "lon": -1.507377,
        "name": "Turbanière",
        "code": 4163
      },
      "arrival": 29580,
      "departure": 29580
    },
    {
      "stop": {
        "id": "2_4157",
        "lat": 48.109265,
        "lon": -1.503198,
        "name": "Pâtis",
        "code": 4157
      },
      "arrival": 29580,
      "departure": 29580
    },
    {
      "stop": {
        "id": "2_4158",
        "lat": 48.107535,
        "lon": -1.486118,
        "name": "Destiers",
        "code": 4158
      },
      "arrival": 29700,
      "departure": 29700
    },
    {
      "stop": {
        "id": "2_4159",
        "lat": 48.107463,
        "lon": -1.482571,
        "name": "Provence",
        "code": 4159
      },
      "arrival": 29760,
      "departure": 29760
    },
    {
      "stop": {
        "id": "2_4160",
        "lat": 48.107291,
        "lon": -1.478381,
        "name": "Saules",
        "code": 4160
      },
      "arrival": 29820,
      "departure": 29820
    },
    {
      "stop": {
        "id": "2_4161",
        "lat": 48.109064,
        "lon": -1.478264,
        "name": "Mainguère",
        "code": 4161
      },
      "arrival": 29820,
      "departure": 29820
    },
    {
      "stop": {
        "id": "2_4151",
        "lat": 48.109864,
        "lon": -1.481103,
        "name": "Anjou",
        "code": 4151
      },
      "arrival": 29880,
      "departure": 29880
    }
  ],
  "route": {
    "id": "2_0067",
    "textColor": "FFFFFF",
    "color": "E2003B",
    "description": "Métropolitaine",
    "longName": "Rennes (République) \u003c\u003e Cesson-Sévigné / Brécé",
    "shortName": "67",
    "type": 3,
    "agencyId": "2"
  }
}