{
  "headsign": "96 | Romillé Miniac",
  "stopTimes": [
    {
      "stop": {
        "id": "2_4850",
        "lat": 48.271961,
        "lon": -1.856918,
        "name": "Chapelle-Chaussée",
        "code": 4850
      },
      "arrival": 27000,
      "departure": 27000
    },
    {
      "stop": {
        "id": "2_4901",
        "lat": 48.24538,
        "lon": -1.854062,
        "name": "Langan Bourg",
        "code": 4901
      },
      "arrival": 27360,
      "departure": 27360
    },
    {
      "stop": {
        "id": "2_6001",
        "lat": 48.216915,
        "lon": -1.89045,
        "name": "Frères Aubert",
        "code": 6001
      },
      "arrival": 27840,
      "departure": 27840
    },
    {
      "stop": {
        "id": "2_6000",
        "lat": 48.218676,
        "lon": -1.893365,
        "name": "Romillé Collège",
        "code": 6000
      },
      "arrival": 27900,
      "departure": 28080
    },
    {
      "stop": {
        "id": "2_4801",
        "lat": 48.296897,
        "lon": -1.943729,
        "name": "Bécherel Centre",
        "code": 4801
      },
      "arrival": 28800,
      "departure": 28800
    },
    {
      "stop": {
        "id": "2_4803",
        "lat": 48.2997,
        "lon": -1.939289,
        "name": "Sévignière",
        "code": 4803
      },
      "arrival": 28860,
      "departure": 28860
    },
    {
      "stop": {
        "id": "2_4950",
        "lat": 48.284693,
        "lon": -1.930733,
        "name": "Miniac Eglise",
        "code": 4950
      },
      "arrival": 29280,
      "departure": 29280
    }
  ],
  "route": {
    "id": "2_0096",
    "textColor": "1A171B",
    "color": "AECC52",
    "description": "Intercommunale",
    "longName": "Miniac-sous-Bécherel / Bécherel \u003c\u003e Romillé \u003c\u003e Langan / La-Chapelle-Chaussée",
    "shortName": "96",
    "type": 3,
    "agencyId": "2"
  }
}