{
  "headsign": "33 | Chantepie Cucé",
  "stopTimes": [
    {
      "stop": {
        "id": "2_2220",
        "lat": 48.061591,
        "lon": -1.72464,
        "name": "Gautrais",
        "code": 2220
      },
      "arrival": 33600,
      "departure": 33600
    },
    {
      "stop": {
        "id": "2_2221",
        "lat": 48.06308,
        "lon": -1.720537,
        "name": "Rossel",
        "code": 2221
      },
      "arrival": 33660,
      "departure": 33660
    },
    {
      "stop": {
        "id": "2_2234",
        "lat": 48.066447,
        "lon": -1.720123,
        "name": "Pommerais",
        "code": 2234
      },
      "arrival": 33720,
      "departure": 33720
    },
    {
      "stop": {
        "id": "2_2223",
        "lat": 48.067334,
        "lon": -1.716885,
        "name": "Abbé Grimault",
        "code": 2223
      },
      "arrival": 33780,
      "departure": 33780
    },
    {
      "stop": {
        "id": "2_2201",
        "lat": 48.075489,
        "lon": -1.716264,
        "name": "Morinais",
        "code": 2201
      },
      "arrival": 33960,
      "departure": 33960
    },
    {
      "stop": {
        "id": "2_2202",
        "lat": 48.077395,
        "lon": -1.715725,
        "name": "Collège Jean Moulin",
        "code": 2202
      },
      "arrival": 34020,
      "departure": 34020
    },
    {
      "stop": {
        "id": "2_2214",
        "lat": 48.079869,
        "lon": -1.715526,
        "name": "Médiathèque",
        "code": 2214
      },
      "arrival": 34080,
      "departure": 34080
    },
    {
      "stop": {
        "id": "2_2204",
        "lat": 48.082557,
        "lon": -1.715255,
        "name": "Jean Marin",
        "code": 2204
      },
      "arrival": 34080,
      "departure": 34080
    },
    {
      "stop": {
        "id": "2_2263",
        "lat": 48.082518,
        "lon": -1.712313,
        "name": "Jean Jaurès",
        "code": 2263
      },
      "arrival": 34140,
      "departure": 34140
    },
    {
      "stop": {
        "id": "2_2205",
        "lat": 48.083243,
        "lon": -1.710049,
        "name": "Blosne",
        "code": 2205
      },
      "arrival": 34200,
      "departure": 34200
    },
    {
      "stop": {
        "id": "2_2225",
        "lat": 48.086811,
        "lon": -1.70563,
        "name": "Gaité",
        "code": 2225
      },
      "arrival": 34260,
      "departure": 34260
    },
    {
      "stop": {
        "id": "2_2230",
        "lat": 48.086456,
        "lon": -1.701833,
        "name": "Rablais Allende",
        "code": 2230
      },
      "arrival": 34320,
      "departure": 34320
    },
    {
      "stop": {
        "id": "2_2227",
        "lat": 48.089415,
        "lon": -1.697855,
        "name": "Croix Verte",
        "code": 2227
      },
      "arrival": 34440,
      "departure": 34440
    },
    {
      "stop": {
        "id": "2_2271",
        "lat": 48.090501,
        "lon": -1.69494,
        "name": "25 Fusillés",
        "code": 2271
      },
      "arrival": 34500,
      "departure": 34500
    },
    {
      "stop": {
        "id": "2_1454",
        "lat": 48.089581,
        "lon": -1.691241,
        "name": "Bréquigny Piscine",
        "code": 1454
      },
      "arrival": 34560,
      "departure": 34560
    },
    {
      "stop": {
        "id": "2_1455",
        "lat": 48.086702,
        "lon": -1.691043,
        "name": "Lycée Bréquigny",
        "code": 1455
      },
      "arrival": 34620,
      "departure": 34620
    },
    {
      "stop": {
        "id": "2_1456",
        "lat": 48.086541,
        "lon": -1.687451,
        "name": "Coubertin",
        "code": 1456
      },
      "arrival": 34680,
      "departure": 34680
    },
    {
      "stop": {
        "id": "2_1457",
        "lat": 48.086765,
        "lon": -1.683887,
        "name": "Norvège",
        "code": 1457
      },
      "arrival": 34680,
      "departure": 34680
    },
    {
      "stop": {
        "id": "2_1130",
        "lat": 48.085168,
        "lon": -1.682537,
        "name": "Canada",
        "code": 1130
      },
      "arrival": 34740,
      "departure": 34740
    },
    {
      "stop": {
        "id": "2_1623",
        "lat": 48.083961,
        "lon": -1.678307,
        "name": "Alma",
        "code": 1623
      },
      "arrival": 34800,
      "departure": 34800
    },
    {
      "stop": {
        "id": "2_1459",
        "lat": 48.08809,
        "lon": -1.674269,
        "name": "Henri Fréville",
        "code": 1459
      },
      "arrival": 34980,
      "departure": 34980
    },
    {
      "stop": {
        "id": "2_1460",
        "lat": 48.089349,
        "lon": -1.674222,
        "name": "Argonautes",
        "code": 1460
      },
      "arrival": 34980,
      "departure": 34980
    },
    {
      "stop": {
        "id": "2_1461",
        "lat": 48.093659,
        "lon": -1.673762,
        "name": "Clemenceau",
        "code": 1461
      },
      "arrival": 35100,
      "departure": 35100
    },
    {
      "stop": {
        "id": "2_1462",
        "lat": 48.093478,
        "lon": -1.670045,
        "name": "Combes",
        "code": 1462
      },
      "arrival": 35160,
      "departure": 35160
    },
    {
      "stop": {
        "id": "2_1464",
        "lat": 48.091295,
        "lon": -1.666295,
        "name": "Binquenais",
        "code": 1464
      },
      "arrival": 35280,
      "departure": 35280
    },
    {
      "stop": {
        "id": "2_1463",
        "lat": 48.091328,
        "lon": -1.663129,
        "name": "Binquenais Collège",
        "code": 1463
      },
      "arrival": 35340,
      "departure": 35340
    },
    {
      "stop": {
        "id": "2_1465",
        "lat": 48.086117,
        "lon": -1.661119,
        "name": "Triangle",
        "code": 1465
      },
      "arrival": 35520,
      "departure": 35520
    },
    {
      "stop": {
        "id": "2_1353",
        "lat": 48.084535,
        "lon": -1.657962,
        "name": "Torigné",
        "code": 1353
      },
      "arrival": 35580,
      "departure": 35580
    },
    {
      "stop": {
        "id": "2_1466",
        "lat": 48.085058,
        "lon": -1.65386,
        "name": "Hôpital Sud",
        "code": 1466
      },
      "arrival": 35640,
      "departure": 35640
    },
    {
      "stop": {
        "id": "2_1467",
        "lat": 48.087513,
        "lon": -1.653273,
        "name": "Le Blosne",
        "code": 1467
      },
      "arrival": 35700,
      "departure": 35700
    },
    {
      "stop": {
        "id": "2_1356",
        "lat": 48.087458,
        "lon": -1.649853,
        "name": "Galicie",
        "code": 1356
      },
      "arrival": 35760,
      "departure": 35760
    },
    {
      "stop": {
        "id": "2_1468",
        "lat": 48.087383,
        "lon": -1.645367,
        "name": "La Poterie",
        "code": 1468
      },
      "arrival": 35820,
      "departure": 35820
    },
    {
      "stop": {
        "id": "2_3020",
        "lat": 48.080652,
        "lon": -1.630601,
        "name": "Val Blanc",
        "code": 3020
      },
      "arrival": 36000,
      "departure": 36000
    },
    {
      "stop": {
        "id": "2_3021",
        "lat": 48.0846,
        "lon": -1.627505,
        "name": "Rocade Sud",
        "code": 3021
      },
      "arrival": 36120,
      "departure": 36120
    },
    {
      "stop": {
        "id": "2_3008",
        "lat": 48.09031,
        "lon": -1.62417,
        "name": "Loges",
        "code": 3008
      },
      "arrival": 36240,
      "departure": 36240
    },
    {
      "stop": {
        "id": "2_3009",
        "lat": 48.088351,
        "lon": -1.619091,
        "name": "Chantepie Mairie",
        "code": 3009
      },
      "arrival": 36300,
      "departure": 36300
    },
    {
      "stop": {
        "id": "2_3010",
        "lat": 48.088212,
        "lon": -1.616864,
        "name": "Chantepie Eglise",
        "code": 3010
      },
      "arrival": 36360,
      "departure": 36360
    },
    {
      "stop": {
        "id": "2_3022",
        "lat": 48.091041,
        "lon": -1.615283,
        "name": "Hallouvry",
        "code": 3022
      },
      "arrival": 36360,
      "departure": 36360
    },
    {
      "stop": {
        "id": "2_3017",
        "lat": 48.092504,
        "lon": -1.61292,
        "name": "IDEFS",
        "code": 3017
      },
      "arrival": 36420,
      "departure": 36420
    },
    {
      "stop": {
        "id": "2_3016",
        "lat": 48.093514,
        "lon": -1.607562,
        "name": "Cucé",
        "code": 3016
      },
      "arrival": 36480,
      "departure": 36480
    }
  ],
  "route": {
    "id": "2_0033",
    "textColor": "E2001A",
    "color": "FFF164",
    "description": "Inter-quartiers",
    "longName": "Saint-Jacques-de-la-Lande (Gautrais) / Bréquigny \u003c\u003e La Poterie / Chantepie (Cucé)",
    "shortName": "33",
    "type": 3,
    "agencyId": "2"
  }
}