{
  "headsign": "53 | Rennes République",
  "stopTimes": [
    {
      "stop": {
        "id": "2_4267",
        "lat": 48.12259474,
        "lon": -1.86836565,
        "name": "Ville aux Archers",
        "code": 4267
      },
      "arrival": 69300,
      "departure": 69300
    },
    {
      "stop": {
        "id": "2_4264",
        "lat": 48.12306894,
        "lon": -1.86589939,
        "name": "Place de la Mairie",
        "code": 4264
      },
      "arrival": 69360,
      "departure": 69360
    },
    {
      "stop": {
        "id": "2_4252",
        "lat": 48.12305645,
        "lon": -1.86073456,
        "name": "Rochers",
        "code": 4252
      },
      "arrival": 69420,
      "departure": 69420
    },
    {
      "stop": {
        "id": "2_4253",
        "lat": 48.1219735,
        "lon": -1.84615443,
        "name": "Piardière",
        "code": 4253
      },
      "arrival": 69480,
      "departure": 69480
    },
    {
      "stop": {
        "id": "2_4254",
        "lat": 48.12128913,
        "lon": -1.83758202,
        "name": "Grippière",
        "code": 4254
      },
      "arrival": 69540,
      "departure": 69540
    },
    {
      "stop": {
        "id": "2_4301",
        "lat": 48.12299286,
        "lon": -1.82175531,
        "name": "Hautière",
        "code": 4301
      },
      "arrival": 69600,
      "departure": 69600
    },
    {
      "stop": {
        "id": "2_4303",
        "lat": 48.12384912,
        "lon": -1.81779401,
        "name": "L\u0027Hermitage Gare",
        "code": 4303
      },
      "arrival": 69660,
      "departure": 69660
    },
    {
      "stop": {
        "id": "2_4322",
        "lat": 48.12547104,
        "lon": -1.81549739,
        "name": "L\u0027Hermitage Centre",
        "code": 4322
      },
      "arrival": 69660,
      "departure": 69660
    },
    {
      "stop": {
        "id": "2_4305",
        "lat": 48.12464354,
        "lon": -1.81159175,
        "name": "Village",
        "code": 4305
      },
      "arrival": 69720,
      "departure": 69720
    },
    {
      "stop": {
        "id": "2_4306",
        "lat": 48.12320965,
        "lon": -1.8063041,
        "name": "Clairefontaine",
        "code": 4306
      },
      "arrival": 69720,
      "departure": 69720
    },
    {
      "stop": {
        "id": "2_4316",
        "lat": 48.12283506,
        "lon": -1.80134198,
        "name": "Noë Biche",
        "code": 4316
      },
      "arrival": 69780,
      "departure": 69780
    },
    {
      "stop": {
        "id": "2_3754",
        "lat": 48.12095823,
        "lon": -1.77254707,
        "name": "Haie de Terre",
        "code": 3754
      },
      "arrival": 69960,
      "departure": 69960
    },
    {
      "stop": {
        "id": "2_3755",
        "lat": 48.12026434,
        "lon": -1.765416,
        "name": "Vallée",
        "code": 3755
      },
      "arrival": 70020,
      "departure": 70020
    },
    {
      "stop": {
        "id": "2_3756",
        "lat": 48.1190811,
        "lon": -1.76101447,
        "name": "Lion d\u0027Or",
        "code": 3756
      },
      "arrival": 70080,
      "departure": 70080
    },
    {
      "stop": {
        "id": "2_3757",
        "lat": 48.11889936,
        "lon": -1.75681107,
        "name": "Vezin Centre",
        "code": 3757
      },
      "arrival": 70080,
      "departure": 70080
    },
    {
      "stop": {
        "id": "2_3770",
        "lat": 48.11899882,
        "lon": -1.74937216,
        "name": "Champs Bleus",
        "code": 3770
      },
      "arrival": 70140,
      "departure": 70140
    },
    {
      "stop": {
        "id": "2_3758",
        "lat": 48.11838591,
        "lon": -1.74249418,
        "name": "Tertre",
        "code": 3758
      },
      "arrival": 70200,
      "departure": 70200
    },
    {
      "stop": {
        "id": "2_3759",
        "lat": 48.11764928,
        "lon": -1.73167146,
        "name": "Champ Noël",
        "code": 3759
      },
      "arrival": 70260,
      "departure": 70260
    },
    {
      "stop": {
        "id": "2_1504",
        "lat": 48.11640851,
        "lon": -1.72328108,
        "name": "Petit Champeaux",
        "code": 1504
      },
      "arrival": 70320,
      "departure": 70320
    },
    {
      "stop": {
        "id": "2_1503",
        "lat": 48.11616144,
        "lon": -1.71594912,
        "name": "Colin",
        "code": 1503
      },
      "arrival": 70380,
      "departure": 70380
    },
    {
      "stop": {
        "id": "2_1422",
        "lat": 48.11628685,
        "lon": -1.71146403,
        "name": "Merlin",
        "code": 1422
      },
      "arrival": 70380,
      "departure": 70380
    },
    {
      "stop": {
        "id": "2_1500",
        "lat": 48.11386976,
        "lon": -1.7054062,
        "name": "Agrocampus",
        "code": 1500
      },
      "arrival": 70500,
      "departure": 70500
    },
    {
      "stop": {
        "id": "2_1294",
        "lat": 48.11140799,
        "lon": -1.70136408,
        "name": "Marbeuf",
        "code": 1294
      },
      "arrival": 70500,
      "departure": 70500
    },
    {
      "stop": {
        "id": "2_1311",
        "lat": 48.10966101,
        "lon": -1.69838195,
        "name": "Guilloux",
        "code": 1311
      },
      "arrival": 70560,
      "departure": 70560
    },
    {
      "stop": {
        "id": "2_1239",
        "lat": 48.10814248,
        "lon": -1.6948685,
        "name": "Chèques Postaux",
        "code": 1239
      },
      "arrival": 70620,
      "departure": 70620
    },
    {
      "stop": {
        "id": "2_1542",
        "lat": 48.10997275,
        "lon": -1.68535336,
        "name": "Pont de Bretagne",
        "code": 1542
      },
      "arrival": 70740,
      "departure": 70740
    },
    {
      "stop": {
        "id": "2_1167",
        "lat": 48.10936738,
        "lon": -1.678658,
        "name": "République Pré Botté",
        "code": 1167
      },
      "arrival": 70860,
      "departure": 70860
    }
  ],
  "route": {
    "id": "2_0053",
    "textColor": "FFFFFF",
    "color": "D01733",
    "description": "Métropolitaine",
    "longName": "Rennes (République) \u003c\u003e Vezin-le-Coquet / L\u0027Hermitage / La Chapelle-Thouarault",
    "shortName": "53",
    "type": 3,
    "agencyId": "2"
  }
}