{
  "headsign": "9 | Cleunay",
  "stopTimes": [
    {
      "stop": {
        "id": "2_1372",
        "lat": 48.138364,
        "lon": -1.659181,
        "name": "Saint-Laurent",
        "code": 1372
      },
      "arrival": 74100,
      "departure": 74100
    },
    {
      "stop": {
        "id": "2_1159",
        "lat": 48.134358,
        "lon": -1.658784,
        "name": "Hôtel de Région",
        "code": 1159
      },
      "arrival": 74160,
      "departure": 74160
    },
    {
      "stop": {
        "id": "2_1374",
        "lat": 48.133162,
        "lon": -1.65696,
        "name": "Longs Prés",
        "code": 1374
      },
      "arrival": 74220,
      "departure": 74220
    },
    {
      "stop": {
        "id": "2_1375",
        "lat": 48.130103,
        "lon": -1.656774,
        "name": "Gast",
        "code": 1375
      },
      "arrival": 74280,
      "departure": 74280
    },
    {
      "stop": {
        "id": "2_1376",
        "lat": 48.128579,
        "lon": -1.657192,
        "name": "Europe",
        "code": 1376
      },
      "arrival": 74280,
      "departure": 74280
    },
    {
      "stop": {
        "id": "2_1377",
        "lat": 48.126826,
        "lon": -1.65857,
        "name": "Trégain",
        "code": 1377
      },
      "arrival": 74340,
      "departure": 74340
    },
    {
      "stop": {
        "id": "2_1378",
        "lat": 48.124958,
        "lon": -1.661404,
        "name": "Saint-Exupéry",
        "code": 1378
      },
      "arrival": 74400,
      "departure": 74400
    },
    {
      "stop": {
        "id": "2_1009",
        "lat": 48.121635,
        "lon": -1.663186,
        "name": "Metz Volney",
        "code": 1009
      },
      "arrival": 74520,
      "departure": 74520
    },
    {
      "stop": {
        "id": "2_1010",
        "lat": 48.119241,
        "lon": -1.667693,
        "name": "Guéhenno",
        "code": 1010
      },
      "arrival": 74580,
      "departure": 74580
    },
    {
      "stop": {
        "id": "2_1011",
        "lat": 48.118312,
        "lon": -1.671315,
        "name": "Fac de Droit",
        "code": 1011
      },
      "arrival": 74640,
      "departure": 74640
    },
    {
      "stop": {
        "id": "2_1012",
        "lat": 48.11605,
        "lon": -1.674245,
        "name": "Sévigné",
        "code": 1012
      },
      "arrival": 74700,
      "departure": 74700
    },
    {
      "stop": {
        "id": "2_1014",
        "lat": 48.113739,
        "lon": -1.679038,
        "name": "Sainte-Anne",
        "code": 1014
      },
      "arrival": 74820,
      "departure": 74820
    },
    {
      "stop": {
        "id": "2_1015",
        "lat": 48.11252,
        "lon": -1.680352,
        "name": "Champ Jacquet",
        "code": 1015
      },
      "arrival": 74880,
      "departure": 74880
    },
    {
      "stop": {
        "id": "2_1024",
        "lat": 48.109977,
        "lon": -1.680268,
        "name": "République Nemours",
        "code": 1024
      },
      "arrival": 75000,
      "departure": 75000
    },
    {
      "stop": {
        "id": "2_1017",
        "lat": 48.108415,
        "lon": -1.680213,
        "name": "Les Halles",
        "code": 1017
      },
      "arrival": 75060,
      "departure": 75060
    },
    {
      "stop": {
        "id": "2_1018",
        "lat": 48.106204,
        "lon": -1.680999,
        "name": "Plélo Colombier",
        "code": 1018
      },
      "arrival": 75120,
      "departure": 75120
    },
    {
      "stop": {
        "id": "2_1402",
        "lat": 48.105647,
        "lon": -1.685188,
        "name": "Cité Judiciaire",
        "code": 1402
      },
      "arrival": 75180,
      "departure": 75180
    },
    {
      "stop": {
        "id": "2_1611",
        "lat": 48.105462,
        "lon": -1.688422,
        "name": "Redon",
        "code": 1611
      },
      "arrival": 75240,
      "departure": 75240
    },
    {
      "stop": {
        "id": "2_1616",
        "lat": 48.103307,
        "lon": -1.689206,
        "name": "Saint-Conwoïon",
        "code": 1616
      },
      "arrival": 75300,
      "departure": 75300
    },
    {
      "stop": {
        "id": "2_1381",
        "lat": 48.105128,
        "lon": -1.696468,
        "name": "Malakoff",
        "code": 1381
      },
      "arrival": 75420,
      "departure": 75420
    },
    {
      "stop": {
        "id": "2_1398",
        "lat": 48.105225,
        "lon": -1.698672,
        "name": "Voltaire",
        "code": 1398
      },
      "arrival": 75480,
      "departure": 75480
    },
    {
      "stop": {
        "id": "2_1397",
        "lat": 48.103598,
        "lon": -1.700369,
        "name": "Dargent",
        "code": 1397
      },
      "arrival": 75540,
      "departure": 75540
    },
    {
      "stop": {
        "id": "2_1384",
        "lat": 48.102651,
        "lon": -1.703856,
        "name": "Champion de Cicé",
        "code": 1384
      },
      "arrival": 75600,
      "departure": 75600
    },
    {
      "stop": {
        "id": "2_1385",
        "lat": 48.100655,
        "lon": -1.707006,
        "name": "De Lesseps",
        "code": 1385
      },
      "arrival": 75660,
      "departure": 75660
    },
    {
      "stop": {
        "id": "2_1386",
        "lat": 48.098922,
        "lon": -1.705488,
        "name": "Guérinais",
        "code": 1386
      },
      "arrival": 75720,
      "departure": 75720
    },
    {
      "stop": {
        "id": "2_1387",
        "lat": 48.098044,
        "lon": -1.708181,
        "name": "Récipon",
        "code": 1387
      },
      "arrival": 75780,
      "departure": 75780
    },
    {
      "stop": {
        "id": "2_1392",
        "lat": 48.099871,
        "lon": -1.711154,
        "name": "Montand",
        "code": 1392
      },
      "arrival": 75840,
      "departure": 75840
    },
    {
      "stop": {
        "id": "2_1389",
        "lat": 48.101249,
        "lon": -1.71181,
        "name": "Clinique La Sagesse",
        "code": 1389
      },
      "arrival": 75840,
      "departure": 75840
    },
    {
      "stop": {
        "id": "2_1390",
        "lat": 48.104175,
        "lon": -1.713394,
        "name": "Cleunay",
        "code": 1390
      },
      "arrival": 75900,
      "departure": 75900
    }
  ],
  "route": {
    "id": "2_0009",
    "textColor": "FFFFFF",
    "color": "00519E",
    "description": "Majeure",
    "longName": "Saint-Laurent \u003c\u003e Cleunay",
    "shortName": "9",
    "type": 3,
    "agencyId": "2"
  }
}