{
  "headsign": "64 | Acigné",
  "stopTimes": [
    {
      "stop": {
        "id": "2_1167",
        "lat": 48.10936738,
        "lon": -1.678658,
        "name": "République Pré Botté",
        "code": 1167
      },
      "arrival": 52500,
      "departure": 52500
    },
    {
      "stop": {
        "id": "2_1169",
        "lat": 48.10985335,
        "lon": -1.67452094,
        "name": "Musée Beaux Arts",
        "code": 1169
      },
      "arrival": 52680,
      "departure": 52680
    },
    {
      "stop": {
        "id": "2_1172",
        "lat": 48.11007924,
        "lon": -1.65919453,
        "name": "Robidou",
        "code": 1172
      },
      "arrival": 52860,
      "departure": 52860
    },
    {
      "stop": {
        "id": "2_1515",
        "lat": 48.11350079,
        "lon": -1.64755396,
        "name": "Moulin de Joué",
        "code": 1515
      },
      "arrival": 53040,
      "departure": 53040
    },
    {
      "stop": {
        "id": "2_1516",
        "lat": 48.11607506,
        "lon": -1.64842117,
        "name": "Bois Perrin",
        "code": 1516
      },
      "arrival": 53100,
      "departure": 53100
    },
    {
      "stop": {
        "id": "2_1201",
        "lat": 48.11911266,
        "lon": -1.64919701,
        "name": "Vitré Foulon",
        "code": 1201
      },
      "arrival": 53160,
      "departure": 53160
    },
    {
      "stop": {
        "id": "2_1202",
        "lat": 48.1206205,
        "lon": -1.64433521,
        "name": "Beaulieu Cité U",
        "code": 1202
      },
      "arrival": 53220,
      "departure": 53220
    },
    {
      "stop": {
        "id": "2_1203",
        "lat": 48.12203302,
        "lon": -1.6395994,
        "name": "Beaulieu Restau U",
        "code": 1203
      },
      "arrival": 53280,
      "departure": 53280
    },
    {
      "stop": {
        "id": "2_2046",
        "lat": 48.12733271,
        "lon": -1.62783456,
        "name": "Clos Courtel",
        "code": 2046
      },
      "arrival": 53400,
      "departure": 53400
    },
    {
      "stop": {
        "id": "2_2047",
        "lat": 48.12725634,
        "lon": -1.62413052,
        "name": "Belle Fontaine",
        "code": 2047
      },
      "arrival": 53400,
      "departure": 53400
    },
    {
      "stop": {
        "id": "2_2081",
        "lat": 48.1268256,
        "lon": -1.61994598,
        "name": "Bouriande",
        "code": 2081
      },
      "arrival": 53460,
      "departure": 53460
    },
    {
      "stop": {
        "id": "2_2083",
        "lat": 48.12696193,
        "lon": -1.61439739,
        "name": "Gaudais",
        "code": 2083
      },
      "arrival": 53520,
      "departure": 53520
    },
    {
      "stop": {
        "id": "2_2084",
        "lat": 48.12903982,
        "lon": -1.60483093,
        "name": "Verger",
        "code": 2084
      },
      "arrival": 53580,
      "departure": 53580
    },
    {
      "stop": {
        "id": "2_3316",
        "lat": 48.13215304,
        "lon": -1.59643107,
        "name": "Saint-Etienne",
        "code": 3316
      },
      "arrival": 53640,
      "departure": 53640
    },
    {
      "stop": {
        "id": "2_3318",
        "lat": 48.14093339,
        "lon": -1.57346681,
        "name": "Pâtis du Moulinet",
        "code": 3318
      },
      "arrival": 53820,
      "departure": 53820
    },
    {
      "stop": {
        "id": "2_4008",
        "lat": 48.13908696,
        "lon": -1.55947698,
        "name": "Boulais",
        "code": 4008
      },
      "arrival": 53880,
      "departure": 53880
    },
    {
      "stop": {
        "id": "2_4009",
        "lat": 48.13686615,
        "lon": -1.54860696,
        "name": "Pont d\u0027Ohin",
        "code": 4009
      },
      "arrival": 53940,
      "departure": 53940
    },
    {
      "stop": {
        "id": "2_4010",
        "lat": 48.13448302,
        "lon": -1.54192503,
        "name": "Lande",
        "code": 4010
      },
      "arrival": 54000,
      "departure": 54000
    },
    {
      "stop": {
        "id": "2_4011",
        "lat": 48.13388288,
        "lon": -1.53762999,
        "name": "Foyer",
        "code": 4011
      },
      "arrival": 54060,
      "departure": 54060
    },
    {
      "stop": {
        "id": "2_4012",
        "lat": 48.13417021,
        "lon": -1.5347181,
        "name": "Acigné Mairie",
        "code": 4012
      },
      "arrival": 54120,
      "departure": 54120
    },
    {
      "stop": {
        "id": "2_4013",
        "lat": 48.13716322,
        "lon": -1.53294519,
        "name": "Verdaudais",
        "code": 4013
      },
      "arrival": 54180,
      "departure": 54180
    },
    {
      "stop": {
        "id": "2_4001",
        "lat": 48.13701919,
        "lon": -1.52637517,
        "name": "Timonière",
        "code": 4001
      },
      "arrival": 54300,
      "departure": 54300
    }
  ],
  "route": {
    "id": "2_0064",
    "textColor": "FFFFFF",
    "color": "0094D8",
    "description": "Métropolitaine",
    "longName": "Rennes (République) \u003c\u003e Acigné",
    "shortName": "64",
    "type": 3,
    "agencyId": "2"
  }
}