{
  "headsign": "75 | Vern Nouvoitou",
  "stopTimes": [
    {
      "stop": {
        "id": "2_1511",
        "lat": 48.087572,
        "lon": -1.643466,
        "name": "La Poterie",
        "code": 1511
      },
      "arrival": 62400,
      "departure": 62400
    },
    {
      "stop": {
        "id": "2_2619",
        "lat": 48.044566,
        "lon": -1.603907,
        "name": "La Poste",
        "code": 2619
      },
      "arrival": 62940,
      "departure": 62940
    },
    {
      "stop": {
        "id": "2_2633",
        "lat": 48.045114,
        "lon": -1.59861,
        "name": "Maillardière",
        "code": 2633
      },
      "arrival": 63060,
      "departure": 63060
    },
    {
      "stop": {
        "id": "2_2632",
        "lat": 48.048065,
        "lon": -1.598577,
        "name": "Moulin",
        "code": 2632
      },
      "arrival": 63120,
      "departure": 63120
    },
    {
      "stop": {
        "id": "2_3406",
        "lat": 48.044378,
        "lon": -1.56147,
        "name": "Eclosel",
        "code": 3406
      },
      "arrival": 63300,
      "departure": 63300
    },
    {
      "stop": {
        "id": "2_3407",
        "lat": 48.042359,
        "lon": -1.549754,
        "name": "Grée Barel",
        "code": 3407
      },
      "arrival": 63360,
      "departure": 63360
    },
    {
      "stop": {
        "id": "2_3409",
        "lat": 48.041447,
        "lon": -1.545236,
        "name": "Menault",
        "code": 3409
      },
      "arrival": 63420,
      "departure": 63420
    },
    {
      "stop": {
        "id": "2_3403",
        "lat": 48.040203,
        "lon": -1.542002,
        "name": "Chêne Centenaire",
        "code": 3403
      },
      "arrival": 63480,
      "departure": 63480
    },
    {
      "stop": {
        "id": "2_3402",
        "lat": 48.04088,
        "lon": -1.549778,
        "name": "Langlois",
        "code": 3402
      },
      "arrival": 63660,
      "departure": 63660
    },
    {
      "stop": {
        "id": "2_3401",
        "lat": 48.041337,
        "lon": -1.553405,
        "name": "Parc des Sports",
        "code": 3401
      },
      "arrival": 63780,
      "departure": 63780
    }
  ],
  "route": {
    "id": "2_0075",
    "textColor": "201D21",
    "color": "F2973E",
    "description": "Métropolitaine",
    "longName": "Rennes (La Poterie) \u003c\u003e Nouvoitou",
    "shortName": "75",
    "type": 3,
    "agencyId": "2"
  }
}