{
  "headsign": "52 | Montgermont La Chapelle",
  "stopTimes": [
    {
      "stop": {
        "id": "2_3732",
        "lat": 48.14932288,
        "lon": -1.83903709,
        "name": "Ile des Bois",
        "code": 3732
      },
      "arrival": 37500,
      "departure": 37500
    },
    {
      "stop": {
        "id": "2_3717",
        "lat": 48.15401352,
        "lon": -1.83761056,
        "name": "Maison Neuve",
        "code": 3717
      },
      "arrival": 37560,
      "departure": 37560
    },
    {
      "stop": {
        "id": "2_3715",
        "lat": 48.15376806,
        "lon": -1.83402942,
        "name": "Clos des Cerisiers",
        "code": 3715
      },
      "arrival": 37620,
      "departure": 37620
    },
    {
      "stop": {
        "id": "2_3705",
        "lat": 48.15297271,
        "lon": -1.82975865,
        "name": "Saint-Gilles Centre",
        "code": 3705
      },
      "arrival": 37620,
      "departure": 37620
    },
    {
      "stop": {
        "id": "2_3707",
        "lat": 48.15070786,
        "lon": -1.82521706,
        "name": "Pont aux Moines",
        "code": 3707
      },
      "arrival": 37740,
      "departure": 37740
    },
    {
      "stop": {
        "id": "2_3708",
        "lat": 48.15283954,
        "lon": -1.82071011,
        "name": "Vigne",
        "code": 3708
      },
      "arrival": 37800,
      "departure": 37800
    },
    {
      "stop": {
        "id": "2_3709",
        "lat": 48.15291812,
        "lon": -1.80907719,
        "name": "Fouaye",
        "code": 3709
      },
      "arrival": 37920,
      "departure": 37920
    },
    {
      "stop": {
        "id": "2_3102",
        "lat": 48.15130194,
        "lon": -1.79231921,
        "name": "Pie Neuve",
        "code": 3102
      },
      "arrival": 38040,
      "departure": 38040
    },
    {
      "stop": {
        "id": "2_3103",
        "lat": 48.14925877,
        "lon": -1.78891407,
        "name": "Docteur Léon",
        "code": 3103
      },
      "arrival": 38100,
      "departure": 38100
    },
    {
      "stop": {
        "id": "2_3104",
        "lat": 48.14851135,
        "lon": -1.78489927,
        "name": "Touche Milon",
        "code": 3104
      },
      "arrival": 38160,
      "departure": 38160
    },
    {
      "stop": {
        "id": "2_3119",
        "lat": 48.14754795,
        "lon": -1.78109404,
        "name": "Pinault",
        "code": 3119
      },
      "arrival": 38220,
      "departure": 38220
    },
    {
      "stop": {
        "id": "2_3134",
        "lat": 48.14165529,
        "lon": -1.77056625,
        "name": "Nominoë",
        "code": 3134
      },
      "arrival": 38340,
      "departure": 38340
    },
    {
      "stop": {
        "id": "2_1517",
        "lat": 48.11854026,
        "lon": -1.71363649,
        "name": "Berry",
        "code": 1517
      },
      "arrival": 38760,
      "departure": 38760
    },
    {
      "stop": {
        "id": "2_1520",
        "lat": 48.12050245,
        "lon": -1.70973991,
        "name": "Bourbonnais",
        "code": 1520
      },
      "arrival": 38820,
      "departure": 38820
    },
    {
      "stop": {
        "id": "2_1494",
        "lat": 48.12125284,
        "lon": -1.70296746,
        "name": "Villejean-Université",
        "code": 1494
      },
      "arrival": 39000,
      "departure": 39000
    },
    {
      "stop": {
        "id": "2_1495",
        "lat": 48.12663856,
        "lon": -1.69309309,
        "name": "Lycée Basch",
        "code": 1495
      },
      "arrival": 39240,
      "departure": 39240
    },
    {
      "stop": {
        "id": "2_1537",
        "lat": 48.13157496,
        "lon": -1.69170144,
        "name": "Léonard",
        "code": 1537
      },
      "arrival": 39360,
      "departure": 39360
    },
    {
      "stop": {
        "id": "2_2830",
        "lat": 48.13432722,
        "lon": -1.69446334,
        "name": "Grand Quartier",
        "code": 2830
      },
      "arrival": 39420,
      "departure": 39420
    },
    {
      "stop": {
        "id": "2_3508",
        "lat": 48.14826699,
        "lon": -1.70363701,
        "name": "Vizeule",
        "code": 3508
      },
      "arrival": 39540,
      "departure": 39540
    },
    {
      "stop": {
        "id": "2_3509",
        "lat": 48.15288114,
        "lon": -1.70885747,
        "name": "Métrie",
        "code": 3509
      },
      "arrival": 39660,
      "departure": 39660
    },
    {
      "stop": {
        "id": "2_3510",
        "lat": 48.15558798,
        "lon": -1.71082246,
        "name": "Belle Epine",
        "code": 3510
      },
      "arrival": 39660,
      "departure": 39660
    },
    {
      "stop": {
        "id": "2_3511",
        "lat": 48.15733411,
        "lon": -1.71460655,
        "name": "Courtines",
        "code": 3511
      },
      "arrival": 39720,
      "departure": 39720
    },
    {
      "stop": {
        "id": "2_3512",
        "lat": 48.15567996,
        "lon": -1.71663805,
        "name": "Montgermont Mairie",
        "code": 3512
      },
      "arrival": 39780,
      "departure": 39780
    },
    {
      "stop": {
        "id": "2_3513",
        "lat": 48.15568596,
        "lon": -1.72068225,
        "name": "Pierre Texier",
        "code": 3513
      },
      "arrival": 39840,
      "departure": 39840
    },
    {
      "stop": {
        "id": "2_3501",
        "lat": 48.15713428,
        "lon": -1.72329993,
        "name": "Fougerolle",
        "code": 3501
      },
      "arrival": 39900,
      "departure": 39900
    },
    {
      "stop": {
        "id": "2_3515",
        "lat": 48.16271981,
        "lon": -1.73059303,
        "name": "Silandière",
        "code": 3515
      },
      "arrival": 39960,
      "departure": 39960
    },
    {
      "stop": {
        "id": "2_4057",
        "lat": 48.17039595,
        "lon": -1.73622985,
        "name": "Sénestrais",
        "code": 4057
      },
      "arrival": 40080,
      "departure": 40080
    },
    {
      "stop": {
        "id": "2_4058",
        "lat": 48.17395236,
        "lon": -1.73523531,
        "name": "Viennais",
        "code": 4058
      },
      "arrival": 40140,
      "departure": 40140
    },
    {
      "stop": {
        "id": "2_4059",
        "lat": 48.17663681,
        "lon": -1.7328654,
        "name": "Mairie",
        "code": 4059
      },
      "arrival": 40140,
      "departure": 40140
    },
    {
      "stop": {
        "id": "2_4060",
        "lat": 48.1794217,
        "lon": -1.72905833,
        "name": "Métairie",
        "code": 4060
      },
      "arrival": 40200,
      "departure": 40200
    },
    {
      "stop": {
        "id": "2_4069",
        "lat": 48.18315711,
        "lon": -1.72604447,
        "name": "Besneraie",
        "code": 4069
      },
      "arrival": 40320,
      "departure": 40320
    }
  ],
  "route": {
    "id": "2_0052",
    "textColor": "FFFFFF",
    "color": "007C77",
    "description": "Métropolitaine",
    "longName": "Saint-Gilles / Pacé \u003c\u003e Rennes (Villejean-Université) \u003c\u003e Montgermont / La Chapelle-des-Fougeretz",
    "shortName": "52",
    "type": 3,
    "agencyId": "2"
  }
}