{
  "headsign": "2 | Grand Quartier",
  "stopTimes": [
    {
      "stop": {
        "id": "2_1071",
        "lat": 48.09618325,
        "lon": -1.63701996,
        "name": "Haut Sancé",
        "code": 1071
      },
      "arrival": 70920,
      "departure": 70920
    },
    {
      "stop": {
        "id": "2_1072",
        "lat": 48.09499328,
        "lon": -1.63793817,
        "name": "CARSAT",
        "code": 1072
      },
      "arrival": 70980,
      "departure": 70980
    },
    {
      "stop": {
        "id": "2_1073",
        "lat": 48.09257263,
        "lon": -1.63966324,
        "name": "Ronceray",
        "code": 1073
      },
      "arrival": 71040,
      "departure": 71040
    },
    {
      "stop": {
        "id": "2_1074",
        "lat": 48.09187613,
        "lon": -1.63629215,
        "name": "Gohier",
        "code": 1074
      },
      "arrival": 71040,
      "departure": 71040
    },
    {
      "stop": {
        "id": "2_1075",
        "lat": 48.08949401,
        "lon": -1.63543734,
        "name": "Bourgueil",
        "code": 1075
      },
      "arrival": 71100,
      "departure": 71100
    },
    {
      "stop": {
        "id": "2_1076",
        "lat": 48.08799285,
        "lon": -1.6383059,
        "name": "Monnet",
        "code": 1076
      },
      "arrival": 71160,
      "departure": 71160
    },
    {
      "stop": {
        "id": "2_1065",
        "lat": 48.08758723,
        "lon": -1.64393705,
        "name": "La Poterie",
        "code": 1065
      },
      "arrival": 71220,
      "departure": 71220
    },
    {
      "stop": {
        "id": "2_1078",
        "lat": 48.08988552,
        "lon": -1.64471493,
        "name": "Lycée Descartes",
        "code": 1078
      },
      "arrival": 71280,
      "departure": 71280
    },
    {
      "stop": {
        "id": "2_1079",
        "lat": 48.09274252,
        "lon": -1.64724001,
        "name": "Monsieur Vincent",
        "code": 1079
      },
      "arrival": 71340,
      "departure": 71340
    },
    {
      "stop": {
        "id": "2_1080",
        "lat": 48.09595121,
        "lon": -1.65158599,
        "name": "Calmette",
        "code": 1080
      },
      "arrival": 71400,
      "departure": 71400
    },
    {
      "stop": {
        "id": "2_1081",
        "lat": 48.09800207,
        "lon": -1.65534604,
        "name": "Bourgeois",
        "code": 1081
      },
      "arrival": 71460,
      "departure": 71460
    },
    {
      "stop": {
        "id": "2_1082",
        "lat": 48.09989659,
        "lon": -1.65781416,
        "name": "Piré",
        "code": 1082
      },
      "arrival": 71520,
      "departure": 71520
    },
    {
      "stop": {
        "id": "2_1213",
        "lat": 48.10287126,
        "lon": -1.66143906,
        "name": "Croix Saint-Hélier",
        "code": 1213
      },
      "arrival": 71580,
      "departure": 71580
    },
    {
      "stop": {
        "id": "2_1057",
        "lat": 48.10521928,
        "lon": -1.66612986,
        "name": "Laënnec",
        "code": 1057
      },
      "arrival": 71700,
      "departure": 71700
    },
    {
      "stop": {
        "id": "2_1056",
        "lat": 48.10398974,
        "lon": -1.67213136,
        "name": "Gares",
        "code": 1056
      },
      "arrival": 71820,
      "departure": 71820
    },
    {
      "stop": {
        "id": "2_1055",
        "lat": 48.1053351,
        "lon": -1.67389232,
        "name": "Champs Libres",
        "code": 1055
      },
      "arrival": 71940,
      "departure": 71940
    },
    {
      "stop": {
        "id": "2_1054",
        "lat": 48.10755037,
        "lon": -1.67508432,
        "name": "Liberté TNB",
        "code": 1054
      },
      "arrival": 72000,
      "departure": 72000
    },
    {
      "stop": {
        "id": "2_1315",
        "lat": 48.10969693,
        "lon": -1.67808112,
        "name": "République",
        "code": 1315
      },
      "arrival": 72180,
      "departure": 72180
    },
    {
      "stop": {
        "id": "2_1051",
        "lat": 48.10985855,
        "lon": -1.68327915,
        "name": "Place de Bretagne",
        "code": 1051
      },
      "arrival": 72300,
      "departure": 72300
    },
    {
      "stop": {
        "id": "2_1092",
        "lat": 48.11176633,
        "lon": -1.68626625,
        "name": "Les Lices",
        "code": 1092
      },
      "arrival": 72360,
      "departure": 72360
    },
    {
      "stop": {
        "id": "2_1093",
        "lat": 48.11174331,
        "lon": -1.68956204,
        "name": "Horizons",
        "code": 1093
      },
      "arrival": 72480,
      "departure": 72480
    },
    {
      "stop": {
        "id": "2_1094",
        "lat": 48.11309647,
        "lon": -1.69338394,
        "name": "Brest Verdun",
        "code": 1094
      },
      "arrival": 72540,
      "departure": 72540
    },
    {
      "stop": {
        "id": "2_1095",
        "lat": 48.11646144,
        "lon": -1.69082908,
        "name": "La Touche",
        "code": 1095
      },
      "arrival": 72600,
      "departure": 72600
    },
    {
      "stop": {
        "id": "2_1096",
        "lat": 48.11820647,
        "lon": -1.68928315,
        "name": "Anatole France",
        "code": 1096
      },
      "arrival": 72600,
      "departure": 72600
    },
    {
      "stop": {
        "id": "2_1097",
        "lat": 48.12102062,
        "lon": -1.68680476,
        "name": "IUFM (futur ESPE)",
        "code": 1097
      },
      "arrival": 72660,
      "departure": 72660
    },
    {
      "stop": {
        "id": "2_1099",
        "lat": 48.12361631,
        "lon": -1.68364233,
        "name": "Saint-Martin",
        "code": 1099
      },
      "arrival": 72720,
      "departure": 72720
    },
    {
      "stop": {
        "id": "2_1100",
        "lat": 48.12493528,
        "lon": -1.68198209,
        "name": "Cimetière Nord",
        "code": 1100
      },
      "arrival": 72780,
      "departure": 72780
    },
    {
      "stop": {
        "id": "2_1041",
        "lat": 48.12884165,
        "lon": -1.68371536,
        "name": "Trois Croix",
        "code": 1041
      },
      "arrival": 72900,
      "departure": 72900
    },
    {
      "stop": {
        "id": "2_1102",
        "lat": 48.13115995,
        "lon": -1.68458083,
        "name": "Donelière",
        "code": 1102
      },
      "arrival": 72960,
      "departure": 72960
    },
    {
      "stop": {
        "id": "2_1371",
        "lat": 48.13300291,
        "lon": -1.68506819,
        "name": "Lycée Mendès France",
        "code": 1371
      },
      "arrival": 72960,
      "departure": 72960
    },
    {
      "stop": {
        "id": "2_2803",
        "lat": 48.13739455,
        "lon": -1.6885143,
        "name": "La Plesse",
        "code": 2803
      },
      "arrival": 73080,
      "departure": 73080
    },
    {
      "stop": {
        "id": "2_2801",
        "lat": 48.13580524,
        "lon": -1.69311343,
        "name": "Grand Quartier",
        "code": 2801
      },
      "arrival": 73140,
      "departure": 73140
    }
  ],
  "route": {
    "id": "2_0002",
    "textColor": "FFFFFF",
    "color": "0083CD",
    "description": "Majeure",
    "longName": "Grand Quartier \u003c\u003e La Poterie / Haut Sancé",
    "shortName": "2",
    "type": 3,
    "agencyId": "2"
  }
}