{
  "headsign": "67 | Cesson-Sévigné Brécé",
  "stopTimes": [
    {
      "stop": {
        "id": "2_1556",
        "lat": 48.1094,
        "lon": -1.677626,
        "name": "République",
        "code": 1556
      },
      "arrival": 64800,
      "departure": 64800
    },
    {
      "stop": {
        "id": "2_1169",
        "lat": 48.109809,
        "lon": -1.674483,
        "name": "Musée Beaux Arts",
        "code": 1169
      },
      "arrival": 64920,
      "departure": 64920
    },
    {
      "stop": {
        "id": "2_1172",
        "lat": 48.11003,
        "lon": -1.659227,
        "name": "Robidou",
        "code": 1172
      },
      "arrival": 65100,
      "departure": 65100
    },
    {
      "stop": {
        "id": "2_1525",
        "lat": 48.11461,
        "lon": -1.655223,
        "name": "Durafour Strasbourg",
        "code": 1525
      },
      "arrival": 65280,
      "departure": 65280
    },
    {
      "stop": {
        "id": "2_1524",
        "lat": 48.114621,
        "lon": -1.651278,
        "name": "Hôpital Régnier",
        "code": 1524
      },
      "arrival": 65340,
      "departure": 65340
    },
    {
      "stop": {
        "id": "2_1523",
        "lat": 48.114277,
        "lon": -1.649131,
        "name": "Moulin de Joué",
        "code": 1523
      },
      "arrival": 65400,
      "departure": 65400
    },
    {
      "stop": {
        "id": "2_1522",
        "lat": 48.113884,
        "lon": -1.642719,
        "name": "Piletière",
        "code": 1522
      },
      "arrival": 65460,
      "departure": 65460
    },
    {
      "stop": {
        "id": "2_1610",
        "lat": 48.114025,
        "lon": -1.636082,
        "name": "Tournebride",
        "code": 1610
      },
      "arrival": 65580,
      "departure": 65580
    },
    {
      "stop": {
        "id": "2_2019",
        "lat": 48.114037,
        "lon": -1.628008,
        "name": "Champs Péans",
        "code": 2019
      },
      "arrival": 65700,
      "departure": 65700
    },
    {
      "stop": {
        "id": "2_2020",
        "lat": 48.114105,
        "lon": -1.621837,
        "name": "Taillis",
        "code": 2020
      },
      "arrival": 65760,
      "departure": 65760
    },
    {
      "stop": {
        "id": "2_2062",
        "lat": 48.107771,
        "lon": -1.614065,
        "name": "Rond Point de Bray",
        "code": 2062
      },
      "arrival": 65940,
      "departure": 65940
    },
    {
      "stop": {
        "id": "2_2063",
        "lat": 48.108743,
        "lon": -1.60963,
        "name": "Monniais",
        "code": 2063
      },
      "arrival": 66000,
      "departure": 66000
    },
    {
      "stop": {
        "id": "2_2064",
        "lat": 48.112543,
        "lon": -1.607297,
        "name": "Peupliers",
        "code": 2064
      },
      "arrival": 66120,
      "departure": 66120
    },
    {
      "stop": {
        "id": "2_2065",
        "lat": 48.113984,
        "lon": -1.603204,
        "name": "Cesson Gare",
        "code": 2065
      },
      "arrival": 66180,
      "departure": 66180
    },
    {
      "stop": {
        "id": "2_2086",
        "lat": 48.114279,
        "lon": -1.600415,
        "name": "Bordage",
        "code": 2086
      },
      "arrival": 66240,
      "departure": 66240
    },
    {
      "stop": {
        "id": "2_2103",
        "lat": 48.113318,
        "lon": -1.59004,
        "name": "Rigourdière",
        "code": 2103
      },
      "arrival": 66360,
      "departure": 66360
    },
    {
      "stop": {
        "id": "2_4163",
        "lat": 48.108239,
        "lon": -1.507377,
        "name": "Turbanière",
        "code": 4163
      },
      "arrival": 66900,
      "departure": 66900
    },
    {
      "stop": {
        "id": "2_4157",
        "lat": 48.109265,
        "lon": -1.503198,
        "name": "Pâtis",
        "code": 4157
      },
      "arrival": 66900,
      "departure": 66900
    },
    {
      "stop": {
        "id": "2_4158",
        "lat": 48.107535,
        "lon": -1.486118,
        "name": "Destiers",
        "code": 4158
      },
      "arrival": 67020,
      "departure": 67020
    },
    {
      "stop": {
        "id": "2_4159",
        "lat": 48.107463,
        "lon": -1.482571,
        "name": "Provence",
        "code": 4159
      },
      "arrival": 67080,
      "departure": 67080
    },
    {
      "stop": {
        "id": "2_4160",
        "lat": 48.107291,
        "lon": -1.478381,
        "name": "Saules",
        "code": 4160
      },
      "arrival": 67140,
      "departure": 67140
    },
    {
      "stop": {
        "id": "2_4161",
        "lat": 48.109064,
        "lon": -1.478264,
        "name": "Mainguère",
        "code": 4161
      },
      "arrival": 67200,
      "departure": 67200
    },
    {
      "stop": {
        "id": "2_4151",
        "lat": 48.109864,
        "lon": -1.481103,
        "name": "Anjou",
        "code": 4151
      },
      "arrival": 67260,
      "departure": 67260
    }
  ],
  "route": {
    "id": "2_0067",
    "textColor": "FFFFFF",
    "color": "E2003B",
    "description": "Métropolitaine",
    "longName": "Rennes (République) \u003c\u003e Cesson-Sévigné / Brécé",
    "shortName": "67",
    "type": 3,
    "agencyId": "2"
  }
}