{
  "headsign": "STN | Beaulieu Atalante",
  "stopTimes": [
    {
      "stop": {
        "id": "2_1168",
        "lat": 48.109761,
        "lon": -1.678807,
        "name": "République",
        "code": 1168
      },
      "arrival": 12900,
      "departure": 12900
    },
    {
      "stop": {
        "id": "2_1169",
        "lat": 48.109809,
        "lon": -1.674483,
        "name": "Musée Beaux Arts",
        "code": 1169
      },
      "arrival": 12960,
      "departure": 12960
    },
    {
      "stop": {
        "id": "2_1170",
        "lat": 48.109996,
        "lon": -1.669018,
        "name": "Paul Bert",
        "code": 1170
      },
      "arrival": 13020,
      "departure": 13020
    },
    {
      "stop": {
        "id": "2_1171",
        "lat": 48.110016,
        "lon": -1.663623,
        "name": "Pont de Châteaudun",
        "code": 1171
      },
      "arrival": 13080,
      "departure": 13080
    },
    {
      "stop": {
        "id": "2_1172",
        "lat": 48.11003,
        "lon": -1.659227,
        "name": "Robidou",
        "code": 1172
      },
      "arrival": 13140,
      "departure": 13140
    },
    {
      "stop": {
        "id": "2_1173",
        "lat": 48.110055,
        "lon": -1.656165,
        "name": "Pont de Strasbourg",
        "code": 1173
      },
      "arrival": 13200,
      "departure": 13200
    },
    {
      "stop": {
        "id": "2_1174",
        "lat": 48.112437,
        "lon": -1.64292,
        "name": "Plaine de Baud",
        "code": 1174
      },
      "arrival": 13320,
      "departure": 13320
    },
    {
      "stop": {
        "id": "2_1604",
        "lat": 48.113551,
        "lon": -1.640947,
        "name": "Les Préales",
        "code": 1604
      },
      "arrival": 13380,
      "departure": 13380
    },
    {
      "stop": {
        "id": "2_1610",
        "lat": 48.114025,
        "lon": -1.636082,
        "name": "Tournebride",
        "code": 1610
      },
      "arrival": 13440,
      "departure": 13440
    },
    {
      "stop": {
        "id": "2_1175",
        "lat": 48.117101,
        "lon": -1.633896,
        "name": "Beaulieu Chimie",
        "code": 1175
      },
      "arrival": 13560,
      "departure": 13560
    },
    {
      "stop": {
        "id": "2_1204",
        "lat": 48.119511,
        "lon": -1.635317,
        "name": "Beaulieu INSA",
        "code": 1204
      },
      "arrival": 13560,
      "departure": 13560
    },
    {
      "stop": {
        "id": "2_1313",
        "lat": 48.121929,
        "lon": -1.638311,
        "name": "Beaulieu Restau U",
        "code": 1313
      },
      "arrival": 13620,
      "departure": 13620
    },
    {
      "stop": {
        "id": "2_1314",
        "lat": 48.125106,
        "lon": -1.632973,
        "name": "IUT",
        "code": 1314
      },
      "arrival": 13740,
      "departure": 13740
    },
    {
      "stop": {
        "id": "2_1290",
        "lat": 48.126929,
        "lon": -1.629221,
        "name": "Clos Courtel",
        "code": 1290
      },
      "arrival": 13800,
      "departure": 13800
    }
  ],
  "route": {
    "id": "2_0805",
    "textColor": "FFFFFF",
    "color": "004B96",
    "description": "Spéciale",
    "longName": "STAR de Nuit - Beaulieu Atalante \u003c\u003e J.F. Kennedy",
    "shortName": "STN",
    "type": 3,
    "agencyId": "2"
  }
}