{
  "headsign": "3 | Saint-Laurent",
  "stopTimes": [
    {
      "stop": {
        "id": "2_1564",
        "lat": 48.08782223,
        "lon": -1.67459024,
        "name": "Henri Fréville",
        "code": 1564
      },
      "arrival": 32700,
      "departure": 32700
    },
    {
      "stop": {
        "id": "2_1622",
        "lat": 48.08415,
        "lon": -1.679998,
        "name": "Alma",
        "code": 1622
      },
      "arrival": 32880,
      "departure": 32880
    },
    {
      "stop": {
        "id": "2_1134",
        "lat": 48.08517813,
        "lon": -1.68230743,
        "name": "Canada",
        "code": 1134
      },
      "arrival": 32940,
      "departure": 32940
    },
    {
      "stop": {
        "id": "2_1135",
        "lat": 48.08807547,
        "lon": -1.68221434,
        "name": "Suède",
        "code": 1135
      },
      "arrival": 33060,
      "departure": 33060
    },
    {
      "stop": {
        "id": "2_1136",
        "lat": 48.09113663,
        "lon": -1.68208194,
        "name": "Champs Manceaux",
        "code": 1136
      },
      "arrival": 33120,
      "departure": 33120
    },
    {
      "stop": {
        "id": "2_1137",
        "lat": 48.09359701,
        "lon": -1.68186938,
        "name": "Frères Moines",
        "code": 1137
      },
      "arrival": 33180,
      "departure": 33180
    },
    {
      "stop": {
        "id": "2_1138",
        "lat": 48.09634749,
        "lon": -1.68161522,
        "name": "Garigliano",
        "code": 1138
      },
      "arrival": 33240,
      "departure": 33240
    },
    {
      "stop": {
        "id": "2_1139",
        "lat": 48.09695782,
        "lon": -1.67850697,
        "name": "Sacrés Coeurs",
        "code": 1139
      },
      "arrival": 33360,
      "departure": 33360
    },
    {
      "stop": {
        "id": "2_1333",
        "lat": 48.09774726,
        "lon": -1.67519921,
        "name": "Jacques Cartier",
        "code": 1333
      },
      "arrival": 33420,
      "departure": 33420
    },
    {
      "stop": {
        "id": "2_1141",
        "lat": 48.09927814,
        "lon": -1.67561799,
        "name": "Ginguené",
        "code": 1141
      },
      "arrival": 33480,
      "departure": 33480
    },
    {
      "stop": {
        "id": "2_1142",
        "lat": 48.10133802,
        "lon": -1.67625716,
        "name": "Gare Sud Féval",
        "code": 1142
      },
      "arrival": 33540,
      "departure": 33540
    },
    {
      "stop": {
        "id": "2_1143",
        "lat": 48.10608092,
        "lon": -1.67760115,
        "name": "Charles de Gaulle",
        "code": 1143
      },
      "arrival": 33660,
      "departure": 33660
    },
    {
      "stop": {
        "id": "2_1550",
        "lat": 48.10969793,
        "lon": -1.67797331,
        "name": "République",
        "code": 1550
      },
      "arrival": 33840,
      "departure": 33840
    },
    {
      "stop": {
        "id": "2_1552",
        "lat": 48.11068847,
        "lon": -1.67369302,
        "name": "Place Pasteur",
        "code": 1552
      },
      "arrival": 33960,
      "departure": 33960
    },
    {
      "stop": {
        "id": "2_1146",
        "lat": 48.11187283,
        "lon": -1.67113003,
        "name": "Thabor",
        "code": 1146
      },
      "arrival": 34020,
      "departure": 34020
    },
    {
      "stop": {
        "id": "2_1147",
        "lat": 48.11271566,
        "lon": -1.66439614,
        "name": "Saint-Vincent",
        "code": 1147
      },
      "arrival": 34140,
      "departure": 34140
    },
    {
      "stop": {
        "id": "2_1148",
        "lat": 48.11341058,
        "lon": -1.66141539,
        "name": "Oberthur",
        "code": 1148
      },
      "arrival": 34200,
      "departure": 34200
    },
    {
      "stop": {
        "id": "2_1149",
        "lat": 48.114256,
        "lon": -1.65873929,
        "name": "Durafour",
        "code": 1149
      },
      "arrival": 34200,
      "departure": 34200
    },
    {
      "stop": {
        "id": "2_1150",
        "lat": 48.11652806,
        "lon": -1.65552519,
        "name": "Jeanne d\u0027Arc",
        "code": 1150
      },
      "arrival": 34320,
      "departure": 34320
    },
    {
      "stop": {
        "id": "2_1151",
        "lat": 48.11879169,
        "lon": -1.65161883,
        "name": "Vitré Danton",
        "code": 1151
      },
      "arrival": 34380,
      "departure": 34380
    },
    {
      "stop": {
        "id": "2_1152",
        "lat": 48.12043354,
        "lon": -1.65067299,
        "name": "Docteur Quentin",
        "code": 1152
      },
      "arrival": 34440,
      "departure": 34440
    },
    {
      "stop": {
        "id": "2_1153",
        "lat": 48.12250411,
        "lon": -1.65118232,
        "name": "Lycée Chateaubriand",
        "code": 1153
      },
      "arrival": 34440,
      "departure": 34440
    },
    {
      "stop": {
        "id": "2_1154",
        "lat": 48.12608523,
        "lon": -1.65181702,
        "name": "Joliot-Curie",
        "code": 1154
      },
      "arrival": 34500,
      "departure": 34500
    },
    {
      "stop": {
        "id": "2_1155",
        "lat": 48.12916578,
        "lon": -1.65210189,
        "name": "Gayeulles",
        "code": 1155
      },
      "arrival": 34560,
      "departure": 34560
    },
    {
      "stop": {
        "id": "2_1156",
        "lat": 48.13185588,
        "lon": -1.65200229,
        "name": "Le Blizz",
        "code": 1156
      },
      "arrival": 34620,
      "departure": 34620
    },
    {
      "stop": {
        "id": "2_1157",
        "lat": 48.13494543,
        "lon": -1.65205906,
        "name": "Gayeulles Piscine",
        "code": 1157
      },
      "arrival": 34620,
      "departure": 34620
    },
    {
      "stop": {
        "id": "2_1158",
        "lat": 48.13553883,
        "lon": -1.65620509,
        "name": "Héronière",
        "code": 1158
      },
      "arrival": 34680,
      "departure": 34680
    },
    {
      "stop": {
        "id": "2_1373",
        "lat": 48.13520527,
        "lon": -1.65938653,
        "name": "Hôtel de Région",
        "code": 1373
      },
      "arrival": 34740,
      "departure": 34740
    },
    {
      "stop": {
        "id": "2_1103",
        "lat": 48.13880017,
        "lon": -1.65921311,
        "name": "Saint-Laurent",
        "code": 1103
      },
      "arrival": 34860,
      "departure": 34860
    }
  ],
  "route": {
    "id": "2_0003",
    "textColor": "FFFFFF",
    "color": "00843A",
    "description": "Majeure",
    "longName": "Saint-Laurent \u003c\u003e Henri Fréville",
    "shortName": "3",
    "type": 3,
    "agencyId": "2"
  }
}