{
  "headsign": "75 | Vern Nouvoitou",
  "stopTimes": [
    {
      "stop": {
        "id": "2_1511",
        "lat": 48.087572,
        "lon": -1.643466,
        "name": "La Poterie",
        "code": 1511
      },
      "arrival": 69900,
      "departure": 69900
    },
    {
      "stop": {
        "id": "2_2619",
        "lat": 48.044566,
        "lon": -1.603907,
        "name": "La Poste",
        "code": 2619
      },
      "arrival": 70380,
      "departure": 70380
    },
    {
      "stop": {
        "id": "2_2633",
        "lat": 48.045114,
        "lon": -1.59861,
        "name": "Maillardière",
        "code": 2633
      },
      "arrival": 70500,
      "departure": 70500
    },
    {
      "stop": {
        "id": "2_2632",
        "lat": 48.048065,
        "lon": -1.598577,
        "name": "Moulin",
        "code": 2632
      },
      "arrival": 70560,
      "departure": 70560
    },
    {
      "stop": {
        "id": "2_3406",
        "lat": 48.044378,
        "lon": -1.56147,
        "name": "Eclosel",
        "code": 3406
      },
      "arrival": 70740,
      "departure": 70740
    },
    {
      "stop": {
        "id": "2_3407",
        "lat": 48.042359,
        "lon": -1.549754,
        "name": "Grée Barel",
        "code": 3407
      },
      "arrival": 70800,
      "departure": 70800
    },
    {
      "stop": {
        "id": "2_3409",
        "lat": 48.041447,
        "lon": -1.545236,
        "name": "Menault",
        "code": 3409
      },
      "arrival": 70860,
      "departure": 70860
    },
    {
      "stop": {
        "id": "2_3403",
        "lat": 48.040203,
        "lon": -1.542002,
        "name": "Chêne Centenaire",
        "code": 3403
      },
      "arrival": 70920,
      "departure": 70920
    },
    {
      "stop": {
        "id": "2_3402",
        "lat": 48.04088,
        "lon": -1.549778,
        "name": "Langlois",
        "code": 3402
      },
      "arrival": 71100,
      "departure": 71100
    },
    {
      "stop": {
        "id": "2_3401",
        "lat": 48.041337,
        "lon": -1.553405,
        "name": "Parc des Sports",
        "code": 3401
      },
      "arrival": 71160,
      "departure": 71160
    }
  ],
  "route": {
    "id": "2_0075",
    "textColor": "201D21",
    "color": "F2973E",
    "description": "Métropolitaine",
    "longName": "Rennes (La Poterie) \u003c\u003e Nouvoitou",
    "shortName": "75",
    "type": 3,
    "agencyId": "2"
  }
}