{
  "headsign": "67 | Rennes République",
  "stopTimes": [
    {
      "stop": {
        "id": "2_2089",
        "lat": 48.113572,
        "lon": -1.59052,
        "name": "Rigourdière",
        "code": 2089
      },
      "arrival": 57300,
      "departure": 57300
    },
    {
      "stop": {
        "id": "2_2039",
        "lat": 48.114462,
        "lon": -1.600472,
        "name": "Bordage",
        "code": 2039
      },
      "arrival": 57480,
      "departure": 57480
    },
    {
      "stop": {
        "id": "2_2057",
        "lat": 48.113861,
        "lon": -1.603295,
        "name": "Cesson Gare",
        "code": 2057
      },
      "arrival": 57540,
      "departure": 57540
    },
    {
      "stop": {
        "id": "2_2058",
        "lat": 48.112638,
        "lon": -1.607261,
        "name": "Peupliers",
        "code": 2058
      },
      "arrival": 57540,
      "departure": 57540
    },
    {
      "stop": {
        "id": "2_2059",
        "lat": 48.109302,
        "lon": -1.609073,
        "name": "Monniais",
        "code": 2059
      },
      "arrival": 57660,
      "departure": 57660
    },
    {
      "stop": {
        "id": "2_2060",
        "lat": 48.10784,
        "lon": -1.614683,
        "name": "Rond Point de Bray",
        "code": 2060
      },
      "arrival": 57720,
      "departure": 57720
    },
    {
      "stop": {
        "id": "2_2016",
        "lat": 48.114224,
        "lon": -1.621951,
        "name": "Taillis",
        "code": 2016
      },
      "arrival": 57900,
      "departure": 57900
    },
    {
      "stop": {
        "id": "2_2017",
        "lat": 48.114121,
        "lon": -1.630367,
        "name": "Champs Péans",
        "code": 2017
      },
      "arrival": 57960,
      "departure": 57960
    },
    {
      "stop": {
        "id": "2_1609",
        "lat": 48.114194,
        "lon": -1.636482,
        "name": "Tournebride",
        "code": 1609
      },
      "arrival": 58020,
      "departure": 58020
    },
    {
      "stop": {
        "id": "2_1528",
        "lat": 48.113992,
        "lon": -1.64442,
        "name": "Piletière",
        "code": 1528
      },
      "arrival": 58140,
      "departure": 58140
    },
    {
      "stop": {
        "id": "2_1527",
        "lat": 48.114569,
        "lon": -1.649959,
        "name": "Moulin de Joué",
        "code": 1527
      },
      "arrival": 58200,
      "departure": 58200
    },
    {
      "stop": {
        "id": "2_1526",
        "lat": 48.114801,
        "lon": -1.65322,
        "name": "Hôpital Régnier",
        "code": 1526
      },
      "arrival": 58260,
      "departure": 58260
    },
    {
      "stop": {
        "id": "2_1474",
        "lat": 48.113474,
        "lon": -1.656747,
        "name": "Durafour Strasbourg",
        "code": 1474
      },
      "arrival": 58320,
      "departure": 58320
    },
    {
      "stop": {
        "id": "2_1163",
        "lat": 48.110164,
        "lon": -1.660479,
        "name": "Robidou",
        "code": 1163
      },
      "arrival": 58500,
      "departure": 58500
    },
    {
      "stop": {
        "id": "2_1556",
        "lat": 48.1094,
        "lon": -1.677626,
        "name": "République",
        "code": 1556
      },
      "arrival": 58800,
      "departure": 58800
    }
  ],
  "route": {
    "id": "2_0067",
    "textColor": "FFFFFF",
    "color": "E2003B",
    "description": "Métropolitaine",
    "longName": "Rennes (République) \u003c\u003e Cesson-Sévigné / Brécé",
    "shortName": "67",
    "type": 3,
    "agencyId": "2"
  }
}