{
  "headsign": "152 | Rennes Lycée Basch",
  "stopTimes": [
    {
      "stop": {
        "id": "2_3732",
        "lat": 48.14933,
        "lon": -1.839024,
        "name": "Ile des Bois",
        "code": 3732
      },
      "arrival": 26520,
      "departure": 26520
    },
    {
      "stop": {
        "id": "2_3717",
        "lat": 48.153985,
        "lon": -1.8376,
        "name": "Maison Neuve",
        "code": 3717
      },
      "arrival": 26640,
      "departure": 26640
    },
    {
      "stop": {
        "id": "2_3715",
        "lat": 48.153745,
        "lon": -1.834034,
        "name": "Clos des Cerisiers",
        "code": 3715
      },
      "arrival": 26700,
      "departure": 26700
    },
    {
      "stop": {
        "id": "2_3705",
        "lat": 48.15298,
        "lon": -1.829806,
        "name": "Saint-Gilles Centre",
        "code": 3705
      },
      "arrival": 26760,
      "departure": 26760
    },
    {
      "stop": {
        "id": "2_3707",
        "lat": 48.150683,
        "lon": -1.825279,
        "name": "Pont aux Moines",
        "code": 3707
      },
      "arrival": 26880,
      "departure": 26880
    },
    {
      "stop": {
        "id": "2_3708",
        "lat": 48.152801,
        "lon": -1.820678,
        "name": "Vigne",
        "code": 3708
      },
      "arrival": 26940,
      "departure": 26940
    },
    {
      "stop": {
        "id": "2_1494",
        "lat": 48.121217,
        "lon": -1.70297,
        "name": "Villejean-Université",
        "code": 1494
      },
      "arrival": 27960,
      "departure": 27960
    },
    {
      "stop": {
        "id": "2_1566",
        "lat": 48.125304,
        "lon": -1.692431,
        "name": "Lycée Basch",
        "code": 1566
      },
      "arrival": 28260,
      "departure": 28260
    }
  ],
  "route": {
    "id": "2_0152",
    "textColor": "3D3C3F",
    "color": "FFDD00",
    "description": "Express métropolitaine",
    "longName": "Rennes (Lycée V. H. Basch) \u003c\u003e Saint-Gilles",
    "shortName": "152",
    "type": 3,
    "agencyId": "2"
  }
}