{
  "headsign": "5 | Patton",
  "stopTimes": [
    {
      "stop": {
        "id": "2_1269",
        "lat": 48.08423941,
        "lon": -1.69207225,
        "name": "Lycée Bréquigny",
        "code": 1269
      },
      "arrival": 82800,
      "departure": 82800
    },
    {
      "stop": {
        "id": "2_1270",
        "lat": 48.08578354,
        "lon": -1.69404539,
        "name": "Félix Eboué",
        "code": 1270
      },
      "arrival": 82860,
      "departure": 82860
    },
    {
      "stop": {
        "id": "2_2257",
        "lat": 48.0870383,
        "lon": -1.69467527,
        "name": "Pressoirs",
        "code": 2257
      },
      "arrival": 82920,
      "departure": 82920
    },
    {
      "stop": {
        "id": "2_1453",
        "lat": 48.08974508,
        "lon": -1.69303205,
        "name": "Pigeon Blanc",
        "code": 1453
      },
      "arrival": 82980,
      "departure": 82980
    },
    {
      "stop": {
        "id": "2_1273",
        "lat": 48.09269072,
        "lon": -1.69127533,
        "name": "Saint-Yves",
        "code": 1273
      },
      "arrival": 83040,
      "departure": 83040
    },
    {
      "stop": {
        "id": "2_1274",
        "lat": 48.09503109,
        "lon": -1.69000293,
        "name": "Pilate",
        "code": 1274
      },
      "arrival": 83100,
      "departure": 83100
    },
    {
      "stop": {
        "id": "2_1275",
        "lat": 48.09745816,
        "lon": -1.6885901,
        "name": "Mermoz",
        "code": 1275
      },
      "arrival": 83100,
      "departure": 83100
    },
    {
      "stop": {
        "id": "2_1276",
        "lat": 48.09970592,
        "lon": -1.68624612,
        "name": "Foyer Rennais",
        "code": 1276
      },
      "arrival": 83160,
      "departure": 83160
    },
    {
      "stop": {
        "id": "2_1277",
        "lat": 48.10216859,
        "lon": -1.68416325,
        "name": "Pont de Nantes",
        "code": 1277
      },
      "arrival": 83220,
      "departure": 83220
    },
    {
      "stop": {
        "id": "2_1021",
        "lat": 48.10550614,
        "lon": -1.68388047,
        "name": "Cité Judiciaire",
        "code": 1021
      },
      "arrival": 83280,
      "departure": 83280
    },
    {
      "stop": {
        "id": "2_1022",
        "lat": 48.10622878,
        "lon": -1.68080951,
        "name": "Plélo Colombier",
        "code": 1022
      },
      "arrival": 83400,
      "departure": 83400
    },
    {
      "stop": {
        "id": "2_1023",
        "lat": 48.10798151,
        "lon": -1.68011595,
        "name": "Les Halles",
        "code": 1023
      },
      "arrival": 83460,
      "departure": 83460
    },
    {
      "stop": {
        "id": "2_1016",
        "lat": 48.11007256,
        "lon": -1.6801671,
        "name": "République Nemours",
        "code": 1016
      },
      "arrival": 83580,
      "departure": 84000
    },
    {
      "stop": {
        "id": "2_1025",
        "lat": 48.11273566,
        "lon": -1.68025817,
        "name": "Champ Jacquet",
        "code": 1025
      },
      "arrival": 84060,
      "departure": 84060
    },
    {
      "stop": {
        "id": "2_1026",
        "lat": 48.11478452,
        "lon": -1.67927843,
        "name": "Sainte-Anne",
        "code": 1026
      },
      "arrival": 84180,
      "departure": 84180
    },
    {
      "stop": {
        "id": "2_1278",
        "lat": 48.11709412,
        "lon": -1.67786765,
        "name": "Hôtel Dieu",
        "code": 1278
      },
      "arrival": 84240,
      "departure": 84240
    },
    {
      "stop": {
        "id": "2_1279",
        "lat": 48.11946401,
        "lon": -1.67448311,
        "name": "Rectorat",
        "code": 1279
      },
      "arrival": 84300,
      "departure": 84300
    },
    {
      "stop": {
        "id": "2_1280",
        "lat": 48.12141907,
        "lon": -1.67087311,
        "name": "Jules Ferry",
        "code": 1280
      },
      "arrival": 84360,
      "departure": 84360
    },
    {
      "stop": {
        "id": "2_1281",
        "lat": 48.12528439,
        "lon": -1.66636805,
        "name": "Volney",
        "code": 1281
      },
      "arrival": 84420,
      "departure": 84420
    },
    {
      "stop": {
        "id": "2_1282",
        "lat": 48.12661537,
        "lon": -1.66533269,
        "name": "Gros Chêne",
        "code": 1282
      },
      "arrival": 84480,
      "departure": 84480
    },
    {
      "stop": {
        "id": "2_1283",
        "lat": 48.12879195,
        "lon": -1.663837,
        "name": "Rochester",
        "code": 1283
      },
      "arrival": 84480,
      "departure": 84480
    },
    {
      "stop": {
        "id": "2_1284",
        "lat": 48.13105022,
        "lon": -1.66440004,
        "name": "Houx Cité U.",
        "code": 1284
      },
      "arrival": 84540,
      "departure": 84540
    },
    {
      "stop": {
        "id": "2_1285",
        "lat": 48.13277864,
        "lon": -1.66759846,
        "name": "Morbihan",
        "code": 1285
      },
      "arrival": 84600,
      "departure": 84600
    },
    {
      "stop": {
        "id": "2_1286",
        "lat": 48.13270956,
        "lon": -1.67234326,
        "name": "Bellangerais",
        "code": 1286
      },
      "arrival": 84660,
      "departure": 84660
    },
    {
      "stop": {
        "id": "2_1287",
        "lat": 48.13491655,
        "lon": -1.67283484,
        "name": "Condate",
        "code": 1287
      },
      "arrival": 84720,
      "departure": 84720
    },
    {
      "stop": {
        "id": "2_1288",
        "lat": 48.13668515,
        "lon": -1.67074244,
        "name": "Neruda",
        "code": 1288
      },
      "arrival": 84780,
      "departure": 84780
    },
    {
      "stop": {
        "id": "2_1289",
        "lat": 48.13658555,
        "lon": -1.66756896,
        "name": "Monts d\u0027Arrée",
        "code": 1289
      },
      "arrival": 84840,
      "departure": 84840
    },
    {
      "stop": {
        "id": "2_1252",
        "lat": 48.13876768,
        "lon": -1.66595729,
        "name": "Patton",
        "code": 1252
      },
      "arrival": 84900,
      "departure": 84900
    }
  ],
  "route": {
    "id": "2_0005",
    "textColor": "ffffff",
    "color": "eb8200",
    "description": "Majeure",
    "longName": "Patton \u003c\u003e Lycée Bréquigny",
    "shortName": "5",
    "type": 3,
    "agencyId": "2"
  }
}