{
  "headsign": "11 | Saint-Saëns",
  "stopTimes": [
    {
      "stop": {
        "id": "2_3751",
        "lat": 48.107431,
        "lon": -1.739281,
        "name": "ZI Ouest",
        "code": 3751
      },
      "arrival": 67320,
      "departure": 67320
    },
    {
      "stop": {
        "id": "2_3752",
        "lat": 48.104704,
        "lon": -1.739009,
        "name": "Trois Marches",
        "code": 3752
      },
      "arrival": 67320,
      "departure": 67320
    },
    {
      "stop": {
        "id": "2_3769",
        "lat": 48.104169,
        "lon": -1.736036,
        "name": "Marais",
        "code": 3769
      },
      "arrival": 67380,
      "departure": 67380
    },
    {
      "stop": {
        "id": "2_1229",
        "lat": 48.101154,
        "lon": -1.731617,
        "name": "Servigné",
        "code": 1229
      },
      "arrival": 67440,
      "departure": 67440
    },
    {
      "stop": {
        "id": "2_1230",
        "lat": 48.102175,
        "lon": -1.726098,
        "name": "Jardin Moderne",
        "code": 1230
      },
      "arrival": 67500,
      "departure": 67500
    },
    {
      "stop": {
        "id": "2_1231",
        "lat": 48.103369,
        "lon": -1.723283,
        "name": "Robinot de St-Cyr",
        "code": 1231
      },
      "arrival": 67500,
      "departure": 67500
    },
    {
      "stop": {
        "id": "2_1232",
        "lat": 48.106259,
        "lon": -1.723704,
        "name": "Le Hô",
        "code": 1232
      },
      "arrival": 67560,
      "departure": 67560
    },
    {
      "stop": {
        "id": "2_1233",
        "lat": 48.107021,
        "lon": -1.72162,
        "name": "Lemaistre",
        "code": 1233
      },
      "arrival": 67620,
      "departure": 67620
    },
    {
      "stop": {
        "id": "2_1234",
        "lat": 48.107689,
        "lon": -1.714796,
        "name": "Stade Rennais",
        "code": 1234
      },
      "arrival": 67740,
      "departure": 67740
    },
    {
      "stop": {
        "id": "2_1235",
        "lat": 48.108898,
        "lon": -1.709658,
        "name": "Géniaux",
        "code": 1235
      },
      "arrival": 67800,
      "departure": 67800
    },
    {
      "stop": {
        "id": "2_1236",
        "lat": 48.10876,
        "lon": -1.705656,
        "name": "Kerviler",
        "code": 1236
      },
      "arrival": 67860,
      "departure": 67860
    },
    {
      "stop": {
        "id": "2_1237",
        "lat": 48.107689,
        "lon": -1.702121,
        "name": "Papeteries",
        "code": 1237
      },
      "arrival": 67920,
      "departure": 67920
    },
    {
      "stop": {
        "id": "2_1238",
        "lat": 48.108687,
        "lon": -1.698735,
        "name": "Guilloux Lorient",
        "code": 1238
      },
      "arrival": 67980,
      "departure": 67980
    },
    {
      "stop": {
        "id": "2_1239",
        "lat": 48.108256,
        "lon": -1.694158,
        "name": "Chèques Postaux",
        "code": 1239
      },
      "arrival": 68040,
      "departure": 68040
    },
    {
      "stop": {
        "id": "2_1240",
        "lat": 48.109271,
        "lon": -1.689587,
        "name": "Le Mail",
        "code": 1240
      },
      "arrival": 68160,
      "departure": 68160
    },
    {
      "stop": {
        "id": "2_1091",
        "lat": 48.109734,
        "lon": -1.68385,
        "name": "Place de Bretagne",
        "code": 1091
      },
      "arrival": 68280,
      "departure": 68280
    },
    {
      "stop": {
        "id": "2_1242",
        "lat": 48.109758,
        "lon": -1.679532,
        "name": "République",
        "code": 1242
      },
      "arrival": 68400,
      "departure": 68400
    },
    {
      "stop": {
        "id": "2_1088",
        "lat": 48.107377,
        "lon": -1.674981,
        "name": "Liberté TNB",
        "code": 1088
      },
      "arrival": 68580,
      "departure": 68580
    },
    {
      "stop": {
        "id": "2_1087",
        "lat": 48.105276,
        "lon": -1.673939,
        "name": "Champs Libres",
        "code": 1087
      },
      "arrival": 68640,
      "departure": 68640
    },
    {
      "stop": {
        "id": "2_1477",
        "lat": 48.103839,
        "lon": -1.67286,
        "name": "Gares",
        "code": 1477
      },
      "arrival": 68700,
      "departure": 68700
    },
    {
      "stop": {
        "id": "2_1085",
        "lat": 48.10471,
        "lon": -1.666557,
        "name": "Laënnec",
        "code": 1085
      },
      "arrival": 68820,
      "departure": 68820
    },
    {
      "stop": {
        "id": "2_1243",
        "lat": 48.102515,
        "lon": -1.661094,
        "name": "Croix Saint-Hélier",
        "code": 1243
      },
      "arrival": 68880,
      "departure": 68880
    },
    {
      "stop": {
        "id": "2_1244",
        "lat": 48.102217,
        "lon": -1.655063,
        "name": "Mouézy",
        "code": 1244
      },
      "arrival": 68940,
      "departure": 68940
    },
    {
      "stop": {
        "id": "2_1211",
        "lat": 48.103116,
        "lon": -1.652491,
        "name": "Serpette",
        "code": 1211
      },
      "arrival": 69000,
      "departure": 69000
    },
    {
      "stop": {
        "id": "2_1246",
        "lat": 48.104353,
        "lon": -1.64928,
        "name": "Cimetière de l\u0027Est",
        "code": 1246
      },
      "arrival": 69060,
      "departure": 69060
    },
    {
      "stop": {
        "id": "2_1247",
        "lat": 48.104868,
        "lon": -1.643656,
        "name": "Pavie",
        "code": 1247
      },
      "arrival": 69120,
      "departure": 69120
    },
    {
      "stop": {
        "id": "2_1208",
        "lat": 48.104165,
        "lon": -1.637787,
        "name": "Saint-Saëns",
        "code": 1208
      },
      "arrival": 69180,
      "departure": 69180
    }
  ],
  "route": {
    "id": "2_0011",
    "textColor": "FFFFFF",
    "color": "DD84B1",
    "description": "Urbaine",
    "longName": "ZI Ouest / Stade Rennais \u003c\u003e Saint-Saëns / La Poterie",
    "shortName": "11",
    "type": 3,
    "agencyId": "2"
  }
}