{
  "headsign": "64 | Rennes République",
  "stopTimes": [
    {
      "stop": {
        "id": "2_4001",
        "lat": 48.137043,
        "lon": -1.526335,
        "name": "Timonière",
        "code": 4001
      },
      "arrival": 65100,
      "departure": 65100
    },
    {
      "stop": {
        "id": "2_4002",
        "lat": 48.136905,
        "lon": -1.533137,
        "name": "Verdaudais",
        "code": 4002
      },
      "arrival": 65220,
      "departure": 65220
    },
    {
      "stop": {
        "id": "2_4003",
        "lat": 48.134242,
        "lon": -1.534801,
        "name": "Acigné Mairie",
        "code": 4003
      },
      "arrival": 65280,
      "departure": 65280
    },
    {
      "stop": {
        "id": "2_4004",
        "lat": 48.133958,
        "lon": -1.537791,
        "name": "Foyer",
        "code": 4004
      },
      "arrival": 65340,
      "departure": 65340
    },
    {
      "stop": {
        "id": "2_4018",
        "lat": 48.134021,
        "lon": -1.540447,
        "name": "Lande",
        "code": 4018
      },
      "arrival": 65400,
      "departure": 65400
    },
    {
      "stop": {
        "id": "2_4006",
        "lat": 48.137273,
        "lon": -1.549814,
        "name": "Pont d\u0027Ohin",
        "code": 4006
      },
      "arrival": 65520,
      "departure": 65520
    },
    {
      "stop": {
        "id": "2_4007",
        "lat": 48.139094,
        "lon": -1.558744,
        "name": "Boulais",
        "code": 4007
      },
      "arrival": 65580,
      "departure": 65580
    },
    {
      "stop": {
        "id": "2_3317",
        "lat": 48.141094,
        "lon": -1.573652,
        "name": "Pâtis du Moulinet",
        "code": 3317
      },
      "arrival": 65640,
      "departure": 65640
    },
    {
      "stop": {
        "id": "2_2101",
        "lat": 48.131755,
        "lon": -1.597946,
        "name": "Saint-Etienne",
        "code": 2101
      },
      "arrival": 65820,
      "departure": 65820
    },
    {
      "stop": {
        "id": "2_2079",
        "lat": 48.12886,
        "lon": -1.605971,
        "name": "Verger",
        "code": 2079
      },
      "arrival": 65880,
      "departure": 65880
    },
    {
      "stop": {
        "id": "2_2080",
        "lat": 48.127399,
        "lon": -1.612799,
        "name": "Gaudais",
        "code": 2080
      },
      "arrival": 65940,
      "departure": 65940
    },
    {
      "stop": {
        "id": "2_2082",
        "lat": 48.126993,
        "lon": -1.619975,
        "name": "Bouriande",
        "code": 2082
      },
      "arrival": 66000,
      "departure": 66000
    },
    {
      "stop": {
        "id": "2_2044",
        "lat": 48.127362,
        "lon": -1.62431,
        "name": "Belle Fontaine",
        "code": 2044
      },
      "arrival": 66060,
      "departure": 66060
    },
    {
      "stop": {
        "id": "2_2045",
        "lat": 48.127387,
        "lon": -1.628256,
        "name": "Clos Courtel",
        "code": 2045
      },
      "arrival": 66060,
      "departure": 66060
    },
    {
      "stop": {
        "id": "2_1177",
        "lat": 48.12191,
        "lon": -1.640321,
        "name": "Beaulieu Restau U",
        "code": 1177
      },
      "arrival": 66180,
      "departure": 66180
    },
    {
      "stop": {
        "id": "2_1178",
        "lat": 48.120832,
        "lon": -1.643865,
        "name": "Beaulieu Cité U",
        "code": 1178
      },
      "arrival": 66240,
      "departure": 66240
    },
    {
      "stop": {
        "id": "2_1432",
        "lat": 48.118675,
        "lon": -1.649887,
        "name": "Vitré Foulon",
        "code": 1432
      },
      "arrival": 66300,
      "departure": 66300
    },
    {
      "stop": {
        "id": "2_1513",
        "lat": 48.115378,
        "lon": -1.648495,
        "name": "Bois Perrin",
        "code": 1513
      },
      "arrival": 66360,
      "departure": 66360
    },
    {
      "stop": {
        "id": "2_1514",
        "lat": 48.113326,
        "lon": -1.647648,
        "name": "Moulin de Joué",
        "code": 1514
      },
      "arrival": 66360,
      "departure": 66360
    },
    {
      "stop": {
        "id": "2_1163",
        "lat": 48.110164,
        "lon": -1.660479,
        "name": "Robidou",
        "code": 1163
      },
      "arrival": 66540,
      "departure": 66540
    },
    {
      "stop": {
        "id": "2_1166",
        "lat": 48.109914,
        "lon": -1.675145,
        "name": "Musée Beaux Arts",
        "code": 1166
      },
      "arrival": 66720,
      "departure": 66720
    },
    {
      "stop": {
        "id": "2_1167",
        "lat": 48.109405,
        "lon": -1.678734,
        "name": "République Pré Botté",
        "code": 1167
      },
      "arrival": 66780,
      "departure": 66780
    }
  ],
  "route": {
    "id": "2_0064",
    "textColor": "FFFFFF",
    "color": "0094D8",
    "description": "Métropolitaine",
    "longName": "Rennes (République) \u003c\u003e Acigné",
    "shortName": "64",
    "type": 3,
    "agencyId": "2"
  }
}