{
  "headsign": "173 | Saint-Armel Corps-Nuds",
  "stopTimes": [
    {
      "stop": {
        "id": "2_1511",
        "lat": 48.087572,
        "lon": -1.643466,
        "name": "La Poterie",
        "code": 1511
      },
      "arrival": 66000,
      "departure": 66000
    },
    {
      "stop": {
        "id": "2_4552",
        "lat": 48.013906,
        "lon": -1.594286,
        "name": "Saint-Armel Gare",
        "code": 4552
      },
      "arrival": 66840,
      "departure": 66840
    },
    {
      "stop": {
        "id": "2_4551",
        "lat": 48.013468,
        "lon": -1.590988,
        "name": "Saint-Armel Eglise",
        "code": 4551
      },
      "arrival": 66900,
      "departure": 66900
    },
    {
      "stop": {
        "id": "2_4108",
        "lat": 47.981897,
        "lon": -1.588461,
        "name": "Chêne Hervé",
        "code": 4108
      },
      "arrival": 67380,
      "departure": 67380
    },
    {
      "stop": {
        "id": "2_4109",
        "lat": 47.97901,
        "lon": -1.587893,
        "name": "Corps-Nuds Mairie",
        "code": 4109
      },
      "arrival": 67380,
      "departure": 67380
    },
    {
      "stop": {
        "id": "2_4110",
        "lat": 47.977719,
        "lon": -1.585507,
        "name": "Place de Kildare",
        "code": 4110
      },
      "arrival": 67440,
      "departure": 67440
    },
    {
      "stop": {
        "id": "2_4111",
        "lat": 47.982567,
        "lon": -1.580278,
        "name": "Huberdières",
        "code": 4111
      },
      "arrival": 67560,
      "departure": 67560
    },
    {
      "stop": {
        "id": "2_4112",
        "lat": 47.985302,
        "lon": -1.576027,
        "name": "Corps-Nuds Gare",
        "code": 4112
      },
      "arrival": 67620,
      "departure": 67620
    }
  ],
  "route": {
    "id": "2_0173",
    "textColor": "3D3C3F",
    "color": "FFDD00",
    "description": "Express métropolitaine",
    "longName": "Rennes (La Poterie) \u003c\u003e Saint-Armel / Corps-Nuds",
    "shortName": "173",
    "type": 3,
    "agencyId": "2"
  }
}