{
  "headsign": "64 | Acigné",
  "stopTimes": [
    {
      "stop": {
        "id": "2_1167",
        "lat": 48.109405,
        "lon": -1.678734,
        "name": "République Pré Botté",
        "code": 1167
      },
      "arrival": 69180,
      "departure": 69180
    },
    {
      "stop": {
        "id": "2_1169",
        "lat": 48.109809,
        "lon": -1.674483,
        "name": "Musée Beaux Arts",
        "code": 1169
      },
      "arrival": 69360,
      "departure": 69360
    },
    {
      "stop": {
        "id": "2_1172",
        "lat": 48.11003,
        "lon": -1.659227,
        "name": "Robidou",
        "code": 1172
      },
      "arrival": 69540,
      "departure": 69540
    },
    {
      "stop": {
        "id": "2_1515",
        "lat": 48.113513,
        "lon": -1.647511,
        "name": "Moulin de Joué",
        "code": 1515
      },
      "arrival": 69660,
      "departure": 69660
    },
    {
      "stop": {
        "id": "2_1516",
        "lat": 48.115973,
        "lon": -1.648367,
        "name": "Bois Perrin",
        "code": 1516
      },
      "arrival": 69720,
      "departure": 69720
    },
    {
      "stop": {
        "id": "2_1201",
        "lat": 48.119102,
        "lon": -1.649111,
        "name": "Vitré Foulon",
        "code": 1201
      },
      "arrival": 69780,
      "departure": 69780
    },
    {
      "stop": {
        "id": "2_1202",
        "lat": 48.120592,
        "lon": -1.644215,
        "name": "Beaulieu Cité U",
        "code": 1202
      },
      "arrival": 69840,
      "departure": 69840
    },
    {
      "stop": {
        "id": "2_1203",
        "lat": 48.122036,
        "lon": -1.639496,
        "name": "Beaulieu Restau U",
        "code": 1203
      },
      "arrival": 69840,
      "departure": 69840
    },
    {
      "stop": {
        "id": "2_2046",
        "lat": 48.127329,
        "lon": -1.62766,
        "name": "Clos Courtel",
        "code": 2046
      },
      "arrival": 69960,
      "departure": 69960
    },
    {
      "stop": {
        "id": "2_2047",
        "lat": 48.127213,
        "lon": -1.623967,
        "name": "Belle Fontaine",
        "code": 2047
      },
      "arrival": 69960,
      "departure": 69960
    },
    {
      "stop": {
        "id": "2_2081",
        "lat": 48.126799,
        "lon": -1.619769,
        "name": "Bouriande",
        "code": 2081
      },
      "arrival": 70020,
      "departure": 70020
    },
    {
      "stop": {
        "id": "2_2083",
        "lat": 48.12696,
        "lon": -1.614219,
        "name": "Gaudais",
        "code": 2083
      },
      "arrival": 70020,
      "departure": 70020
    },
    {
      "stop": {
        "id": "2_2084",
        "lat": 48.12903,
        "lon": -1.604741,
        "name": "Verger",
        "code": 2084
      },
      "arrival": 70080,
      "departure": 70080
    },
    {
      "stop": {
        "id": "2_3316",
        "lat": 48.13216,
        "lon": -1.596367,
        "name": "Saint-Etienne",
        "code": 3316
      },
      "arrival": 70140,
      "departure": 70140
    },
    {
      "stop": {
        "id": "2_3318",
        "lat": 48.140911,
        "lon": -1.573502,
        "name": "Pâtis du Moulinet",
        "code": 3318
      },
      "arrival": 70320,
      "departure": 70320
    },
    {
      "stop": {
        "id": "2_4008",
        "lat": 48.139042,
        "lon": -1.559353,
        "name": "Boulais",
        "code": 4008
      },
      "arrival": 70380,
      "departure": 70380
    },
    {
      "stop": {
        "id": "2_4009",
        "lat": 48.136816,
        "lon": -1.548448,
        "name": "Pont d\u0027Ohin",
        "code": 4009
      },
      "arrival": 70440,
      "departure": 70440
    },
    {
      "stop": {
        "id": "2_4010",
        "lat": 48.134632,
        "lon": -1.542142,
        "name": "Lande",
        "code": 4010
      },
      "arrival": 70500,
      "departure": 70500
    },
    {
      "stop": {
        "id": "2_4011",
        "lat": 48.13387,
        "lon": -1.537546,
        "name": "Foyer",
        "code": 4011
      },
      "arrival": 70560,
      "departure": 70560
    },
    {
      "stop": {
        "id": "2_4012",
        "lat": 48.134151,
        "lon": -1.534705,
        "name": "Acigné Mairie",
        "code": 4012
      },
      "arrival": 70620,
      "departure": 70620
    },
    {
      "stop": {
        "id": "2_4013",
        "lat": 48.137246,
        "lon": -1.532829,
        "name": "Verdaudais",
        "code": 4013
      },
      "arrival": 70680,
      "departure": 70680
    },
    {
      "stop": {
        "id": "2_4001",
        "lat": 48.137043,
        "lon": -1.526335,
        "name": "Timonière",
        "code": 4001
      },
      "arrival": 70800,
      "departure": 70800
    }
  ],
  "route": {
    "id": "2_0064",
    "textColor": "FFFFFF",
    "color": "0094D8",
    "description": "Métropolitaine",
    "longName": "Rennes (République) \u003c\u003e Acigné",
    "shortName": "64",
    "type": 3,
    "agencyId": "2"
  }
}