{
  "headsign": "173 | Rennes La Poterie",
  "stopTimes": [
    {
      "stop": {
        "id": "2_4101",
        "lat": 47.984989,
        "lon": -1.576252,
        "name": "Corps-Nuds Gare",
        "code": 4101
      },
      "arrival": 27300,
      "departure": 27300
    },
    {
      "stop": {
        "id": "2_4102",
        "lat": 47.982393,
        "lon": -1.580817,
        "name": "Huberdières",
        "code": 4102
      },
      "arrival": 27360,
      "departure": 27360
    },
    {
      "stop": {
        "id": "2_4103",
        "lat": 47.977794,
        "lon": -1.585033,
        "name": "Place de Kildare",
        "code": 4103
      },
      "arrival": 27480,
      "departure": 27480
    },
    {
      "stop": {
        "id": "2_4104",
        "lat": 47.979393,
        "lon": -1.587834,
        "name": "Corps-Nuds Mairie",
        "code": 4104
      },
      "arrival": 27540,
      "departure": 27540
    },
    {
      "stop": {
        "id": "2_4105",
        "lat": 47.982053,
        "lon": -1.588248,
        "name": "Chêne Hervé",
        "code": 4105
      },
      "arrival": 27540,
      "departure": 27540
    },
    {
      "stop": {
        "id": "2_4551",
        "lat": 48.013468,
        "lon": -1.590988,
        "name": "Saint-Armel Eglise",
        "code": 4551
      },
      "arrival": 28020,
      "departure": 28020
    },
    {
      "stop": {
        "id": "2_4555",
        "lat": 48.014056,
        "lon": -1.594394,
        "name": "Saint-Armel Gare",
        "code": 4555
      },
      "arrival": 28080,
      "departure": 28080
    },
    {
      "stop": {
        "id": "2_1511",
        "lat": 48.087572,
        "lon": -1.643466,
        "name": "La Poterie",
        "code": 1511
      },
      "arrival": 29160,
      "departure": 29160
    }
  ],
  "route": {
    "id": "2_0173",
    "textColor": "3D3C3F",
    "color": "FFDD00",
    "description": "Express métropolitaine",
    "longName": "Rennes (La Poterie) \u003c\u003e Saint-Armel / Corps-Nuds",
    "shortName": "173",
    "type": 3,
    "agencyId": "2"
  }
}