{
  "headsign": "156 | Rennes République",
  "stopTimes": [
    {
      "stop": {
        "id": "2_4201",
        "lat": 48.0519556,
        "lon": -1.79762199,
        "name": "Croix Blanche",
        "code": 4201
      },
      "arrival": 30000,
      "departure": 30000
    },
    {
      "stop": {
        "id": "2_4202",
        "lat": 48.05201225,
        "lon": -1.79070221,
        "name": "Calvaire",
        "code": 4202
      },
      "arrival": 30180,
      "departure": 30180
    },
    {
      "stop": {
        "id": "2_4210",
        "lat": 48.05473856,
        "lon": -1.7901693,
        "name": "Alfred de Musset",
        "code": 4210
      },
      "arrival": 30240,
      "departure": 30240
    },
    {
      "stop": {
        "id": "2_4204",
        "lat": 48.05399506,
        "lon": -1.78384914,
        "name": "Avenir",
        "code": 4204
      },
      "arrival": 30360,
      "departure": 30360
    },
    {
      "stop": {
        "id": "2_1242",
        "lat": 48.10980333,
        "lon": -1.6795219,
        "name": "République",
        "code": 1242
      },
      "arrival": 31800,
      "departure": 31800
    }
  ],
  "route": {
    "id": "2_0156",
    "textColor": "009A4A",
    "color": "FCE000",
    "description": "Express métropolitaine",
    "longName": "Rennes (République) \u003c\u003e Chavagne",
    "shortName": "156",
    "type": 3,
    "agencyId": "2"
  }
}