{
  "headsign": "73 | Saint-Armel Corps-Nuds",
  "stopTimes": [
    {
      "stop": {
        "id": "2_1511",
        "lat": 48.087572,
        "lon": -1.643466,
        "name": "La Poterie",
        "code": 1511
      },
      "arrival": 71100,
      "departure": 71100
    },
    {
      "stop": {
        "id": "2_2619",
        "lat": 48.044566,
        "lon": -1.603907,
        "name": "La Poste",
        "code": 2619
      },
      "arrival": 71580,
      "departure": 71580
    },
    {
      "stop": {
        "id": "2_2620",
        "lat": 48.043558,
        "lon": -1.601784,
        "name": "Bel Air",
        "code": 2620
      },
      "arrival": 71640,
      "departure": 71640
    },
    {
      "stop": {
        "id": "2_2621",
        "lat": 48.040905,
        "lon": -1.602366,
        "name": "Vern La Touche",
        "code": 2621
      },
      "arrival": 71640,
      "departure": 71640
    },
    {
      "stop": {
        "id": "2_2640",
        "lat": 48.038405,
        "lon": -1.60232,
        "name": "Croix Malinge",
        "code": 2640
      },
      "arrival": 71700,
      "departure": 71700
    },
    {
      "stop": {
        "id": "2_2628",
        "lat": 48.031253,
        "lon": -1.599505,
        "name": "Vaugon",
        "code": 2628
      },
      "arrival": 71760,
      "departure": 71760
    },
    {
      "stop": {
        "id": "2_4553",
        "lat": 48.01463,
        "lon": -1.598304,
        "name": "Lande du Jardin",
        "code": 4553
      },
      "arrival": 71940,
      "departure": 71940
    },
    {
      "stop": {
        "id": "2_4552",
        "lat": 48.013906,
        "lon": -1.594286,
        "name": "Saint-Armel Gare",
        "code": 4552
      },
      "arrival": 72000,
      "departure": 72000
    },
    {
      "stop": {
        "id": "2_4551",
        "lat": 48.013468,
        "lon": -1.590988,
        "name": "Saint-Armel Eglise",
        "code": 4551
      },
      "arrival": 72060,
      "departure": 72060
    },
    {
      "stop": {
        "id": "2_3817",
        "lat": 48.000912,
        "lon": -1.594744,
        "name": "Launay Garnier",
        "code": 3817
      },
      "arrival": 72300,
      "departure": 72300
    },
    {
      "stop": {
        "id": "2_4108",
        "lat": 47.981897,
        "lon": -1.588461,
        "name": "Chêne Hervé",
        "code": 4108
      },
      "arrival": 72540,
      "departure": 72540
    },
    {
      "stop": {
        "id": "2_4109",
        "lat": 47.97901,
        "lon": -1.587893,
        "name": "Corps-Nuds Mairie",
        "code": 4109
      },
      "arrival": 72540,
      "departure": 72540
    },
    {
      "stop": {
        "id": "2_4110",
        "lat": 47.977719,
        "lon": -1.585507,
        "name": "Place de Kildare",
        "code": 4110
      },
      "arrival": 72600,
      "departure": 72600
    },
    {
      "stop": {
        "id": "2_4111",
        "lat": 47.982567,
        "lon": -1.580278,
        "name": "Huberdières",
        "code": 4111
      },
      "arrival": 72660,
      "departure": 72660
    },
    {
      "stop": {
        "id": "2_4112",
        "lat": 47.985302,
        "lon": -1.576027,
        "name": "Corps-Nuds Gare",
        "code": 4112
      },
      "arrival": 72720,
      "departure": 72720
    }
  ],
  "route": {
    "id": "2_0073",
    "textColor": "FFFFFF",
    "color": "008436",
    "description": "Métropolitaine",
    "longName": "Rennes (La Poterie) \u003c\u003e Vern-sur-Seiche / Saint-Armel / Corps-Nuds",
    "shortName": "73",
    "type": 3,
    "agencyId": "2"
  }
}