{
  "headsign": "77 | Pacé Pâtis Roussel",
  "stopTimes": [
    {
      "stop": {
        "id": "2_1519",
        "lat": 48.12110069,
        "lon": -1.70297631,
        "name": "Villejean-Université",
        "code": 1519
      },
      "arrival": 63000,
      "departure": 63000
    },
    {
      "stop": {
        "id": "2_1518",
        "lat": 48.12062672,
        "lon": -1.71046453,
        "name": "Bourbonnais",
        "code": 1518
      },
      "arrival": 63240,
      "departure": 63240
    },
    {
      "stop": {
        "id": "2_1521",
        "lat": 48.11845974,
        "lon": -1.71376004,
        "name": "Berry",
        "code": 1521
      },
      "arrival": 63300,
      "departure": 63300
    },
    {
      "stop": {
        "id": "2_3112",
        "lat": 48.14112507,
        "lon": -1.76740703,
        "name": "Opéra",
        "code": 3112
      },
      "arrival": 63840,
      "departure": 63840
    },
    {
      "stop": {
        "id": "2_3137",
        "lat": 48.14024412,
        "lon": -1.76355626,
        "name": "Rive Ouest",
        "code": 3137
      },
      "arrival": 63900,
      "departure": 63900
    },
    {
      "stop": {
        "id": "2_3144",
        "lat": 48.14098531,
        "lon": -1.76618221,
        "name": "Opéra",
        "code": 3144
      },
      "arrival": 63900,
      "departure": 63900
    },
    {
      "stop": {
        "id": "2_3113",
        "lat": 48.14335637,
        "lon": -1.7704102,
        "name": "Le Ponant",
        "code": 3113
      },
      "arrival": 63960,
      "departure": 63960
    },
    {
      "stop": {
        "id": "2_3114",
        "lat": 48.14572649,
        "lon": -1.77065135,
        "name": "Carré Dumaine",
        "code": 3114
      },
      "arrival": 64020,
      "departure": 64020
    },
    {
      "stop": {
        "id": "2_3115",
        "lat": 48.1479969,
        "lon": -1.7697924,
        "name": "Pacé Cimetière",
        "code": 3115
      },
      "arrival": 64080,
      "departure": 64080
    },
    {
      "stop": {
        "id": "2_3130",
        "lat": 48.15155537,
        "lon": -1.77051816,
        "name": "Le Brix",
        "code": 3130
      },
      "arrival": 64200,
      "departure": 64200
    },
    {
      "stop": {
        "id": "2_3131",
        "lat": 48.15444095,
        "lon": -1.7704961,
        "name": "Pacé Collèges",
        "code": 3131
      },
      "arrival": 64260,
      "departure": 64260
    },
    {
      "stop": {
        "id": "2_3132",
        "lat": 48.15542425,
        "lon": -1.76468404,
        "name": "Champalaune",
        "code": 3132
      },
      "arrival": 64380,
      "departure": 64380
    },
    {
      "stop": {
        "id": "2_3133",
        "lat": 48.15728468,
        "lon": -1.76571429,
        "name": "Ouessant",
        "code": 3133
      },
      "arrival": 64440,
      "departure": 64440
    },
    {
      "stop": {
        "id": "2_3125",
        "lat": 48.16046527,
        "lon": -1.7679822,
        "name": "Pâtis Roussel",
        "code": 3125
      },
      "arrival": 64500,
      "departure": 64500
    }
  ],
  "route": {
    "id": "2_0077",
    "textColor": "1A171B",
    "color": "FCC000",
    "description": "Métropolitaine",
    "longName": "Rennes (Villejean-Université) \u003c\u003e Pacé",
    "shortName": "77",
    "type": 3,
    "agencyId": "2"
  }
}