{
  "headsign": "44 | Joliot-Curie",
  "stopTimes": [
    {
      "stop": {
        "id": "2_1550",
        "lat": 48.10969793,
        "lon": -1.67797331,
        "name": "République",
        "code": 1550
      },
      "arrival": 27240,
      "departure": 27240
    },
    {
      "stop": {
        "id": "2_1552",
        "lat": 48.11064955,
        "lon": -1.6735086,
        "name": "Place Pasteur",
        "code": 1552
      },
      "arrival": 27360,
      "departure": 27360
    },
    {
      "stop": {
        "id": "2_1146",
        "lat": 48.11187283,
        "lon": -1.67113003,
        "name": "Thabor",
        "code": 1146
      },
      "arrival": 27480,
      "departure": 27480
    },
    {
      "stop": {
        "id": "2_1147",
        "lat": 48.11271566,
        "lon": -1.66439614,
        "name": "Saint-Vincent",
        "code": 1147
      },
      "arrival": 27660,
      "departure": 27660
    },
    {
      "stop": {
        "id": "2_1148",
        "lat": 48.11341058,
        "lon": -1.66141539,
        "name": "Oberthur",
        "code": 1148
      },
      "arrival": 27720,
      "departure": 27720
    },
    {
      "stop": {
        "id": "2_1149",
        "lat": 48.114256,
        "lon": -1.65873929,
        "name": "Durafour",
        "code": 1149
      },
      "arrival": 27780,
      "departure": 27780
    },
    {
      "stop": {
        "id": "2_1150",
        "lat": 48.11652807,
        "lon": -1.65552519,
        "name": "Jeanne d\u0027Arc",
        "code": 1150
      },
      "arrival": 27900,
      "departure": 27900
    },
    {
      "stop": {
        "id": "2_1151",
        "lat": 48.11879169,
        "lon": -1.65161883,
        "name": "Vitré Danton",
        "code": 1151
      },
      "arrival": 28020,
      "departure": 28020
    },
    {
      "stop": {
        "id": "2_1152",
        "lat": 48.12043354,
        "lon": -1.65067299,
        "name": "Docteur Quentin",
        "code": 1152
      },
      "arrival": 28080,
      "departure": 28080
    },
    {
      "stop": {
        "id": "2_1638",
        "lat": 48.12250411,
        "lon": -1.65118232,
        "name": "Lycée Chateaubriand",
        "code": 1638
      },
      "arrival": 28140,
      "departure": 28140
    },
    {
      "stop": {
        "id": "2_1619",
        "lat": 48.12519569,
        "lon": -1.65291775,
        "name": "Joliot-Curie",
        "code": 1619
      },
      "arrival": 28260,
      "departure": 28260
    }
  ],
  "route": {
    "id": "2_0044",
    "textColor": "3D3C3F",
    "color": "FFDD00",
    "description": "Express urbaine",
    "longName": "République \u003c\u003e Joliot-Curie",
    "shortName": "44",
    "type": 3,
    "agencyId": "2"
  }
}