{
  "headsign": "73 | Saint-A. Corps-N. via C. Martin",
  "stopTimes": [
    {
      "stop": {
        "id": "2_1511",
        "lat": 48.08753913,
        "lon": -1.64345457,
        "name": "La Poterie",
        "code": 1511
      },
      "arrival": 28080,
      "departure": 28080
    },
    {
      "stop": {
        "id": "2_2641",
        "lat": 48.05908102,
        "lon": -1.61293743,
        "name": "Champ Martin",
        "code": 2641
      },
      "arrival": 28560,
      "departure": 28560
    },
    {
      "stop": {
        "id": "2_2619",
        "lat": 48.04461606,
        "lon": -1.60388168,
        "name": "La Poste",
        "code": 2619
      },
      "arrival": 28860,
      "departure": 28860
    },
    {
      "stop": {
        "id": "2_2620",
        "lat": 48.04354744,
        "lon": -1.60171592,
        "name": "Bel Air",
        "code": 2620
      },
      "arrival": 28920,
      "departure": 28920
    },
    {
      "stop": {
        "id": "2_2621",
        "lat": 48.04090176,
        "lon": -1.60229224,
        "name": "Vern La Touche",
        "code": 2621
      },
      "arrival": 28920,
      "departure": 28920
    },
    {
      "stop": {
        "id": "2_2640",
        "lat": 48.03840649,
        "lon": -1.60224987,
        "name": "Croix Malinge",
        "code": 2640
      },
      "arrival": 28980,
      "departure": 28980
    },
    {
      "stop": {
        "id": "2_2628",
        "lat": 48.03125903,
        "lon": -1.59946437,
        "name": "Vaugon",
        "code": 2628
      },
      "arrival": 29040,
      "departure": 29040
    },
    {
      "stop": {
        "id": "2_4553",
        "lat": 48.01466943,
        "lon": -1.59829558,
        "name": "Lande du Jardin",
        "code": 4553
      },
      "arrival": 29220,
      "departure": 29220
    },
    {
      "stop": {
        "id": "2_4552",
        "lat": 48.01396709,
        "lon": -1.59426931,
        "name": "Saint-Armel Gare",
        "code": 4552
      },
      "arrival": 29280,
      "departure": 29280
    },
    {
      "stop": {
        "id": "2_4551",
        "lat": 48.0134184,
        "lon": -1.59096813,
        "name": "Saint-Armel Eglise",
        "code": 4551
      },
      "arrival": 29340,
      "departure": 29340
    },
    {
      "stop": {
        "id": "2_3817",
        "lat": 48.00091583,
        "lon": -1.59465195,
        "name": "Launay Garnier",
        "code": 3817
      },
      "arrival": 29580,
      "departure": 29580
    },
    {
      "stop": {
        "id": "2_4108",
        "lat": 47.98189705,
        "lon": -1.58838301,
        "name": "Chêne Hervé",
        "code": 4108
      },
      "arrival": 29820,
      "departure": 29820
    },
    {
      "stop": {
        "id": "2_4109",
        "lat": 47.97901569,
        "lon": -1.58783799,
        "name": "Corps-Nuds Mairie",
        "code": 4109
      },
      "arrival": 29820,
      "departure": 29820
    },
    {
      "stop": {
        "id": "2_4110",
        "lat": 47.97776379,
        "lon": -1.58550091,
        "name": "Place de Kildare",
        "code": 4110
      },
      "arrival": 29880,
      "departure": 29880
    },
    {
      "stop": {
        "id": "2_4111",
        "lat": 47.98259928,
        "lon": -1.58032069,
        "name": "Huberdières",
        "code": 4111
      },
      "arrival": 29940,
      "departure": 29940
    },
    {
      "stop": {
        "id": "2_4112",
        "lat": 47.98528795,
        "lon": -1.57609539,
        "name": "Corps-Nuds Gare",
        "code": 4112
      },
      "arrival": 30000,
      "departure": 30000
    }
  ],
  "route": {
    "id": "2_0073",
    "textColor": "FFFFFF",
    "color": "008436",
    "description": "Métropolitaine",
    "longName": "Rennes (La Poterie) \u003c\u003e Vern-sur-Seiche / Saint-Armel / Corps-Nuds",
    "shortName": "73",
    "type": 3,
    "agencyId": "2"
  }
}