{
  "headsign": "96 | Romillé Miniac",
  "stopTimes": [
    {
      "stop": {
        "id": "2_4850",
        "lat": 48.271961,
        "lon": -1.856918,
        "name": "Chapelle-Chaussée",
        "code": 4850
      },
      "arrival": 65100,
      "departure": 65100
    },
    {
      "stop": {
        "id": "2_4901",
        "lat": 48.24538,
        "lon": -1.854062,
        "name": "Langan Bourg",
        "code": 4901
      },
      "arrival": 65460,
      "departure": 65460
    },
    {
      "stop": {
        "id": "2_6001",
        "lat": 48.216915,
        "lon": -1.89045,
        "name": "Frères Aubert",
        "code": 6001
      },
      "arrival": 65940,
      "departure": 65940
    },
    {
      "stop": {
        "id": "2_6000",
        "lat": 48.218676,
        "lon": -1.893365,
        "name": "Romillé Collège",
        "code": 6000
      },
      "arrival": 66000,
      "departure": 66120
    },
    {
      "stop": {
        "id": "2_4801",
        "lat": 48.296897,
        "lon": -1.943729,
        "name": "Bécherel Centre",
        "code": 4801
      },
      "arrival": 66840,
      "departure": 66840
    },
    {
      "stop": {
        "id": "2_4803",
        "lat": 48.2997,
        "lon": -1.939289,
        "name": "Sévignière",
        "code": 4803
      },
      "arrival": 66900,
      "departure": 66900
    },
    {
      "stop": {
        "id": "2_4950",
        "lat": 48.284693,
        "lon": -1.930733,
        "name": "Miniac Eglise",
        "code": 4950
      },
      "arrival": 67320,
      "departure": 67320
    }
  ],
  "route": {
    "id": "2_0096",
    "textColor": "1A171B",
    "color": "AECC52",
    "description": "Intercommunale",
    "longName": "Miniac-sous-Bécherel / Bécherel \u003c\u003e Romillé \u003c\u003e Langan / La-Chapelle-Chaussée",
    "shortName": "96",
    "type": 3,
    "agencyId": "2"
  }
}