{
  "headsign": "9 | Saint-Laurent",
  "stopTimes": [
    {
      "stop": {
        "id": "2_1390",
        "lat": 48.10413591,
        "lon": -1.71347582,
        "name": "Cleunay",
        "code": 1390
      },
      "arrival": 61920,
      "departure": 61920
    },
    {
      "stop": {
        "id": "2_1391",
        "lat": 48.1008831,
        "lon": -1.71163792,
        "name": "Clinique La Sagesse",
        "code": 1391
      },
      "arrival": 62040,
      "departure": 62040
    },
    {
      "stop": {
        "id": "2_1388",
        "lat": 48.099342,
        "lon": -1.7111775,
        "name": "Montand",
        "code": 1388
      },
      "arrival": 62100,
      "departure": 62100
    },
    {
      "stop": {
        "id": "2_1393",
        "lat": 48.09789624,
        "lon": -1.70765735,
        "name": "Récipon",
        "code": 1393
      },
      "arrival": 62160,
      "departure": 62160
    },
    {
      "stop": {
        "id": "2_1394",
        "lat": 48.09900079,
        "lon": -1.70550837,
        "name": "Guérinais",
        "code": 1394
      },
      "arrival": 62220,
      "departure": 62220
    },
    {
      "stop": {
        "id": "2_1395",
        "lat": 48.10101371,
        "lon": -1.70702001,
        "name": "De Lesseps",
        "code": 1395
      },
      "arrival": 62280,
      "departure": 62280
    },
    {
      "stop": {
        "id": "2_1396",
        "lat": 48.10225768,
        "lon": -1.70499098,
        "name": "Champion de Cicé",
        "code": 1396
      },
      "arrival": 62340,
      "departure": 62340
    },
    {
      "stop": {
        "id": "2_1383",
        "lat": 48.10360722,
        "lon": -1.70009111,
        "name": "Dargent",
        "code": 1383
      },
      "arrival": 62400,
      "departure": 62400
    },
    {
      "stop": {
        "id": "2_1382",
        "lat": 48.10510437,
        "lon": -1.69871692,
        "name": "Voltaire",
        "code": 1382
      },
      "arrival": 62460,
      "departure": 62460
    },
    {
      "stop": {
        "id": "2_1399",
        "lat": 48.10503716,
        "lon": -1.69542273,
        "name": "Malakoff",
        "code": 1399
      },
      "arrival": 62520,
      "departure": 62520
    },
    {
      "stop": {
        "id": "2_1612",
        "lat": 48.10353902,
        "lon": -1.68842942,
        "name": "Saint-Conwoïon",
        "code": 1612
      },
      "arrival": 62700,
      "departure": 62700
    },
    {
      "stop": {
        "id": "2_1401",
        "lat": 48.10562192,
        "lon": -1.68776692,
        "name": "Inkermann (futur Redon)",
        "code": 1401
      },
      "arrival": 62760,
      "departure": 62760
    },
    {
      "stop": {
        "id": "2_1021",
        "lat": 48.10550614,
        "lon": -1.68388047,
        "name": "Cité Judiciaire",
        "code": 1021
      },
      "arrival": 62820,
      "departure": 62820
    },
    {
      "stop": {
        "id": "2_1022",
        "lat": 48.10622878,
        "lon": -1.68080951,
        "name": "Plélo Colombier",
        "code": 1022
      },
      "arrival": 62940,
      "departure": 62940
    },
    {
      "stop": {
        "id": "2_1023",
        "lat": 48.10798151,
        "lon": -1.68011595,
        "name": "Les Halles",
        "code": 1023
      },
      "arrival": 63000,
      "departure": 63000
    },
    {
      "stop": {
        "id": "2_1016",
        "lat": 48.11007256,
        "lon": -1.6801671,
        "name": "République Nemours",
        "code": 1016
      },
      "arrival": 63180,
      "departure": 63180
    },
    {
      "stop": {
        "id": "2_1025",
        "lat": 48.11273566,
        "lon": -1.68025817,
        "name": "Champ Jacquet",
        "code": 1025
      },
      "arrival": 63300,
      "departure": 63300
    },
    {
      "stop": {
        "id": "2_1026",
        "lat": 48.11478452,
        "lon": -1.67927843,
        "name": "Sainte-Anne",
        "code": 1026
      },
      "arrival": 63360,
      "departure": 63360
    },
    {
      "stop": {
        "id": "2_1027",
        "lat": 48.11723114,
        "lon": -1.67736823,
        "name": "Hôtel Dieu",
        "code": 1027
      },
      "arrival": 63480,
      "departure": 63480
    },
    {
      "stop": {
        "id": "2_1028",
        "lat": 48.11750653,
        "lon": -1.67360984,
        "name": "Sévigné",
        "code": 1028
      },
      "arrival": 63540,
      "departure": 63540
    },
    {
      "stop": {
        "id": "2_1029",
        "lat": 48.11831975,
        "lon": -1.66969704,
        "name": "Fac de Droit",
        "code": 1029
      },
      "arrival": 63600,
      "departure": 63600
    },
    {
      "stop": {
        "id": "2_1030",
        "lat": 48.11947818,
        "lon": -1.66685122,
        "name": "Guéhenno",
        "code": 1030
      },
      "arrival": 63660,
      "departure": 63660
    },
    {
      "stop": {
        "id": "2_1031",
        "lat": 48.1220044,
        "lon": -1.66224129,
        "name": "Metz Volney",
        "code": 1031
      },
      "arrival": 63720,
      "departure": 63720
    },
    {
      "stop": {
        "id": "2_1403",
        "lat": 48.12522631,
        "lon": -1.66100436,
        "name": "Saint-Exupéry",
        "code": 1403
      },
      "arrival": 63840,
      "departure": 63840
    },
    {
      "stop": {
        "id": "2_1404",
        "lat": 48.12676756,
        "lon": -1.65850144,
        "name": "Trégain",
        "code": 1404
      },
      "arrival": 63840,
      "departure": 63840
    },
    {
      "stop": {
        "id": "2_1405",
        "lat": 48.12834452,
        "lon": -1.65714602,
        "name": "Europe",
        "code": 1405
      },
      "arrival": 63900,
      "departure": 63900
    },
    {
      "stop": {
        "id": "2_1406",
        "lat": 48.13074039,
        "lon": -1.65650905,
        "name": "Gast",
        "code": 1406
      },
      "arrival": 63960,
      "departure": 63960
    },
    {
      "stop": {
        "id": "2_1407",
        "lat": 48.13305845,
        "lon": -1.65670003,
        "name": "Longs Prés",
        "code": 1407
      },
      "arrival": 64020,
      "departure": 64020
    },
    {
      "stop": {
        "id": "2_1373",
        "lat": 48.13520527,
        "lon": -1.65938653,
        "name": "Hôtel de Région",
        "code": 1373
      },
      "arrival": 64080,
      "departure": 64080
    },
    {
      "stop": {
        "id": "2_1372",
        "lat": 48.13840918,
        "lon": -1.65907086,
        "name": "Saint-Laurent",
        "code": 1372
      },
      "arrival": 64200,
      "departure": 64200
    }
  ],
  "route": {
    "id": "2_0009",
    "textColor": "FFFFFF",
    "color": "004B9B",
    "description": "Majeure",
    "longName": "Saint-Laurent \u003c\u003e Cleunay",
    "shortName": "9",
    "type": 3,
    "agencyId": "2"
  }
}