{
  "headsign": "70 | Saint-Sulpice-la-Forêt",
  "stopTimes": [
    {
      "stop": {
        "id": "2_1606",
        "lat": 48.115697,
        "lon": -1.676699,
        "name": "Hoche",
        "code": 1606
      },
      "arrival": 63300,
      "departure": 63300
    },
    {
      "stop": {
        "id": "2_1027",
        "lat": 48.117163,
        "lon": -1.677351,
        "name": "Hôtel Dieu",
        "code": 1027
      },
      "arrival": 63420,
      "departure": 63420
    },
    {
      "stop": {
        "id": "2_1029",
        "lat": 48.118281,
        "lon": -1.669591,
        "name": "Fac de Droit",
        "code": 1029
      },
      "arrival": 63600,
      "departure": 63600
    },
    {
      "stop": {
        "id": "2_1031",
        "lat": 48.121987,
        "lon": -1.662185,
        "name": "Metz Volney",
        "code": 1031
      },
      "arrival": 63780,
      "departure": 63780
    },
    {
      "stop": {
        "id": "2_1430",
        "lat": 48.123645,
        "lon": -1.659306,
        "name": "Painlevé",
        "code": 1430
      },
      "arrival": 63840,
      "departure": 63840
    },
    {
      "stop": {
        "id": "2_1429",
        "lat": 48.127628,
        "lon": -1.650898,
        "name": "Joliot-Curie",
        "code": 1429
      },
      "arrival": 64020,
      "departure": 64020
    },
    {
      "stop": {
        "id": "2_1481",
        "lat": 48.129789,
        "lon": -1.642252,
        "name": "Pâtis Tatelin",
        "code": 1481
      },
      "arrival": 64200,
      "departure": 64200
    },
    {
      "stop": {
        "id": "2_1480",
        "lat": 48.131978,
        "lon": -1.634928,
        "name": "ZA Saint-Sulpice",
        "code": 1480
      },
      "arrival": 64320,
      "departure": 64320
    },
    {
      "stop": {
        "id": "2_2077",
        "lat": 48.134244,
        "lon": -1.628839,
        "name": "Lande Bouhard",
        "code": 2077
      },
      "arrival": 64440,
      "departure": 64440
    },
    {
      "stop": {
        "id": "2_2426",
        "lat": 48.164087,
        "lon": -1.624866,
        "name": "Tihouït",
        "code": 2426
      },
      "arrival": 64800,
      "departure": 64800
    },
    {
      "stop": {
        "id": "2_2427",
        "lat": 48.17048,
        "lon": -1.621949,
        "name": "Champ Giron",
        "code": 2427
      },
      "arrival": 64860,
      "departure": 64860
    },
    {
      "stop": {
        "id": "2_2428",
        "lat": 48.175562,
        "lon": -1.622799,
        "name": "Cour Neuve",
        "code": 2428
      },
      "arrival": 64920,
      "departure": 64920
    },
    {
      "stop": {
        "id": "2_2429",
        "lat": 48.182036,
        "lon": -1.616164,
        "name": "Petite Hublais",
        "code": 2429
      },
      "arrival": 64980,
      "departure": 64980
    },
    {
      "stop": {
        "id": "2_3957",
        "lat": 48.197535,
        "lon": -1.599247,
        "name": "Oliverie",
        "code": 3957
      },
      "arrival": 65160,
      "departure": 65160
    },
    {
      "stop": {
        "id": "2_3958",
        "lat": 48.203176,
        "lon": -1.595,
        "name": "Lande Saint Denis",
        "code": 3958
      },
      "arrival": 65220,
      "departure": 65220
    },
    {
      "stop": {
        "id": "2_3959",
        "lat": 48.211771,
        "lon": -1.590509,
        "name": "Tronchay",
        "code": 3959
      },
      "arrival": 65280,
      "departure": 65280
    },
    {
      "stop": {
        "id": "2_3954",
        "lat": 48.21475,
        "lon": -1.586501,
        "name": "Terrain des Sports",
        "code": 3954
      },
      "arrival": 65340,
      "departure": 65340
    },
    {
      "stop": {
        "id": "2_3961",
        "lat": 48.217752,
        "lon": -1.581363,
        "name": "Bourg",
        "code": 3961
      },
      "arrival": 65400,
      "departure": 65400
    },
    {
      "stop": {
        "id": "2_3962",
        "lat": 48.223126,
        "lon": -1.576679,
        "name": "Chesnais",
        "code": 3962
      },
      "arrival": 65520,
      "departure": 65520
    },
    {
      "stop": {
        "id": "2_3951",
        "lat": 48.225212,
        "lon": -1.570409,
        "name": "Cropy",
        "code": 3951
      },
      "arrival": 65580,
      "departure": 65580
    }
  ],
  "route": {
    "id": "2_0070",
    "textColor": "FFFFFF",
    "color": "EC748D",
    "description": "Métropolitaine",
    "longName": "Rennes (Hoche) \u003c\u003e Saint-Sulpice-la-Forêt",
    "shortName": "70",
    "type": 3,
    "agencyId": "2"
  }
}