{
  "headsign": "54 | Le Rheu",
  "stopTimes": [
    {
      "stop": {
        "id": "2_1567",
        "lat": 48.106213,
        "lon": -1.677425,
        "name": "Charles de Gaulle",
        "code": 1567
      },
      "arrival": 42720,
      "departure": 42720
    },
    {
      "stop": {
        "id": "2_1214",
        "lat": 48.109932,
        "lon": -1.679644,
        "name": "République",
        "code": 1214
      },
      "arrival": 42900,
      "departure": 42900
    },
    {
      "stop": {
        "id": "2_1540",
        "lat": 48.109999,
        "lon": -1.685158,
        "name": "Pont de Bretagne",
        "code": 1540
      },
      "arrival": 42960,
      "departure": 42960
    },
    {
      "stop": {
        "id": "2_1217",
        "lat": 48.108252,
        "lon": -1.694511,
        "name": "Chèques Postaux",
        "code": 1217
      },
      "arrival": 43140,
      "departure": 43140
    },
    {
      "stop": {
        "id": "2_1218",
        "lat": 48.109099,
        "lon": -1.697997,
        "name": "Guilloux Lorient",
        "code": 1218
      },
      "arrival": 43200,
      "departure": 43200
    },
    {
      "stop": {
        "id": "2_1221",
        "lat": 48.108871,
        "lon": -1.710766,
        "name": "Géniaux",
        "code": 1221
      },
      "arrival": 43320,
      "departure": 43320
    },
    {
      "stop": {
        "id": "2_1539",
        "lat": 48.107253,
        "lon": -1.723135,
        "name": "Lemaistre",
        "code": 1539
      },
      "arrival": 43500,
      "departure": 43500
    },
    {
      "stop": {
        "id": "2_1506",
        "lat": 48.106477,
        "lon": -1.73157,
        "name": "Berthault",
        "code": 1506
      },
      "arrival": 43560,
      "departure": 43560
    },
    {
      "stop": {
        "id": "2_3766",
        "lat": 48.104998,
        "lon": -1.740624,
        "name": "Trois Marches",
        "code": 3766
      },
      "arrival": 43680,
      "departure": 43680
    },
    {
      "stop": {
        "id": "2_2511",
        "lat": 48.103559,
        "lon": -1.751287,
        "name": "Plessix Saucourt",
        "code": 2511
      },
      "arrival": 43740,
      "departure": 43740
    },
    {
      "stop": {
        "id": "2_2512",
        "lat": 48.096246,
        "lon": -1.764714,
        "name": "Pont d\u0027Avoine",
        "code": 2512
      },
      "arrival": 43860,
      "departure": 43860
    },
    {
      "stop": {
        "id": "2_2513",
        "lat": 48.097012,
        "lon": -1.776051,
        "name": "Les Pins",
        "code": 2513
      },
      "arrival": 43920,
      "departure": 43920
    },
    {
      "stop": {
        "id": "2_2514",
        "lat": 48.09768,
        "lon": -1.781563,
        "name": "Barberais",
        "code": 2514
      },
      "arrival": 43980,
      "departure": 43980
    },
    {
      "stop": {
        "id": "2_2515",
        "lat": 48.099309,
        "lon": -1.790762,
        "name": "Genêts",
        "code": 2515
      },
      "arrival": 44100,
      "departure": 44100
    },
    {
      "stop": {
        "id": "2_2516",
        "lat": 48.101845,
        "lon": -1.79502,
        "name": "Bouleaux",
        "code": 2516
      },
      "arrival": 44160,
      "departure": 44160
    },
    {
      "stop": {
        "id": "2_2517",
        "lat": 48.099367,
        "lon": -1.796733,
        "name": "Brassens",
        "code": 2517
      },
      "arrival": 44220,
      "departure": 44220
    },
    {
      "stop": {
        "id": "2_2518",
        "lat": 48.099326,
        "lon": -1.802088,
        "name": "Champs Freslons",
        "code": 2518
      },
      "arrival": 44280,
      "departure": 44280
    },
    {
      "stop": {
        "id": "2_2519",
        "lat": 48.100897,
        "lon": -1.806904,
        "name": "Lycée Monod",
        "code": 2519
      },
      "arrival": 44340,
      "departure": 44340
    }
  ],
  "route": {
    "id": "2_0054",
    "textColor": "FFFFFF",
    "color": "CD93BD",
    "description": "Métropolitaine",
    "longName": "Rennes (Charles de Gaulle) \u003c\u003e Le Rheu / Cintré",
    "shortName": "54",
    "type": 3,
    "agencyId": "2"
  }
}