{
  "headsign": "77 | Pacé Pâtis Roussel",
  "stopTimes": [
    {
      "stop": {
        "id": "2_1519",
        "lat": 48.121064,
        "lon": -1.702976,
        "name": "Villejean-Université",
        "code": 1519
      },
      "arrival": 47100,
      "departure": 47100
    },
    {
      "stop": {
        "id": "2_1518",
        "lat": 48.120593,
        "lon": -1.710572,
        "name": "Bourbonnais",
        "code": 1518
      },
      "arrival": 47280,
      "departure": 47280
    },
    {
      "stop": {
        "id": "2_1521",
        "lat": 48.118462,
        "lon": -1.713825,
        "name": "Berry",
        "code": 1521
      },
      "arrival": 47340,
      "departure": 47340
    },
    {
      "stop": {
        "id": "2_3112",
        "lat": 48.141059,
        "lon": -1.767294,
        "name": "Opéra",
        "code": 3112
      },
      "arrival": 47760,
      "departure": 47760
    },
    {
      "stop": {
        "id": "2_3137",
        "lat": 48.140206,
        "lon": -1.763554,
        "name": "Rive Ouest",
        "code": 3137
      },
      "arrival": 47760,
      "departure": 47760
    },
    {
      "stop": {
        "id": "2_3144",
        "lat": 48.141054,
        "lon": -1.766273,
        "name": "Opéra",
        "code": 3144
      },
      "arrival": 47820,
      "departure": 47820
    },
    {
      "stop": {
        "id": "2_3113",
        "lat": 48.143401,
        "lon": -1.770386,
        "name": "Le Ponant",
        "code": 3113
      },
      "arrival": 47820,
      "departure": 47820
    },
    {
      "stop": {
        "id": "2_3114",
        "lat": 48.146022,
        "lon": -1.770492,
        "name": "Carré Dumaine",
        "code": 3114
      },
      "arrival": 47880,
      "departure": 47880
    },
    {
      "stop": {
        "id": "2_3115",
        "lat": 48.148099,
        "lon": -1.769731,
        "name": "Pacé Cimetière",
        "code": 3115
      },
      "arrival": 47940,
      "departure": 47940
    },
    {
      "stop": {
        "id": "2_3130",
        "lat": 48.151605,
        "lon": -1.770461,
        "name": "Le Brix",
        "code": 3130
      },
      "arrival": 48000,
      "departure": 48000
    },
    {
      "stop": {
        "id": "2_3131",
        "lat": 48.154401,
        "lon": -1.770358,
        "name": "Pacé Collèges",
        "code": 3131
      },
      "arrival": 48060,
      "departure": 48060
    },
    {
      "stop": {
        "id": "2_3132",
        "lat": 48.155458,
        "lon": -1.764526,
        "name": "Champalaune",
        "code": 3132
      },
      "arrival": 48120,
      "departure": 48120
    },
    {
      "stop": {
        "id": "2_3133",
        "lat": 48.157383,
        "lon": -1.765666,
        "name": "Ouessant",
        "code": 3133
      },
      "arrival": 48180,
      "departure": 48180
    },
    {
      "stop": {
        "id": "2_3125",
        "lat": 48.16049,
        "lon": -1.768011,
        "name": "Pâtis Roussel",
        "code": 3125
      },
      "arrival": 48240,
      "departure": 48240
    }
  ],
  "route": {
    "id": "2_0077",
    "textColor": "1A171B",
    "color": "FCC000",
    "description": "Métropolitaine",
    "longName": "Rennes (Villejean-Université) \u003c\u003e Pacé",
    "shortName": "77",
    "type": 3,
    "agencyId": "2"
  }
}