{
  "headsign": "70 | Rennes Hoche",
  "stopTimes": [
    {
      "stop": {
        "id": "2_3951",
        "lat": 48.225212,
        "lon": -1.570409,
        "name": "Cropy",
        "code": 3951
      },
      "arrival": 64200,
      "departure": 64200
    },
    {
      "stop": {
        "id": "2_3952",
        "lat": 48.223261,
        "lon": -1.576352,
        "name": "Chesnais",
        "code": 3952
      },
      "arrival": 64260,
      "departure": 64260
    },
    {
      "stop": {
        "id": "2_3953",
        "lat": 48.217907,
        "lon": -1.581457,
        "name": "Bourg",
        "code": 3953
      },
      "arrival": 64320,
      "departure": 64320
    },
    {
      "stop": {
        "id": "2_3960",
        "lat": 48.214637,
        "lon": -1.586893,
        "name": "Terrain des Sports",
        "code": 3960
      },
      "arrival": 64380,
      "departure": 64380
    },
    {
      "stop": {
        "id": "2_3955",
        "lat": 48.211688,
        "lon": -1.590809,
        "name": "Tronchay",
        "code": 3955
      },
      "arrival": 64440,
      "departure": 64440
    },
    {
      "stop": {
        "id": "2_3964",
        "lat": 48.203759,
        "lon": -1.594768,
        "name": "Lande Saint Denis",
        "code": 3964
      },
      "arrival": 64500,
      "departure": 64500
    },
    {
      "stop": {
        "id": "2_3956",
        "lat": 48.199844,
        "lon": -1.597564,
        "name": "Oliverie",
        "code": 3956
      },
      "arrival": 64500,
      "departure": 64500
    },
    {
      "stop": {
        "id": "2_2422",
        "lat": 48.182171,
        "lon": -1.616139,
        "name": "Petite Hublais",
        "code": 2422
      },
      "arrival": 64680,
      "departure": 64680
    },
    {
      "stop": {
        "id": "2_2423",
        "lat": 48.175419,
        "lon": -1.622928,
        "name": "Cour Neuve",
        "code": 2423
      },
      "arrival": 64800,
      "departure": 64800
    },
    {
      "stop": {
        "id": "2_2424",
        "lat": 48.170897,
        "lon": -1.622292,
        "name": "Champ Giron",
        "code": 2424
      },
      "arrival": 64860,
      "departure": 64860
    },
    {
      "stop": {
        "id": "2_2425",
        "lat": 48.163742,
        "lon": -1.625164,
        "name": "Tihouït",
        "code": 2425
      },
      "arrival": 64920,
      "departure": 64920
    },
    {
      "stop": {
        "id": "2_2076",
        "lat": 48.134108,
        "lon": -1.62911,
        "name": "Lande Bouhard",
        "code": 2076
      },
      "arrival": 65160,
      "departure": 65160
    },
    {
      "stop": {
        "id": "2_1484",
        "lat": 48.131875,
        "lon": -1.635896,
        "name": "ZA Saint-Sulpice",
        "code": 1484
      },
      "arrival": 65280,
      "departure": 65280
    },
    {
      "stop": {
        "id": "2_1483",
        "lat": 48.12955,
        "lon": -1.64367,
        "name": "Pâtis Tatelin",
        "code": 1483
      },
      "arrival": 65400,
      "departure": 65400
    },
    {
      "stop": {
        "id": "2_1409",
        "lat": 48.126831,
        "lon": -1.653313,
        "name": "Joliot-Curie",
        "code": 1409
      },
      "arrival": 65580,
      "departure": 65580
    },
    {
      "stop": {
        "id": "2_1008",
        "lat": 48.123212,
        "lon": -1.660216,
        "name": "Painlevé",
        "code": 1008
      },
      "arrival": 65760,
      "departure": 65760
    },
    {
      "stop": {
        "id": "2_1009",
        "lat": 48.121635,
        "lon": -1.663186,
        "name": "Metz Volney",
        "code": 1009
      },
      "arrival": 65820,
      "departure": 65820
    },
    {
      "stop": {
        "id": "2_1011",
        "lat": 48.118312,
        "lon": -1.671315,
        "name": "Fac de Droit",
        "code": 1011
      },
      "arrival": 66000,
      "departure": 66000
    },
    {
      "stop": {
        "id": "2_1606",
        "lat": 48.115697,
        "lon": -1.676699,
        "name": "Hoche",
        "code": 1606
      },
      "arrival": 66180,
      "departure": 66180
    }
  ],
  "route": {
    "id": "2_0070",
    "textColor": "FFFFFF",
    "color": "EC748D",
    "description": "Métropolitaine",
    "longName": "Rennes (Hoche) \u003c\u003e Saint-Sulpice-la-Forêt",
    "shortName": "70",
    "type": 3,
    "agencyId": "2"
  }
}