{
  "headsign": "61 | Rennes Henri Fréville",
  "stopTimes": [
    {
      "stop": {
        "id": "2_4351",
        "lat": 48.01725668,
        "lon": -1.66042889,
        "name": "Parc d\u0027Activités",
        "code": 4351
      },
      "arrival": 62700,
      "departure": 62700
    },
    {
      "stop": {
        "id": "2_4352",
        "lat": 48.01883453,
        "lon": -1.65769241,
        "name": "Champ Mulon",
        "code": 4352
      },
      "arrival": 62760,
      "departure": 62760
    },
    {
      "stop": {
        "id": "2_4353",
        "lat": 48.01766237,
        "lon": -1.65451232,
        "name": "Paul Féval",
        "code": 4353
      },
      "arrival": 62820,
      "departure": 62820
    },
    {
      "stop": {
        "id": "2_4362",
        "lat": 48.01619592,
        "lon": -1.65151734,
        "name": "Alexandre Gilois",
        "code": 4362
      },
      "arrival": 62820,
      "departure": 62820
    },
    {
      "stop": {
        "id": "2_4358",
        "lat": 48.01767454,
        "lon": -1.64942104,
        "name": "Croix Faucheux",
        "code": 4358
      },
      "arrival": 62880,
      "departure": 62880
    },
    {
      "stop": {
        "id": "2_4359",
        "lat": 48.02152221,
        "lon": -1.65356188,
        "name": "Leuzières",
        "code": 4359
      },
      "arrival": 62940,
      "departure": 62940
    },
    {
      "stop": {
        "id": "2_2705",
        "lat": 48.0289823,
        "lon": -1.65980879,
        "name": "Bray",
        "code": 2705
      },
      "arrival": 63060,
      "departure": 63060
    },
    {
      "stop": {
        "id": "2_2734",
        "lat": 48.03439807,
        "lon": -1.66349817,
        "name": "Côteaux",
        "code": 2734
      },
      "arrival": 63120,
      "departure": 63120
    },
    {
      "stop": {
        "id": "2_2727",
        "lat": 48.03842301,
        "lon": -1.66656825,
        "name": "Pont",
        "code": 2727
      },
      "arrival": 63180,
      "departure": 63180
    },
    {
      "stop": {
        "id": "2_2706",
        "lat": 48.0384178,
        "lon": -1.67071213,
        "name": "Molène",
        "code": 2706
      },
      "arrival": 63240,
      "departure": 63240
    },
    {
      "stop": {
        "id": "2_2707",
        "lat": 48.04080291,
        "lon": -1.6719381,
        "name": "Potiers",
        "code": 2707
      },
      "arrival": 63300,
      "departure": 63300
    },
    {
      "stop": {
        "id": "2_2708",
        "lat": 48.04239861,
        "lon": -1.66565541,
        "name": "Centre",
        "code": 2708
      },
      "arrival": 63420,
      "departure": 63420
    },
    {
      "stop": {
        "id": "2_2709",
        "lat": 48.0440963,
        "lon": -1.66126141,
        "name": "Salle Polyvalente",
        "code": 2709
      },
      "arrival": 63480,
      "departure": 63480
    },
    {
      "stop": {
        "id": "2_2710",
        "lat": 48.0471142,
        "lon": -1.66108375,
        "name": "Petite Saudrais",
        "code": 2710
      },
      "arrival": 63540,
      "departure": 63540
    },
    {
      "stop": {
        "id": "2_2711",
        "lat": 48.05658785,
        "lon": -1.66382824,
        "name": "Croix Fleurie",
        "code": 2711
      },
      "arrival": 63660,
      "departure": 63660
    },
    {
      "stop": {
        "id": "2_2712",
        "lat": 48.06366665,
        "lon": -1.66376685,
        "name": "Mail Lancé",
        "code": 2712
      },
      "arrival": 63720,
      "departure": 63720
    },
    {
      "stop": {
        "id": "2_2713",
        "lat": 48.06835651,
        "lon": -1.66575417,
        "name": "Petit Beaulieu",
        "code": 2713
      },
      "arrival": 63720,
      "departure": 63720
    },
    {
      "stop": {
        "id": "2_2714",
        "lat": 48.07719318,
        "lon": -1.66114018,
        "name": "Hil-Bintinais",
        "code": 2714
      },
      "arrival": 63840,
      "departure": 63840
    },
    {
      "stop": {
        "id": "2_1441",
        "lat": 48.08606219,
        "lon": -1.66094033,
        "name": "Triangle",
        "code": 1441
      },
      "arrival": 63960,
      "departure": 63960
    },
    {
      "stop": {
        "id": "2_1534",
        "lat": 48.08831453,
        "lon": -1.67444337,
        "name": "Henri Fréville",
        "code": 1534
      },
      "arrival": 64260,
      "departure": 64260
    }
  ],
  "route": {
    "id": "2_0061",
    "textColor": "ffffff",
    "color": "e43d6a",
    "description": "Métropolitaine",
    "longName": "Rennes (Henri Fréville) \u003c\u003e Noyal-Châtillon-sur-Seiche / Saint-Erblon",
    "shortName": "61",
    "type": 3,
    "agencyId": "2"
  }
}