{
  "headsign": "81 | Pacé Saint-Gilles Clayes Romillé",
  "stopTimes": [
    {
      "stop": {
        "id": "2_1551",
        "lat": 48.109936,
        "lon": -1.678228,
        "name": "République",
        "code": 1551
      },
      "arrival": 92100,
      "departure": 92100
    },
    {
      "stop": {
        "id": "2_1497",
        "lat": 48.120973,
        "lon": -1.70298,
        "name": "Villejean-Université",
        "code": 1497
      },
      "arrival": 92640,
      "departure": 92640
    },
    {
      "stop": {
        "id": "2_1518",
        "lat": 48.120593,
        "lon": -1.710572,
        "name": "Bourbonnais",
        "code": 1518
      },
      "arrival": 92760,
      "departure": 92760
    },
    {
      "stop": {
        "id": "2_1521",
        "lat": 48.118462,
        "lon": -1.713825,
        "name": "Berry",
        "code": 1521
      },
      "arrival": 92820,
      "departure": 92820
    },
    {
      "stop": {
        "id": "2_3135",
        "lat": 48.141755,
        "lon": -1.771001,
        "name": "Nominoë",
        "code": 3135
      },
      "arrival": 93180,
      "departure": 93180
    },
    {
      "stop": {
        "id": "2_3105",
        "lat": 48.14765,
        "lon": -1.780916,
        "name": "Pinault",
        "code": 3105
      },
      "arrival": 93300,
      "departure": 93300
    },
    {
      "stop": {
        "id": "2_3120",
        "lat": 48.1486,
        "lon": -1.785006,
        "name": "Touche Milon",
        "code": 3120
      },
      "arrival": 93360,
      "departure": 93360
    },
    {
      "stop": {
        "id": "2_3121",
        "lat": 48.149381,
        "lon": -1.789012,
        "name": "Docteur Léon",
        "code": 3121
      },
      "arrival": 93360,
      "departure": 93360
    },
    {
      "stop": {
        "id": "2_3122",
        "lat": 48.151278,
        "lon": -1.792357,
        "name": "Pie Neuve",
        "code": 3122
      },
      "arrival": 93420,
      "departure": 93420
    },
    {
      "stop": {
        "id": "2_3710",
        "lat": 48.153626,
        "lon": -1.810538,
        "name": "Fouaye",
        "code": 3710
      },
      "arrival": 93540,
      "departure": 93540
    },
    {
      "stop": {
        "id": "2_3711",
        "lat": 48.154152,
        "lon": -1.819988,
        "name": "Vigne",
        "code": 3711
      },
      "arrival": 93600,
      "departure": 93600
    },
    {
      "stop": {
        "id": "2_3712",
        "lat": 48.150714,
        "lon": -1.824791,
        "name": "Pont aux Moines",
        "code": 3712
      },
      "arrival": 93720,
      "departure": 93720
    },
    {
      "stop": {
        "id": "2_3714",
        "lat": 48.152522,
        "lon": -1.829773,
        "name": "Saint-Gilles Centre",
        "code": 3714
      },
      "arrival": 93780,
      "departure": 93780
    },
    {
      "stop": {
        "id": "2_3724",
        "lat": 48.153843,
        "lon": -1.834042,
        "name": "Clos des Cerisiers",
        "code": 3724
      },
      "arrival": 93780,
      "departure": 93780
    },
    {
      "stop": {
        "id": "2_3723",
        "lat": 48.15406,
        "lon": -1.837815,
        "name": "Maison Neuve",
        "code": 3723
      },
      "arrival": 93840,
      "departure": 93840
    },
    {
      "stop": {
        "id": "2_3732",
        "lat": 48.14933,
        "lon": -1.839024,
        "name": "Ile des Bois",
        "code": 3732
      },
      "arrival": 93960,
      "departure": 93960
    },
    {
      "stop": {
        "id": "2_4457",
        "lat": 48.176249,
        "lon": -1.852479,
        "name": "Clayes Centre",
        "code": 4457
      },
      "arrival": 94260,
      "departure": 94260
    },
    {
      "stop": {
        "id": "2_4459",
        "lat": 48.178132,
        "lon": -1.85278,
        "name": "La Cour aux Pages",
        "code": 4459
      },
      "arrival": 94320,
      "departure": 94320
    },
    {
      "stop": {
        "id": "2_4458",
        "lat": 48.182349,
        "lon": -1.853067,
        "name": "Croix Simon",
        "code": 4458
      },
      "arrival": 94380,
      "departure": 94380
    },
    {
      "stop": {
        "id": "2_6005",
        "lat": 48.212494,
        "lon": -1.890895,
        "name": "Mettrie Templiers",
        "code": 6005
      },
      "arrival": 94620,
      "departure": 94620
    },
    {
      "stop": {
        "id": "2_6003",
        "lat": 48.214912,
        "lon": -1.892418,
        "name": "Romillé Mairie",
        "code": 6003
      },
      "arrival": 94680,
      "departure": 94680
    },
    {
      "stop": {
        "id": "2_6001",
        "lat": 48.216915,
        "lon": -1.89045,
        "name": "Frères Aubert",
        "code": 6001
      },
      "arrival": 94740,
      "departure": 94740
    },
    {
      "stop": {
        "id": "2_6000",
        "lat": 48.218676,
        "lon": -1.893365,
        "name": "Romillé Collège",
        "code": 6000
      },
      "arrival": 94860,
      "departure": 94860
    }
  ],
  "route": {
    "id": "2_0081",
    "textColor": "FFFFFF",
    "color": "0081C6",
    "description": "Métropolitaine",
    "longName": "Rennes (Villejean-Université) \u003c\u003e Clayes / Romillé",
    "shortName": "81",
    "type": 3,
    "agencyId": "2"
  }
}