{
  "headsign": "76 | Vezin Le Rheu Mordelles",
  "stopTimes": [
    {
      "stop": {
        "id": "2_1566",
        "lat": 48.125304,
        "lon": -1.692431,
        "name": "Lycée Basch",
        "code": 1566
      },
      "arrival": 38400,
      "departure": 38400
    },
    {
      "stop": {
        "id": "2_1307",
        "lat": 48.121755,
        "lon": -1.703954,
        "name": "Villejean-Université",
        "code": 1307
      },
      "arrival": 38700,
      "departure": 38700
    },
    {
      "stop": {
        "id": "2_1309",
        "lat": 48.116745,
        "lon": -1.704803,
        "name": "Berger",
        "code": 1309
      },
      "arrival": 38820,
      "departure": 38820
    },
    {
      "stop": {
        "id": "2_1414",
        "lat": 48.116416,
        "lon": -1.712265,
        "name": "Merlin",
        "code": 1414
      },
      "arrival": 38940,
      "departure": 38940
    },
    {
      "stop": {
        "id": "2_1499",
        "lat": 48.1163,
        "lon": -1.716029,
        "name": "Colin",
        "code": 1499
      },
      "arrival": 39000,
      "departure": 39000
    },
    {
      "stop": {
        "id": "2_3771",
        "lat": 48.119126,
        "lon": -1.749551,
        "name": "Champs Bleus",
        "code": 3771
      },
      "arrival": 39240,
      "departure": 39240
    },
    {
      "stop": {
        "id": "2_3762",
        "lat": 48.11923,
        "lon": -1.755499,
        "name": "Vezin Centre",
        "code": 3762
      },
      "arrival": 39300,
      "departure": 39300
    },
    {
      "stop": {
        "id": "2_3763",
        "lat": 48.119239,
        "lon": -1.761273,
        "name": "Lion d\u0027Or",
        "code": 3763
      },
      "arrival": 39420,
      "departure": 39420
    },
    {
      "stop": {
        "id": "2_2537",
        "lat": 48.102407,
        "lon": -1.787351,
        "name": "Gaston Bardet",
        "code": 2537
      },
      "arrival": 39840,
      "departure": 39840
    },
    {
      "stop": {
        "id": "2_2516",
        "lat": 48.101845,
        "lon": -1.79502,
        "name": "Bouleaux",
        "code": 2516
      },
      "arrival": 39900,
      "departure": 39900
    },
    {
      "stop": {
        "id": "2_2517",
        "lat": 48.099367,
        "lon": -1.796733,
        "name": "Brassens",
        "code": 2517
      },
      "arrival": 39960,
      "departure": 39960
    },
    {
      "stop": {
        "id": "2_2539",
        "lat": 48.096488,
        "lon": -1.79816,
        "name": "Acquêts",
        "code": 2539
      },
      "arrival": 40020,
      "departure": 40020
    },
    {
      "stop": {
        "id": "2_2541",
        "lat": 48.094783,
        "lon": -1.796299,
        "name": "Egalité",
        "code": 2541
      },
      "arrival": 40020,
      "departure": 40020
    },
    {
      "stop": {
        "id": "2_3862",
        "lat": 48.077836,
        "lon": -1.837377,
        "name": "Gretay",
        "code": 3862
      },
      "arrival": 40440,
      "departure": 40440
    },
    {
      "stop": {
        "id": "2_3863",
        "lat": 48.075604,
        "lon": -1.842827,
        "name": "Mordelles Lilas",
        "code": 3863
      },
      "arrival": 40500,
      "departure": 40500
    },
    {
      "stop": {
        "id": "2_3864",
        "lat": 48.073558,
        "lon": -1.846884,
        "name": "Mordelles Mairie",
        "code": 3864
      },
      "arrival": 40560,
      "departure": 40560
    },
    {
      "stop": {
        "id": "2_3865",
        "lat": 48.071883,
        "lon": -1.85024,
        "name": "Mordelles Eglise",
        "code": 3865
      },
      "arrival": 40620,
      "departure": 40620
    },
    {
      "stop": {
        "id": "2_3851",
        "lat": 48.074582,
        "lon": -1.853723,
        "name": "Mordelles Pâtis",
        "code": 3851
      },
      "arrival": 40740,
      "departure": 40740
    }
  ],
  "route": {
    "id": "2_0076",
    "textColor": "1A171B",
    "color": "62C3D5",
    "description": "Métropolitaine",
    "longName": "Rennes (Villejean-Université) \u003c\u003e Vezin-le-Coquet / Le Rheu / Mordelles",
    "shortName": "76",
    "type": 3,
    "agencyId": "2"
  }
}