{
  "headsign": "55 | Rennes Charles de Gaulle",
  "stopTimes": [
    {
      "stop": {
        "id": "2_4401",
        "lat": 48.070078,
        "lon": -1.932395,
        "name": "Le Verger Eglise",
        "code": 4401
      },
      "arrival": 41580,
      "departure": 41580
    },
    {
      "stop": {
        "id": "2_4402",
        "lat": 48.070241,
        "lon": -1.928997,
        "name": "Bouvrais",
        "code": 4402
      },
      "arrival": 41580,
      "departure": 41580
    },
    {
      "stop": {
        "id": "2_3851",
        "lat": 48.074582,
        "lon": -1.853723,
        "name": "Mordelles Pâtis",
        "code": 3851
      },
      "arrival": 42300,
      "departure": 42300
    },
    {
      "stop": {
        "id": "2_3852",
        "lat": 48.071956,
        "lon": -1.849829,
        "name": "Mordelles Eglise",
        "code": 3852
      },
      "arrival": 42420,
      "departure": 42420
    },
    {
      "stop": {
        "id": "2_3853",
        "lat": 48.073718,
        "lon": -1.846282,
        "name": "Mordelles Mairie",
        "code": 3853
      },
      "arrival": 42480,
      "departure": 42480
    },
    {
      "stop": {
        "id": "2_3854",
        "lat": 48.075808,
        "lon": -1.842153,
        "name": "Mordelles Lilas",
        "code": 3854
      },
      "arrival": 42540,
      "departure": 42540
    },
    {
      "stop": {
        "id": "2_3855",
        "lat": 48.077668,
        "lon": -1.837422,
        "name": "Gretay",
        "code": 3855
      },
      "arrival": 42660,
      "departure": 42660
    },
    {
      "stop": {
        "id": "2_3856",
        "lat": 48.081318,
        "lon": -1.826616,
        "name": "Croix Ignon",
        "code": 3856
      },
      "arrival": 42720,
      "departure": 42720
    },
    {
      "stop": {
        "id": "2_3857",
        "lat": 48.083954,
        "lon": -1.813568,
        "name": "Grande Fontaine",
        "code": 3857
      },
      "arrival": 42840,
      "departure": 42840
    },
    {
      "stop": {
        "id": "2_3858",
        "lat": 48.08823,
        "lon": -1.798671,
        "name": "Vivier des Bois",
        "code": 3858
      },
      "arrival": 42900,
      "departure": 42900
    },
    {
      "stop": {
        "id": "2_2521",
        "lat": 48.090998,
        "lon": -1.786814,
        "name": "Gerhoui",
        "code": 2521
      },
      "arrival": 43020,
      "departure": 43020
    },
    {
      "stop": {
        "id": "2_2522",
        "lat": 48.093981,
        "lon": -1.773941,
        "name": "Mahomat",
        "code": 2522
      },
      "arrival": 43080,
      "departure": 43080
    },
    {
      "stop": {
        "id": "2_2509",
        "lat": 48.096139,
        "lon": -1.764573,
        "name": "Pont d\u0027Avoine",
        "code": 2509
      },
      "arrival": 43140,
      "departure": 43140
    },
    {
      "stop": {
        "id": "2_3752",
        "lat": 48.104704,
        "lon": -1.739009,
        "name": "Trois Marches",
        "code": 3752
      },
      "arrival": 43440,
      "departure": 43440
    },
    {
      "stop": {
        "id": "2_1508",
        "lat": 48.106693,
        "lon": -1.729127,
        "name": "Berthault",
        "code": 1508
      },
      "arrival": 43560,
      "departure": 43560
    },
    {
      "stop": {
        "id": "2_1233",
        "lat": 48.107021,
        "lon": -1.72162,
        "name": "Lemaistre",
        "code": 1233
      },
      "arrival": 43620,
      "departure": 43620
    },
    {
      "stop": {
        "id": "2_1235",
        "lat": 48.108898,
        "lon": -1.709658,
        "name": "Géniaux",
        "code": 1235
      },
      "arrival": 43740,
      "departure": 43740
    },
    {
      "stop": {
        "id": "2_1238",
        "lat": 48.108687,
        "lon": -1.698735,
        "name": "Guilloux Lorient",
        "code": 1238
      },
      "arrival": 43860,
      "departure": 43860
    },
    {
      "stop": {
        "id": "2_1239",
        "lat": 48.108256,
        "lon": -1.694158,
        "name": "Chèques Postaux",
        "code": 1239
      },
      "arrival": 43920,
      "departure": 43920
    },
    {
      "stop": {
        "id": "2_1542",
        "lat": 48.10992,
        "lon": -1.68535,
        "name": "Pont de Bretagne",
        "code": 1542
      },
      "arrival": 44100,
      "departure": 44100
    },
    {
      "stop": {
        "id": "2_1242",
        "lat": 48.109758,
        "lon": -1.679532,
        "name": "République",
        "code": 1242
      },
      "arrival": 44160,
      "departure": 44160
    },
    {
      "stop": {
        "id": "2_1088",
        "lat": 48.107377,
        "lon": -1.674981,
        "name": "Liberté TNB",
        "code": 1088
      },
      "arrival": 44340,
      "departure": 44340
    },
    {
      "stop": {
        "id": "2_1567",
        "lat": 48.106213,
        "lon": -1.677425,
        "name": "Charles de Gaulle",
        "code": 1567
      },
      "arrival": 44460,
      "departure": 44460
    }
  ],
  "route": {
    "id": "2_0055",
    "textColor": "1A171B",
    "color": "F7A800",
    "description": "Métropolitaine",
    "longName": "Rennes (Charles de Gaulle) \u003c\u003e Mordelles / Le Verger",
    "shortName": "55",
    "type": 3,
    "agencyId": "2"
  }
}