{
  "headsign": "STN | Beaulieu Atalante",
  "stopTimes": [
    {
      "stop": {
        "id": "2_1168",
        "lat": 48.109761,
        "lon": -1.678807,
        "name": "République",
        "code": 1168
      },
      "arrival": 17700,
      "departure": 17700
    },
    {
      "stop": {
        "id": "2_1169",
        "lat": 48.109809,
        "lon": -1.674483,
        "name": "Musée Beaux Arts",
        "code": 1169
      },
      "arrival": 17760,
      "departure": 17760
    },
    {
      "stop": {
        "id": "2_1170",
        "lat": 48.109996,
        "lon": -1.669018,
        "name": "Paul Bert",
        "code": 1170
      },
      "arrival": 17820,
      "departure": 17820
    },
    {
      "stop": {
        "id": "2_1171",
        "lat": 48.110016,
        "lon": -1.663623,
        "name": "Pont de Châteaudun",
        "code": 1171
      },
      "arrival": 17880,
      "departure": 17880
    },
    {
      "stop": {
        "id": "2_1172",
        "lat": 48.11003,
        "lon": -1.659227,
        "name": "Robidou",
        "code": 1172
      },
      "arrival": 17940,
      "departure": 17940
    },
    {
      "stop": {
        "id": "2_1173",
        "lat": 48.110055,
        "lon": -1.656165,
        "name": "Pont de Strasbourg",
        "code": 1173
      },
      "arrival": 18000,
      "departure": 18000
    },
    {
      "stop": {
        "id": "2_1174",
        "lat": 48.112437,
        "lon": -1.64292,
        "name": "Plaine de Baud",
        "code": 1174
      },
      "arrival": 18120,
      "departure": 18120
    },
    {
      "stop": {
        "id": "2_1604",
        "lat": 48.113551,
        "lon": -1.640947,
        "name": "Les Préales",
        "code": 1604
      },
      "arrival": 18180,
      "departure": 18180
    },
    {
      "stop": {
        "id": "2_1610",
        "lat": 48.114025,
        "lon": -1.636082,
        "name": "Tournebride",
        "code": 1610
      },
      "arrival": 18240,
      "departure": 18240
    },
    {
      "stop": {
        "id": "2_1175",
        "lat": 48.117101,
        "lon": -1.633896,
        "name": "Beaulieu Chimie",
        "code": 1175
      },
      "arrival": 18360,
      "departure": 18360
    },
    {
      "stop": {
        "id": "2_1204",
        "lat": 48.119511,
        "lon": -1.635317,
        "name": "Beaulieu INSA",
        "code": 1204
      },
      "arrival": 18360,
      "departure": 18360
    },
    {
      "stop": {
        "id": "2_1313",
        "lat": 48.121929,
        "lon": -1.638311,
        "name": "Beaulieu Restau U",
        "code": 1313
      },
      "arrival": 18420,
      "departure": 18420
    },
    {
      "stop": {
        "id": "2_1314",
        "lat": 48.125106,
        "lon": -1.632973,
        "name": "IUT",
        "code": 1314
      },
      "arrival": 18540,
      "departure": 18540
    },
    {
      "stop": {
        "id": "2_1290",
        "lat": 48.126929,
        "lon": -1.629221,
        "name": "Clos Courtel",
        "code": 1290
      },
      "arrival": 18600,
      "departure": 18600
    }
  ],
  "route": {
    "id": "2_0805",
    "textColor": "FFFFFF",
    "color": "004B96",
    "description": "Spéciale",
    "longName": "STAR de Nuit - Beaulieu Atalante \u003c\u003e J.F. Kennedy",
    "shortName": "STN",
    "type": 3,
    "agencyId": "2"
  }
}