{
  "headsign": "56 | Chavagne",
  "stopTimes": [
    {
      "stop": {
        "id": "2_1595",
        "lat": 48.1058325,
        "lon": -1.67730047,
        "name": "Charles de Gaulle",
        "code": 1595
      },
      "arrival": 62460,
      "departure": 62460
    },
    {
      "stop": {
        "id": "2_1214",
        "lat": 48.10990137,
        "lon": -1.6796669,
        "name": "République",
        "code": 1214
      },
      "arrival": 62700,
      "departure": 62700
    },
    {
      "stop": {
        "id": "2_1540",
        "lat": 48.1099522,
        "lon": -1.68519001,
        "name": "Pont de Bretagne",
        "code": 1540
      },
      "arrival": 62760,
      "departure": 62760
    },
    {
      "stop": {
        "id": "2_1217",
        "lat": 48.10845176,
        "lon": -1.69364366,
        "name": "Chèques Postaux",
        "code": 1217
      },
      "arrival": 62940,
      "departure": 62940
    },
    {
      "stop": {
        "id": "2_1218",
        "lat": 48.10910111,
        "lon": -1.69795527,
        "name": "Guilloux Lorient",
        "code": 1218
      },
      "arrival": 63000,
      "departure": 63000
    },
    {
      "stop": {
        "id": "2_1221",
        "lat": 48.10886588,
        "lon": -1.71061365,
        "name": "Géniaux",
        "code": 1221
      },
      "arrival": 63120,
      "departure": 63120
    },
    {
      "stop": {
        "id": "2_1539",
        "lat": 48.10723127,
        "lon": -1.72306614,
        "name": "Lemaistre",
        "code": 1539
      },
      "arrival": 63300,
      "departure": 63300
    },
    {
      "stop": {
        "id": "2_1506",
        "lat": 48.10648051,
        "lon": -1.73143819,
        "name": "Berthault",
        "code": 1506
      },
      "arrival": 63360,
      "departure": 63360
    },
    {
      "stop": {
        "id": "2_3766",
        "lat": 48.10499211,
        "lon": -1.74065229,
        "name": "Trois Marches",
        "code": 3766
      },
      "arrival": 63480,
      "departure": 63480
    },
    {
      "stop": {
        "id": "2_2512",
        "lat": 48.09623468,
        "lon": -1.76464809,
        "name": "Pont d\u0027Avoine",
        "code": 2512
      },
      "arrival": 63660,
      "departure": 63660
    },
    {
      "stop": {
        "id": "2_2523",
        "lat": 48.09407165,
        "lon": -1.77398049,
        "name": "Mahomat",
        "code": 2523
      },
      "arrival": 63720,
      "departure": 63720
    },
    {
      "stop": {
        "id": "2_2529",
        "lat": 48.0803048,
        "lon": -1.77444546,
        "name": "Moigné",
        "code": 2529
      },
      "arrival": 63840,
      "departure": 63840
    },
    {
      "stop": {
        "id": "2_2530",
        "lat": 48.07879295,
        "lon": -1.77215639,
        "name": "Haut Plessis",
        "code": 2530
      },
      "arrival": 63840,
      "departure": 63840
    },
    {
      "stop": {
        "id": "2_4207",
        "lat": 48.063395,
        "lon": -1.77238031,
        "name": "Mare Doux",
        "code": 4207
      },
      "arrival": 64080,
      "departure": 64080
    },
    {
      "stop": {
        "id": "2_4208",
        "lat": 48.05776111,
        "lon": -1.7763633,
        "name": "Grippay",
        "code": 4208
      },
      "arrival": 64140,
      "departure": 64140
    },
    {
      "stop": {
        "id": "2_4209",
        "lat": 48.05408189,
        "lon": -1.78370908,
        "name": "Avenir",
        "code": 4209
      },
      "arrival": 64260,
      "departure": 64260
    },
    {
      "stop": {
        "id": "2_4203",
        "lat": 48.05509706,
        "lon": -1.79000007,
        "name": "Alfred de Musset",
        "code": 4203
      },
      "arrival": 64320,
      "departure": 64320
    },
    {
      "stop": {
        "id": "2_4211",
        "lat": 48.05245322,
        "lon": -1.79050012,
        "name": "Calvaire",
        "code": 4211
      },
      "arrival": 64380,
      "departure": 64380
    },
    {
      "stop": {
        "id": "2_4201",
        "lat": 48.0519556,
        "lon": -1.79762199,
        "name": "Croix Blanche",
        "code": 4201
      },
      "arrival": 64500,
      "departure": 64500
    }
  ],
  "route": {
    "id": "2_0056",
    "textColor": "ffffff",
    "color": "009a4a",
    "description": "Métropolitaine",
    "longName": "Rennes (Charles de Gaulle) \u003c\u003e Chavagne",
    "shortName": "56",
    "type": 3,
    "agencyId": "2"
  }
}