{
  "headsign": "57 | Bruz Centre",
  "stopTimes": [
    {
      "stop": {
        "id": "2_1501",
        "lat": 48.10936833,
        "lon": -1.6797666,
        "name": "République Pré Botté",
        "code": 1501
      },
      "arrival": 36000,
      "departure": 36000
    },
    {
      "stop": {
        "id": "2_1017",
        "lat": 48.10834873,
        "lon": -1.6801754,
        "name": "Les Halles",
        "code": 1017
      },
      "arrival": 36060,
      "departure": 36060
    },
    {
      "stop": {
        "id": "2_1018",
        "lat": 48.10604754,
        "lon": -1.68160006,
        "name": "Plélo Colombier",
        "code": 1018
      },
      "arrival": 36120,
      "departure": 36120
    },
    {
      "stop": {
        "id": "2_1019",
        "lat": 48.1051576,
        "lon": -1.68471093,
        "name": "Cité Judiciaire",
        "code": 1019
      },
      "arrival": 36240,
      "departure": 36240
    },
    {
      "stop": {
        "id": "2_1264",
        "lat": 48.10211461,
        "lon": -1.68438725,
        "name": "Pont de Nantes",
        "code": 1264
      },
      "arrival": 36300,
      "departure": 36300
    },
    {
      "stop": {
        "id": "2_1265",
        "lat": 48.0997896,
        "lon": -1.68708791,
        "name": "Foyer Rennais",
        "code": 1265
      },
      "arrival": 36360,
      "departure": 36360
    },
    {
      "stop": {
        "id": "2_1020",
        "lat": 48.09739351,
        "lon": -1.68956282,
        "name": "Mermoz",
        "code": 1020
      },
      "arrival": 36420,
      "departure": 36420
    },
    {
      "stop": {
        "id": "2_2208",
        "lat": 48.09571589,
        "lon": -1.69476004,
        "name": "Commeurec",
        "code": 2208
      },
      "arrival": 36480,
      "departure": 36480
    },
    {
      "stop": {
        "id": "2_2207",
        "lat": 48.09353291,
        "lon": -1.70134791,
        "name": "Lilas",
        "code": 2207
      },
      "arrival": 36600,
      "departure": 36600
    },
    {
      "stop": {
        "id": "2_2211",
        "lat": 48.08727159,
        "lon": -1.70734318,
        "name": "Gaité",
        "code": 2211
      },
      "arrival": 36720,
      "departure": 36720
    },
    {
      "stop": {
        "id": "2_2241",
        "lat": 48.08052746,
        "lon": -1.71255409,
        "name": "Malraux",
        "code": 2241
      },
      "arrival": 36780,
      "departure": 36780
    },
    {
      "stop": {
        "id": "2_2245",
        "lat": 48.077629,
        "lon": -1.71267231,
        "name": "Haut Bois",
        "code": 2245
      },
      "arrival": 36840,
      "departure": 36840
    },
    {
      "stop": {
        "id": "2_2233",
        "lat": 48.06738312,
        "lon": -1.71730011,
        "name": "Abbé Grimault",
        "code": 2233
      },
      "arrival": 36960,
      "departure": 36960
    },
    {
      "stop": {
        "id": "2_2243",
        "lat": 48.06692895,
        "lon": -1.72233003,
        "name": "Aire Libre Aéroport",
        "code": 2243
      },
      "arrival": 37020,
      "departure": 37020
    },
    {
      "stop": {
        "id": "2_2242",
        "lat": 48.06503505,
        "lon": -1.72459513,
        "name": "Centre Météo",
        "code": 2242
      },
      "arrival": 37080,
      "departure": 37080
    },
    {
      "stop": {
        "id": "2_2244",
        "lat": 48.05988123,
        "lon": -1.73439523,
        "name": "Parc Expo",
        "code": 2244
      },
      "arrival": 37140,
      "departure": 37140
    },
    {
      "stop": {
        "id": "2_2315",
        "lat": 48.0527925,
        "lon": -1.7383715,
        "name": "Lande du Pont",
        "code": 2315
      },
      "arrival": 37260,
      "departure": 37260
    },
    {
      "stop": {
        "id": "2_2316",
        "lat": 48.04936083,
        "lon": -1.74065996,
        "name": "Etangs",
        "code": 2316
      },
      "arrival": 37320,
      "departure": 37320
    },
    {
      "stop": {
        "id": "2_2317",
        "lat": 48.04740124,
        "lon": -1.74208422,
        "name": "Coeur de Campus",
        "code": 2317
      },
      "arrival": 37380,
      "departure": 37380
    },
    {
      "stop": {
        "id": "2_2309",
        "lat": 48.04459244,
        "lon": -1.74645711,
        "name": "Schuman",
        "code": 2309
      },
      "arrival": 37440,
      "departure": 37440
    },
    {
      "stop": {
        "id": "2_2320",
        "lat": 48.04033666,
        "lon": -1.75517612,
        "name": "Croix Madame",
        "code": 2320
      },
      "arrival": 37500,
      "departure": 37500
    },
    {
      "stop": {
        "id": "2_2321",
        "lat": 48.03121202,
        "lon": -1.75955139,
        "name": "Gavrinis",
        "code": 2321
      },
      "arrival": 37620,
      "departure": 37620
    },
    {
      "stop": {
        "id": "2_2305",
        "lat": 48.02937675,
        "lon": -1.758008,
        "name": "Vert Buisson",
        "code": 2305
      },
      "arrival": 37680,
      "departure": 37680
    },
    {
      "stop": {
        "id": "2_2323",
        "lat": 48.02564106,
        "lon": -1.76076309,
        "name": "Rabine",
        "code": 2323
      },
      "arrival": 37800,
      "departure": 37800
    },
    {
      "stop": {
        "id": "2_2324",
        "lat": 48.02463005,
        "lon": -1.7572317,
        "name": "Haut Launay",
        "code": 2324
      },
      "arrival": 37860,
      "departure": 37860
    },
    {
      "stop": {
        "id": "2_2325",
        "lat": 48.02481885,
        "lon": -1.75055599,
        "name": "Herverie",
        "code": 2325
      },
      "arrival": 37980,
      "departure": 37980
    },
    {
      "stop": {
        "id": "2_2361",
        "lat": 48.02442778,
        "lon": -1.7448362,
        "name": "Bruz Centre",
        "code": 2361
      },
      "arrival": 38040,
      "departure": 38040
    }
  ],
  "route": {
    "id": "2_0057",
    "textColor": "FFFFFF",
    "color": "A57223",
    "description": "Métropolitaine",
    "longName": "Rennes (République) \u003c\u003e Saint-Jacques-de-la-Lande / Bruz (Centre)",
    "shortName": "57",
    "type": 3,
    "agencyId": "2"
  }
}