{
  "headsign": "56 | Chavagne",
  "stopTimes": [
    {
      "stop": {
        "id": "2_1595",
        "lat": 48.105833,
        "lon": -1.6773,
        "name": "Charles de Gaulle",
        "code": 1595
      },
      "arrival": 45720,
      "departure": 45720
    },
    {
      "stop": {
        "id": "2_1214",
        "lat": 48.109932,
        "lon": -1.679644,
        "name": "République",
        "code": 1214
      },
      "arrival": 45900,
      "departure": 45900
    },
    {
      "stop": {
        "id": "2_1540",
        "lat": 48.109999,
        "lon": -1.685158,
        "name": "Pont de Bretagne",
        "code": 1540
      },
      "arrival": 45960,
      "departure": 45960
    },
    {
      "stop": {
        "id": "2_1217",
        "lat": 48.108252,
        "lon": -1.694511,
        "name": "Chèques Postaux",
        "code": 1217
      },
      "arrival": 46140,
      "departure": 46140
    },
    {
      "stop": {
        "id": "2_1218",
        "lat": 48.109099,
        "lon": -1.697997,
        "name": "Guilloux Lorient",
        "code": 1218
      },
      "arrival": 46200,
      "departure": 46200
    },
    {
      "stop": {
        "id": "2_1221",
        "lat": 48.108871,
        "lon": -1.710766,
        "name": "Géniaux",
        "code": 1221
      },
      "arrival": 46320,
      "departure": 46320
    },
    {
      "stop": {
        "id": "2_1539",
        "lat": 48.107253,
        "lon": -1.723135,
        "name": "Lemaistre",
        "code": 1539
      },
      "arrival": 46500,
      "departure": 46500
    },
    {
      "stop": {
        "id": "2_1506",
        "lat": 48.106477,
        "lon": -1.73157,
        "name": "Berthault",
        "code": 1506
      },
      "arrival": 46560,
      "departure": 46560
    },
    {
      "stop": {
        "id": "2_3766",
        "lat": 48.104998,
        "lon": -1.740624,
        "name": "Trois Marches",
        "code": 3766
      },
      "arrival": 46680,
      "departure": 46680
    },
    {
      "stop": {
        "id": "2_2512",
        "lat": 48.096246,
        "lon": -1.764714,
        "name": "Pont d\u0027Avoine",
        "code": 2512
      },
      "arrival": 46800,
      "departure": 46800
    },
    {
      "stop": {
        "id": "2_2523",
        "lat": 48.0941,
        "lon": -1.774098,
        "name": "Mahomat",
        "code": 2523
      },
      "arrival": 46860,
      "departure": 46860
    },
    {
      "stop": {
        "id": "2_2529",
        "lat": 48.08028,
        "lon": -1.774466,
        "name": "Moigné",
        "code": 2529
      },
      "arrival": 46980,
      "departure": 46980
    },
    {
      "stop": {
        "id": "2_2530",
        "lat": 48.078763,
        "lon": -1.772125,
        "name": "Haut Plessis",
        "code": 2530
      },
      "arrival": 46980,
      "departure": 46980
    },
    {
      "stop": {
        "id": "2_4207",
        "lat": 48.063429,
        "lon": -1.772449,
        "name": "Mare Doux",
        "code": 4207
      },
      "arrival": 47160,
      "departure": 47160
    },
    {
      "stop": {
        "id": "2_4208",
        "lat": 48.057762,
        "lon": -1.77645,
        "name": "Grippay",
        "code": 4208
      },
      "arrival": 47220,
      "departure": 47220
    },
    {
      "stop": {
        "id": "2_4209",
        "lat": 48.054115,
        "lon": -1.783746,
        "name": "Avenir",
        "code": 4209
      },
      "arrival": 47280,
      "departure": 47280
    },
    {
      "stop": {
        "id": "2_4203",
        "lat": 48.05512,
        "lon": -1.790086,
        "name": "Alfred de Musset",
        "code": 4203
      },
      "arrival": 47400,
      "departure": 47400
    },
    {
      "stop": {
        "id": "2_4211",
        "lat": 48.052438,
        "lon": -1.790592,
        "name": "Calvaire",
        "code": 4211
      },
      "arrival": 47400,
      "departure": 47400
    },
    {
      "stop": {
        "id": "2_4201",
        "lat": 48.051925,
        "lon": -1.797682,
        "name": "Croix Blanche",
        "code": 4201
      },
      "arrival": 47520,
      "departure": 47520
    }
  ],
  "route": {
    "id": "2_0056",
    "textColor": "FFFFFF",
    "color": "009A47",
    "description": "Métropolitaine",
    "longName": "Rennes (Charles de Gaulle) \u003c\u003e Chavagne",
    "shortName": "56",
    "type": 3,
    "agencyId": "2"
  }
}