{
  "headsign": "81 | Clayes Romillé",
  "stopTimes": [
    {
      "stop": {
        "id": "2_1497",
        "lat": 48.120973,
        "lon": -1.70298,
        "name": "Villejean-Université",
        "code": 1497
      },
      "arrival": 56100,
      "departure": 56100
    },
    {
      "stop": {
        "id": "2_1518",
        "lat": 48.120593,
        "lon": -1.710572,
        "name": "Bourbonnais",
        "code": 1518
      },
      "arrival": 56280,
      "departure": 56280
    },
    {
      "stop": {
        "id": "2_1521",
        "lat": 48.118462,
        "lon": -1.713825,
        "name": "Berry",
        "code": 1521
      },
      "arrival": 56400,
      "departure": 56400
    },
    {
      "stop": {
        "id": "2_4457",
        "lat": 48.176249,
        "lon": -1.852479,
        "name": "Clayes Centre",
        "code": 4457
      },
      "arrival": 57060,
      "departure": 57060
    },
    {
      "stop": {
        "id": "2_4459",
        "lat": 48.178132,
        "lon": -1.85278,
        "name": "La Cour aux Pages",
        "code": 4459
      },
      "arrival": 57120,
      "departure": 57120
    },
    {
      "stop": {
        "id": "2_4458",
        "lat": 48.182349,
        "lon": -1.853067,
        "name": "Croix Simon",
        "code": 4458
      },
      "arrival": 57180,
      "departure": 57180
    },
    {
      "stop": {
        "id": "2_6005",
        "lat": 48.212494,
        "lon": -1.890895,
        "name": "Mettrie Templiers",
        "code": 6005
      },
      "arrival": 57420,
      "departure": 57420
    },
    {
      "stop": {
        "id": "2_6003",
        "lat": 48.214912,
        "lon": -1.892418,
        "name": "Romillé Mairie",
        "code": 6003
      },
      "arrival": 57480,
      "departure": 57480
    },
    {
      "stop": {
        "id": "2_6001",
        "lat": 48.216915,
        "lon": -1.89045,
        "name": "Frères Aubert",
        "code": 6001
      },
      "arrival": 57600,
      "departure": 57600
    },
    {
      "stop": {
        "id": "2_6000",
        "lat": 48.218676,
        "lon": -1.893365,
        "name": "Romillé Collège",
        "code": 6000
      },
      "arrival": 57780,
      "departure": 57780
    }
  ],
  "route": {
    "id": "2_0081",
    "textColor": "FFFFFF",
    "color": "0081C6",
    "description": "Métropolitaine",
    "longName": "Rennes (Villejean-Université) \u003c\u003e Clayes / Romillé",
    "shortName": "81",
    "type": 3,
    "agencyId": "2"
  }
}