{
  "headsign": "56 | Chavagne",
  "stopTimes": [
    {
      "stop": {
        "id": "2_1595",
        "lat": 48.105833,
        "lon": -1.6773,
        "name": "Charles de Gaulle",
        "code": 1595
      },
      "arrival": 69660,
      "departure": 69660
    },
    {
      "stop": {
        "id": "2_1214",
        "lat": 48.109932,
        "lon": -1.679644,
        "name": "République",
        "code": 1214
      },
      "arrival": 69900,
      "departure": 69900
    },
    {
      "stop": {
        "id": "2_1540",
        "lat": 48.109999,
        "lon": -1.685158,
        "name": "Pont de Bretagne",
        "code": 1540
      },
      "arrival": 69960,
      "departure": 69960
    },
    {
      "stop": {
        "id": "2_1217",
        "lat": 48.108252,
        "lon": -1.694511,
        "name": "Chèques Postaux",
        "code": 1217
      },
      "arrival": 70140,
      "departure": 70140
    },
    {
      "stop": {
        "id": "2_1218",
        "lat": 48.109099,
        "lon": -1.697997,
        "name": "Guilloux Lorient",
        "code": 1218
      },
      "arrival": 70200,
      "departure": 70200
    },
    {
      "stop": {
        "id": "2_1221",
        "lat": 48.108871,
        "lon": -1.710766,
        "name": "Géniaux",
        "code": 1221
      },
      "arrival": 70320,
      "departure": 70320
    },
    {
      "stop": {
        "id": "2_1539",
        "lat": 48.107253,
        "lon": -1.723135,
        "name": "Lemaistre",
        "code": 1539
      },
      "arrival": 70500,
      "departure": 70500
    },
    {
      "stop": {
        "id": "2_1506",
        "lat": 48.106477,
        "lon": -1.73157,
        "name": "Berthault",
        "code": 1506
      },
      "arrival": 70560,
      "departure": 70560
    },
    {
      "stop": {
        "id": "2_3766",
        "lat": 48.104998,
        "lon": -1.740624,
        "name": "Trois Marches",
        "code": 3766
      },
      "arrival": 70620,
      "departure": 70620
    },
    {
      "stop": {
        "id": "2_2512",
        "lat": 48.096246,
        "lon": -1.764714,
        "name": "Pont d\u0027Avoine",
        "code": 2512
      },
      "arrival": 70800,
      "departure": 70800
    },
    {
      "stop": {
        "id": "2_2523",
        "lat": 48.0941,
        "lon": -1.774098,
        "name": "Mahomat",
        "code": 2523
      },
      "arrival": 70860,
      "departure": 70860
    },
    {
      "stop": {
        "id": "2_2529",
        "lat": 48.08028,
        "lon": -1.774466,
        "name": "Moigné",
        "code": 2529
      },
      "arrival": 70980,
      "departure": 70980
    },
    {
      "stop": {
        "id": "2_2530",
        "lat": 48.078763,
        "lon": -1.772125,
        "name": "Haut Plessis",
        "code": 2530
      },
      "arrival": 70980,
      "departure": 70980
    },
    {
      "stop": {
        "id": "2_4207",
        "lat": 48.063429,
        "lon": -1.772449,
        "name": "Mare Doux",
        "code": 4207
      },
      "arrival": 71160,
      "departure": 71160
    },
    {
      "stop": {
        "id": "2_4208",
        "lat": 48.057762,
        "lon": -1.77645,
        "name": "Grippay",
        "code": 4208
      },
      "arrival": 71220,
      "departure": 71220
    },
    {
      "stop": {
        "id": "2_4209",
        "lat": 48.054115,
        "lon": -1.783746,
        "name": "Avenir",
        "code": 4209
      },
      "arrival": 71340,
      "departure": 71340
    },
    {
      "stop": {
        "id": "2_4203",
        "lat": 48.05512,
        "lon": -1.790086,
        "name": "Alfred de Musset",
        "code": 4203
      },
      "arrival": 71400,
      "departure": 71400
    },
    {
      "stop": {
        "id": "2_4211",
        "lat": 48.052438,
        "lon": -1.790592,
        "name": "Calvaire",
        "code": 4211
      },
      "arrival": 71460,
      "departure": 71460
    },
    {
      "stop": {
        "id": "2_4201",
        "lat": 48.051925,
        "lon": -1.797682,
        "name": "Croix Blanche",
        "code": 4201
      },
      "arrival": 71580,
      "departure": 71580
    }
  ],
  "route": {
    "id": "2_0056",
    "textColor": "FFFFFF",
    "color": "009A47",
    "description": "Métropolitaine",
    "longName": "Rennes (Charles de Gaulle) \u003c\u003e Chavagne",
    "shortName": "56",
    "type": 3,
    "agencyId": "2"
  }
}