{
  "headsign": "33 | Chantepie Cucé",
  "stopTimes": [
    {
      "stop": {
        "id": "2_2220",
        "lat": 48.06158565,
        "lon": -1.7243536,
        "name": "Gautrais",
        "code": 2220
      },
      "arrival": 62820,
      "departure": 62820
    },
    {
      "stop": {
        "id": "2_2221",
        "lat": 48.06306322,
        "lon": -1.72049195,
        "name": "Rossel",
        "code": 2221
      },
      "arrival": 62880,
      "departure": 62880
    },
    {
      "stop": {
        "id": "2_2234",
        "lat": 48.06642681,
        "lon": -1.72024087,
        "name": "Pommerais",
        "code": 2234
      },
      "arrival": 62940,
      "departure": 62940
    },
    {
      "stop": {
        "id": "2_2223",
        "lat": 48.06737644,
        "lon": -1.71701707,
        "name": "Abbé Grimault",
        "code": 2223
      },
      "arrival": 63000,
      "departure": 63000
    },
    {
      "stop": {
        "id": "2_2201",
        "lat": 48.07546226,
        "lon": -1.71635318,
        "name": "Morinais",
        "code": 2201
      },
      "arrival": 63180,
      "departure": 63180
    },
    {
      "stop": {
        "id": "2_2202",
        "lat": 48.07734959,
        "lon": -1.71582209,
        "name": "Collège Jean Moulin",
        "code": 2202
      },
      "arrival": 63240,
      "departure": 63240
    },
    {
      "stop": {
        "id": "2_2214",
        "lat": 48.07988244,
        "lon": -1.71560415,
        "name": "Médiathèque",
        "code": 2214
      },
      "arrival": 63300,
      "departure": 63300
    },
    {
      "stop": {
        "id": "2_2204",
        "lat": 48.08256009,
        "lon": -1.71537221,
        "name": "Jean Marin",
        "code": 2204
      },
      "arrival": 63360,
      "departure": 63360
    },
    {
      "stop": {
        "id": "2_2263",
        "lat": 48.08257363,
        "lon": -1.71233295,
        "name": "Jean Jaurès",
        "code": 2263
      },
      "arrival": 63420,
      "departure": 63420
    },
    {
      "stop": {
        "id": "2_2205",
        "lat": 48.08320903,
        "lon": -1.71019669,
        "name": "Blosne",
        "code": 2205
      },
      "arrival": 63480,
      "departure": 63480
    },
    {
      "stop": {
        "id": "2_2225",
        "lat": 48.08685877,
        "lon": -1.70571878,
        "name": "Gaité",
        "code": 2225
      },
      "arrival": 63600,
      "departure": 63600
    },
    {
      "stop": {
        "id": "2_2230",
        "lat": 48.08651152,
        "lon": -1.70200139,
        "name": "Rablais Allende",
        "code": 2230
      },
      "arrival": 63660,
      "departure": 63660
    },
    {
      "stop": {
        "id": "2_2227",
        "lat": 48.0894211,
        "lon": -1.69787874,
        "name": "Croix Verte",
        "code": 2227
      },
      "arrival": 63780,
      "departure": 63780
    },
    {
      "stop": {
        "id": "2_2271",
        "lat": 48.09053717,
        "lon": -1.69493887,
        "name": "25 Fusillés",
        "code": 2271
      },
      "arrival": 63900,
      "departure": 63900
    },
    {
      "stop": {
        "id": "2_1454",
        "lat": 48.08951181,
        "lon": -1.69119492,
        "name": "Bréquigny Piscine",
        "code": 1454
      },
      "arrival": 63960,
      "departure": 63960
    },
    {
      "stop": {
        "id": "2_1455",
        "lat": 48.086731,
        "lon": -1.69104325,
        "name": "Lycée Bréquigny",
        "code": 1455
      },
      "arrival": 64020,
      "departure": 64020
    },
    {
      "stop": {
        "id": "2_1456",
        "lat": 48.08658018,
        "lon": -1.68739623,
        "name": "Coubertin",
        "code": 1456
      },
      "arrival": 64080,
      "departure": 64080
    },
    {
      "stop": {
        "id": "2_1457",
        "lat": 48.08679431,
        "lon": -1.6838896,
        "name": "Norvège",
        "code": 1457
      },
      "arrival": 64200,
      "departure": 64200
    },
    {
      "stop": {
        "id": "2_1130",
        "lat": 48.08520714,
        "lon": -1.6824849,
        "name": "Canada",
        "code": 1130
      },
      "arrival": 64260,
      "departure": 64260
    },
    {
      "stop": {
        "id": "2_1623",
        "lat": 48.08400034,
        "lon": -1.67830796,
        "name": "Alma",
        "code": 1623
      },
      "arrival": 64320,
      "departure": 64320
    },
    {
      "stop": {
        "id": "2_1459",
        "lat": 48.08806135,
        "lon": -1.67431956,
        "name": "Henri Fréville",
        "code": 1459
      },
      "arrival": 64500,
      "departure": 64500
    },
    {
      "stop": {
        "id": "2_1460",
        "lat": 48.08931088,
        "lon": -1.67426442,
        "name": "Argonautes",
        "code": 1460
      },
      "arrival": 64560,
      "departure": 64560
    },
    {
      "stop": {
        "id": "2_1461",
        "lat": 48.09370634,
        "lon": -1.67389975,
        "name": "Clemenceau",
        "code": 1461
      },
      "arrival": 64680,
      "departure": 64680
    },
    {
      "stop": {
        "id": "2_1462",
        "lat": 48.09349655,
        "lon": -1.67010012,
        "name": "Combes",
        "code": 1462
      },
      "arrival": 64740,
      "departure": 64740
    },
    {
      "stop": {
        "id": "2_1464",
        "lat": 48.09133997,
        "lon": -1.66629008,
        "name": "Binquenais",
        "code": 1464
      },
      "arrival": 64860,
      "departure": 64860
    },
    {
      "stop": {
        "id": "2_1463",
        "lat": 48.09136388,
        "lon": -1.66318406,
        "name": "Binquenais Collège",
        "code": 1463
      },
      "arrival": 64980,
      "departure": 64980
    },
    {
      "stop": {
        "id": "2_1465",
        "lat": 48.08611757,
        "lon": -1.66106774,
        "name": "Triangle",
        "code": 1465
      },
      "arrival": 65160,
      "departure": 65160
    },
    {
      "stop": {
        "id": "2_1353",
        "lat": 48.08455564,
        "lon": -1.65800916,
        "name": "Torigné",
        "code": 1353
      },
      "arrival": 65280,
      "departure": 65280
    },
    {
      "stop": {
        "id": "2_1466",
        "lat": 48.08504293,
        "lon": -1.65390233,
        "name": "Hôpital Sud",
        "code": 1466
      },
      "arrival": 65340,
      "departure": 65340
    },
    {
      "stop": {
        "id": "2_1467",
        "lat": 48.08755873,
        "lon": -1.65341696,
        "name": "Le Blosne",
        "code": 1467
      },
      "arrival": 65400,
      "departure": 65400
    },
    {
      "stop": {
        "id": "2_1356",
        "lat": 48.08753214,
        "lon": -1.64998384,
        "name": "Galicie",
        "code": 1356
      },
      "arrival": 65520,
      "departure": 65520
    },
    {
      "stop": {
        "id": "2_1468",
        "lat": 48.0874137,
        "lon": -1.64537126,
        "name": "La Poterie",
        "code": 1468
      },
      "arrival": 65580,
      "departure": 65580
    },
    {
      "stop": {
        "id": "2_3020",
        "lat": 48.08066866,
        "lon": -1.63064112,
        "name": "Val Blanc",
        "code": 3020
      },
      "arrival": 66000,
      "departure": 66000
    },
    {
      "stop": {
        "id": "2_3021",
        "lat": 48.08461197,
        "lon": -1.62755612,
        "name": "Rocade Sud",
        "code": 3021
      },
      "arrival": 66120,
      "departure": 66120
    },
    {
      "stop": {
        "id": "2_3008",
        "lat": 48.09037236,
        "lon": -1.62410496,
        "name": "Loges",
        "code": 3008
      },
      "arrival": 66300,
      "departure": 66300
    },
    {
      "stop": {
        "id": "2_3009",
        "lat": 48.08836667,
        "lon": -1.61906683,
        "name": "Chantepie Mairie",
        "code": 3009
      },
      "arrival": 66360,
      "departure": 66360
    },
    {
      "stop": {
        "id": "2_3010",
        "lat": 48.08826039,
        "lon": -1.61687329,
        "name": "Chantepie Eglise",
        "code": 3010
      },
      "arrival": 66420,
      "departure": 66420
    },
    {
      "stop": {
        "id": "2_3022",
        "lat": 48.0910503,
        "lon": -1.61531343,
        "name": "Hallouvry",
        "code": 3022
      },
      "arrival": 66480,
      "departure": 66480
    },
    {
      "stop": {
        "id": "2_3017",
        "lat": 48.09253159,
        "lon": -1.61295139,
        "name": "IDEFS",
        "code": 3017
      },
      "arrival": 66540,
      "departure": 66540
    },
    {
      "stop": {
        "id": "2_3016",
        "lat": 48.09357019,
        "lon": -1.60760619,
        "name": "Cucé",
        "code": 3016
      },
      "arrival": 66600,
      "departure": 66600
    }
  ],
  "route": {
    "id": "2_0033",
    "textColor": "E2001A",
    "color": "FFF164",
    "description": "Inter-quartiers",
    "longName": "Saint-Jacques-de-la-Lande (Gautrais) / Bréquigny \u003c\u003e La Poterie / Chantepie (Cucé)",
    "shortName": "33",
    "type": 3,
    "agencyId": "2"
  }
}