{
  "headsign": "81 | Clayes Romillé",
  "stopTimes": [
    {
      "stop": {
        "id": "2_1497",
        "lat": 48.12102411,
        "lon": -1.70300103,
        "name": "Villejean-Université",
        "code": 1497
      },
      "arrival": 51900,
      "departure": 51900
    },
    {
      "stop": {
        "id": "2_1518",
        "lat": 48.12062672,
        "lon": -1.71046453,
        "name": "Bourbonnais",
        "code": 1518
      },
      "arrival": 52020,
      "departure": 52020
    },
    {
      "stop": {
        "id": "2_1521",
        "lat": 48.11845974,
        "lon": -1.71376004,
        "name": "Berry",
        "code": 1521
      },
      "arrival": 52140,
      "departure": 52140
    },
    {
      "stop": {
        "id": "2_4457",
        "lat": 48.176174,
        "lon": -1.8525,
        "name": "Clayes Centre",
        "code": 4457
      },
      "arrival": 52920,
      "departure": 52920
    },
    {
      "stop": {
        "id": "2_4459",
        "lat": 48.178285,
        "lon": -1.85295,
        "name": "La Cour aux Pages",
        "code": 4459
      },
      "arrival": 52980,
      "departure": 52980
    },
    {
      "stop": {
        "id": "2_4458",
        "lat": 48.177136,
        "lon": -1.852934,
        "name": "Croix Simon",
        "code": 4458
      },
      "arrival": 53040,
      "departure": 53040
    },
    {
      "stop": {
        "id": "2_6005",
        "lat": 48.213221,
        "lon": -1.891408,
        "name": "Mettrie Templiers",
        "code": 6005
      },
      "arrival": 53340,
      "departure": 53340
    },
    {
      "stop": {
        "id": "2_6003",
        "lat": 48.214157,
        "lon": -1.892046,
        "name": "Romillé Mairie",
        "code": 6003
      },
      "arrival": 53400,
      "departure": 53400
    },
    {
      "stop": {
        "id": "2_6001",
        "lat": 48.215998,
        "lon": -1.891413,
        "name": "Frères Aubert",
        "code": 6001
      },
      "arrival": 53520,
      "departure": 53520
    },
    {
      "stop": {
        "id": "2_6000",
        "lat": 48.218908,
        "lon": -1.893833,
        "name": "Romillé Collège",
        "code": 6000
      },
      "arrival": 53640,
      "departure": 53640
    }
  ],
  "route": {
    "id": "2_0081",
    "textColor": "FFFFFF",
    "color": "0083CD",
    "description": "Métropolitaine",
    "longName": "Rennes (Villejean-Université) \u003c\u003e Clayes / Romillé",
    "shortName": "81",
    "type": 3,
    "agencyId": "2"
  }
}