{
  "headsign": "68 | Rennes Villejean-Université",
  "stopTimes": [
    {
      "stop": {
        "id": "2_4507",
        "lat": 48.221783,
        "lon": -1.802327,
        "name": "Cheval Blanc",
        "code": 4507
      },
      "arrival": 47700,
      "departure": 47700
    },
    {
      "stop": {
        "id": "2_4508",
        "lat": 48.224482,
        "lon": -1.800785,
        "name": "Coualeuc",
        "code": 4508
      },
      "arrival": 47760,
      "departure": 47760
    },
    {
      "stop": {
        "id": "2_4510",
        "lat": 48.223615,
        "lon": -1.79363,
        "name": "Prés Verts",
        "code": 4510
      },
      "arrival": 47880,
      "departure": 47880
    },
    {
      "stop": {
        "id": "2_4502",
        "lat": 48.220986,
        "lon": -1.788723,
        "name": "Gévezé Mairie",
        "code": 4502
      },
      "arrival": 47940,
      "departure": 47940
    },
    {
      "stop": {
        "id": "2_4504",
        "lat": 48.21819,
        "lon": -1.78315,
        "name": "Flume",
        "code": 4504
      },
      "arrival": 48000,
      "departure": 48000
    },
    {
      "stop": {
        "id": "2_4062",
        "lat": 48.176749,
        "lon": -1.722096,
        "name": "La Brosse",
        "code": 4062
      },
      "arrival": 48480,
      "departure": 48480
    },
    {
      "stop": {
        "id": "2_3506",
        "lat": 48.152987,
        "lon": -1.706581,
        "name": "Décoparc",
        "code": 3506
      },
      "arrival": 48660,
      "departure": 48660
    },
    {
      "stop": {
        "id": "2_1492",
        "lat": 48.133784,
        "lon": -1.69386,
        "name": "Grand Quartier",
        "code": 1492
      },
      "arrival": 48840,
      "departure": 48840
    },
    {
      "stop": {
        "id": "2_1543",
        "lat": 48.131341,
        "lon": -1.691889,
        "name": "Léonard",
        "code": 1543
      },
      "arrival": 48900,
      "departure": 48900
    },
    {
      "stop": {
        "id": "2_1493",
        "lat": 48.127175,
        "lon": -1.693387,
        "name": "Lycée Basch",
        "code": 1493
      },
      "arrival": 48960,
      "departure": 48960
    },
    {
      "stop": {
        "id": "2_1529",
        "lat": 48.121156,
        "lon": -1.702973,
        "name": "Villejean-Université",
        "code": 1529
      },
      "arrival": 49200,
      "departure": 49200
    }
  ],
  "route": {
    "id": "2_0068",
    "textColor": "1A171B",
    "color": "DDC500",
    "description": "Métropolitaine",
    "longName": "Rennes (Villejean-Université) \u003c\u003e Gévezé",
    "shortName": "68",
    "type": 3,
    "agencyId": "2"
  }
}