{
  "headsign": "81 | Clayes Romillé",
  "stopTimes": [
    {
      "stop": {
        "id": "2_1497",
        "lat": 48.12102411,
        "lon": -1.70300103,
        "name": "Villejean-Université",
        "code": 1497
      },
      "arrival": 57900,
      "departure": 57900
    },
    {
      "stop": {
        "id": "2_1518",
        "lat": 48.12062672,
        "lon": -1.71046453,
        "name": "Bourbonnais",
        "code": 1518
      },
      "arrival": 58020,
      "departure": 58020
    },
    {
      "stop": {
        "id": "2_1521",
        "lat": 48.11845974,
        "lon": -1.71376004,
        "name": "Berry",
        "code": 1521
      },
      "arrival": 58140,
      "departure": 58140
    },
    {
      "stop": {
        "id": "2_4457",
        "lat": 48.176174,
        "lon": -1.8525,
        "name": "Clayes Centre",
        "code": 4457
      },
      "arrival": 58920,
      "departure": 58920
    },
    {
      "stop": {
        "id": "2_4459",
        "lat": 48.178285,
        "lon": -1.85295,
        "name": "La Cour aux Pages",
        "code": 4459
      },
      "arrival": 58980,
      "departure": 58980
    },
    {
      "stop": {
        "id": "2_4458",
        "lat": 48.177136,
        "lon": -1.852934,
        "name": "Croix Simon",
        "code": 4458
      },
      "arrival": 59040,
      "departure": 59040
    },
    {
      "stop": {
        "id": "2_6005",
        "lat": 48.213221,
        "lon": -1.891408,
        "name": "Mettrie Templiers",
        "code": 6005
      },
      "arrival": 59340,
      "departure": 59340
    },
    {
      "stop": {
        "id": "2_6003",
        "lat": 48.214157,
        "lon": -1.892046,
        "name": "Romillé Mairie",
        "code": 6003
      },
      "arrival": 59400,
      "departure": 59400
    },
    {
      "stop": {
        "id": "2_6001",
        "lat": 48.215998,
        "lon": -1.891413,
        "name": "Frères Aubert",
        "code": 6001
      },
      "arrival": 59520,
      "departure": 59520
    },
    {
      "stop": {
        "id": "2_6000",
        "lat": 48.218908,
        "lon": -1.893833,
        "name": "Romillé Collège",
        "code": 6000
      },
      "arrival": 59640,
      "departure": 59640
    }
  ],
  "route": {
    "id": "2_0081",
    "textColor": "FFFFFF",
    "color": "0083CD",
    "description": "Métropolitaine",
    "longName": "Rennes (Villejean-Université) \u003c\u003e Clayes / Romillé",
    "shortName": "81",
    "type": 3,
    "agencyId": "2"
  }
}