{
  "headsign": "56 | Rennes Charles de Gaulle",
  "stopTimes": [
    {
      "stop": {
        "id": "2_4201",
        "lat": 48.0519556,
        "lon": -1.79762199,
        "name": "Croix Blanche",
        "code": 4201
      },
      "arrival": 55800,
      "departure": 55800
    },
    {
      "stop": {
        "id": "2_4202",
        "lat": 48.05201225,
        "lon": -1.79070221,
        "name": "Calvaire",
        "code": 4202
      },
      "arrival": 55920,
      "departure": 55920
    },
    {
      "stop": {
        "id": "2_4210",
        "lat": 48.05473857,
        "lon": -1.7901693,
        "name": "Alfred de Musset",
        "code": 4210
      },
      "arrival": 55980,
      "departure": 55980
    },
    {
      "stop": {
        "id": "2_4204",
        "lat": 48.05399506,
        "lon": -1.78384914,
        "name": "Avenir",
        "code": 4204
      },
      "arrival": 56040,
      "departure": 56040
    },
    {
      "stop": {
        "id": "2_4205",
        "lat": 48.05814164,
        "lon": -1.77631699,
        "name": "Grippay",
        "code": 4205
      },
      "arrival": 56160,
      "departure": 56160
    },
    {
      "stop": {
        "id": "2_4206",
        "lat": 48.0632306,
        "lon": -1.77243271,
        "name": "Mare Doux",
        "code": 4206
      },
      "arrival": 56220,
      "departure": 56220
    },
    {
      "stop": {
        "id": "2_2525",
        "lat": 48.07846,
        "lon": -1.77125189,
        "name": "Haut Plessis",
        "code": 2525
      },
      "arrival": 56400,
      "departure": 56400
    },
    {
      "stop": {
        "id": "2_2526",
        "lat": 48.08034971,
        "lon": -1.77444951,
        "name": "Moigné",
        "code": 2526
      },
      "arrival": 56460,
      "departure": 56460
    },
    {
      "stop": {
        "id": "2_2522",
        "lat": 48.09401721,
        "lon": -1.77398903,
        "name": "Mahomat",
        "code": 2522
      },
      "arrival": 56640,
      "departure": 56640
    },
    {
      "stop": {
        "id": "2_2509",
        "lat": 48.09614161,
        "lon": -1.76472044,
        "name": "Pont d\u0027Avoine",
        "code": 2509
      },
      "arrival": 56700,
      "departure": 56700
    },
    {
      "stop": {
        "id": "2_3752",
        "lat": 48.10474061,
        "lon": -1.73906178,
        "name": "Trois Marches",
        "code": 3752
      },
      "arrival": 56940,
      "departure": 56940
    },
    {
      "stop": {
        "id": "2_1508",
        "lat": 48.10673486,
        "lon": -1.7291459,
        "name": "Berthault",
        "code": 1508
      },
      "arrival": 57060,
      "departure": 57060
    },
    {
      "stop": {
        "id": "2_1233",
        "lat": 48.10704453,
        "lon": -1.72187845,
        "name": "Lemaistre",
        "code": 1233
      },
      "arrival": 57120,
      "departure": 57120
    },
    {
      "stop": {
        "id": "2_1235",
        "lat": 48.10892663,
        "lon": -1.70977108,
        "name": "Géniaux",
        "code": 1235
      },
      "arrival": 57240,
      "departure": 57240
    },
    {
      "stop": {
        "id": "2_1238",
        "lat": 48.10869591,
        "lon": -1.69884796,
        "name": "Guilloux Lorient",
        "code": 1238
      },
      "arrival": 57360,
      "departure": 57360
    },
    {
      "stop": {
        "id": "2_1239",
        "lat": 48.10827073,
        "lon": -1.6941653,
        "name": "Chèques Postaux",
        "code": 1239
      },
      "arrival": 57420,
      "departure": 57420
    },
    {
      "stop": {
        "id": "2_1542",
        "lat": 48.10997275,
        "lon": -1.68535336,
        "name": "Pont de Bretagne",
        "code": 1542
      },
      "arrival": 57600,
      "departure": 57600
    },
    {
      "stop": {
        "id": "2_1242",
        "lat": 48.10980333,
        "lon": -1.6795219,
        "name": "République",
        "code": 1242
      },
      "arrival": 57720,
      "departure": 57720
    },
    {
      "stop": {
        "id": "2_1088",
        "lat": 48.10744897,
        "lon": -1.67491383,
        "name": "Liberté TNB",
        "code": 1088
      },
      "arrival": 57900,
      "departure": 57900
    },
    {
      "stop": {
        "id": "2_1595",
        "lat": 48.10582657,
        "lon": -1.67734271,
        "name": "Charles de Gaulle",
        "code": 1595
      },
      "arrival": 58020,
      "departure": 58020
    }
  ],
  "route": {
    "id": "2_0056",
    "textColor": "FFFFFF",
    "color": "009A47",
    "description": "Métropolitaine",
    "longName": "Rennes (Charles de Gaulle) \u003c\u003e Chavagne",
    "shortName": "56",
    "type": 3,
    "agencyId": "2"
  }
}