{
  "headsign": "75 | Vern Nouvoitou L\u0027Ourmais",
  "stopTimes": [
    {
      "stop": {
        "id": "2_1511",
        "lat": 48.087572,
        "lon": -1.643466,
        "name": "La Poterie",
        "code": 1511
      },
      "arrival": 65700,
      "departure": 65700
    },
    {
      "stop": {
        "id": "2_2619",
        "lat": 48.044566,
        "lon": -1.603907,
        "name": "La Poste",
        "code": 2619
      },
      "arrival": 66240,
      "departure": 66240
    },
    {
      "stop": {
        "id": "2_2633",
        "lat": 48.045114,
        "lon": -1.59861,
        "name": "Maillardière",
        "code": 2633
      },
      "arrival": 66360,
      "departure": 66360
    },
    {
      "stop": {
        "id": "2_2632",
        "lat": 48.048065,
        "lon": -1.598577,
        "name": "Moulin",
        "code": 2632
      },
      "arrival": 66420,
      "departure": 66420
    },
    {
      "stop": {
        "id": "2_3406",
        "lat": 48.044378,
        "lon": -1.56147,
        "name": "Eclosel",
        "code": 3406
      },
      "arrival": 66600,
      "departure": 66600
    },
    {
      "stop": {
        "id": "2_3407",
        "lat": 48.042359,
        "lon": -1.549754,
        "name": "Grée Barel",
        "code": 3407
      },
      "arrival": 66660,
      "departure": 66660
    },
    {
      "stop": {
        "id": "2_3409",
        "lat": 48.041447,
        "lon": -1.545236,
        "name": "Menault",
        "code": 3409
      },
      "arrival": 66720,
      "departure": 66720
    },
    {
      "stop": {
        "id": "2_3403",
        "lat": 48.040203,
        "lon": -1.542002,
        "name": "Chêne Centenaire",
        "code": 3403
      },
      "arrival": 66780,
      "departure": 66780
    },
    {
      "stop": {
        "id": "2_3402",
        "lat": 48.04088,
        "lon": -1.549778,
        "name": "Langlois",
        "code": 3402
      },
      "arrival": 66960,
      "departure": 66960
    },
    {
      "stop": {
        "id": "2_3401",
        "lat": 48.041337,
        "lon": -1.553405,
        "name": "Parc des Sports",
        "code": 3401
      },
      "arrival": 67020,
      "departure": 67020
    },
    {
      "stop": {
        "id": "2_3411",
        "lat": 48.031031,
        "lon": -1.559262,
        "name": "Crotigné",
        "code": 3411
      },
      "arrival": 67200,
      "departure": 67200
    },
    {
      "stop": {
        "id": "2_3412",
        "lat": 48.029305,
        "lon": -1.56426,
        "name": "La Croix de l\u0027Epine",
        "code": 3412
      },
      "arrival": 67260,
      "departure": 67260
    },
    {
      "stop": {
        "id": "2_3413",
        "lat": 48.024052,
        "lon": -1.57324,
        "name": "La Drouais",
        "code": 3413
      },
      "arrival": 67320,
      "departure": 67320
    },
    {
      "stop": {
        "id": "2_3414",
        "lat": 48.013183,
        "lon": -1.570635,
        "name": "La Jaunais",
        "code": 3414
      },
      "arrival": 67440,
      "departure": 67440
    },
    {
      "stop": {
        "id": "2_3415",
        "lat": 48.0126,
        "lon": -1.557325,
        "name": "La Jaille",
        "code": 3415
      },
      "arrival": 67560,
      "departure": 67560
    },
    {
      "stop": {
        "id": "2_3416",
        "lat": 48.011953,
        "lon": -1.545877,
        "name": "Le Petit Beauvais",
        "code": 3416
      },
      "arrival": 67620,
      "departure": 67620
    },
    {
      "stop": {
        "id": "2_3417",
        "lat": 48.015097,
        "lon": -1.539618,
        "name": "Epron",
        "code": 3417
      },
      "arrival": 67680,
      "departure": 67680
    },
    {
      "stop": {
        "id": "2_3418",
        "lat": 48.021833,
        "lon": -1.54725,
        "name": "Le Tertronais",
        "code": 3418
      },
      "arrival": 67800,
      "departure": 67800
    },
    {
      "stop": {
        "id": "2_3419",
        "lat": 48.02899,
        "lon": -1.55144,
        "name": "L\u0027Ourmais",
        "code": 3419
      },
      "arrival": 67860,
      "departure": 67860
    }
  ],
  "route": {
    "id": "2_0075",
    "textColor": "201D21",
    "color": "F2973E",
    "description": "Métropolitaine",
    "longName": "Rennes (La Poterie) \u003c\u003e Nouvoitou",
    "shortName": "75",
    "type": 3,
    "agencyId": "2"
  }
}