{
  "headsign": "74 | Rennes Henri Fréville",
  "stopTimes": [
    {
      "stop": {
        "id": "2_3801",
        "lat": 47.99009528,
        "lon": -1.6138293,
        "name": "Centre de Loisirs",
        "code": 3801
      },
      "arrival": 51000,
      "departure": 51000
    },
    {
      "stop": {
        "id": "2_3802",
        "lat": 47.99488015,
        "lon": -1.61426966,
        "name": "Bourgbarré Mairie",
        "code": 3802
      },
      "arrival": 51120,
      "departure": 51120
    },
    {
      "stop": {
        "id": "2_3803",
        "lat": 47.99607325,
        "lon": -1.61723784,
        "name": "La Motte",
        "code": 3803
      },
      "arrival": 51180,
      "departure": 51180
    },
    {
      "stop": {
        "id": "2_3804",
        "lat": 47.99514007,
        "lon": -1.62423419,
        "name": "La Basse Erable",
        "code": 3804
      },
      "arrival": 51300,
      "departure": 51300
    },
    {
      "stop": {
        "id": "2_3805",
        "lat": 47.99450137,
        "lon": -1.6315247,
        "name": "Perelle",
        "code": 3805
      },
      "arrival": 51360,
      "departure": 51360
    },
    {
      "stop": {
        "id": "2_3208",
        "lat": 47.99395077,
        "lon": -1.66549531,
        "name": "Chateaubriand",
        "code": 3208
      },
      "arrival": 51600,
      "departure": 51600
    },
    {
      "stop": {
        "id": "2_3209",
        "lat": 47.99249678,
        "lon": -1.66873811,
        "name": "Surcouf",
        "code": 3209
      },
      "arrival": 51720,
      "departure": 51720
    },
    {
      "stop": {
        "id": "2_3210",
        "lat": 47.99502136,
        "lon": -1.67075631,
        "name": "Coteau",
        "code": 3210
      },
      "arrival": 51780,
      "departure": 51780
    },
    {
      "stop": {
        "id": "2_3211",
        "lat": 47.99730201,
        "lon": -1.66850378,
        "name": "Groupe Scolaire",
        "code": 3211
      },
      "arrival": 51840,
      "departure": 51840
    },
    {
      "stop": {
        "id": "2_3212",
        "lat": 48.00074048,
        "lon": -1.66681908,
        "name": "Levant",
        "code": 3212
      },
      "arrival": 51900,
      "departure": 51900
    },
    {
      "stop": {
        "id": "2_3213",
        "lat": 48.00907966,
        "lon": -1.66635078,
        "name": "Plardière",
        "code": 3213
      },
      "arrival": 52020,
      "departure": 52020
    },
    {
      "stop": {
        "id": "2_3250",
        "lat": 48.01492814,
        "lon": -1.66383754,
        "name": "Orgerblon",
        "code": 3250
      },
      "arrival": 52080,
      "departure": 52080
    },
    {
      "stop": {
        "id": "2_4356",
        "lat": 48.01707558,
        "lon": -1.66458685,
        "name": "Croix du Pigeonnet",
        "code": 4356
      },
      "arrival": 52080,
      "departure": 52080
    },
    {
      "stop": {
        "id": "2_1534",
        "lat": 48.08831453,
        "lon": -1.67444337,
        "name": "Henri Fréville",
        "code": 1534
      },
      "arrival": 52800,
      "departure": 52800
    }
  ],
  "route": {
    "id": "2_0074",
    "textColor": "201D21",
    "color": "F6C200",
    "description": "Métropolitaine",
    "longName": "Rennes (Henri Fréville) \u003c\u003e Orgères / Bourgbarré",
    "shortName": "74",
    "type": 3,
    "agencyId": "2"
  }
}