{
  "headsign": "81 | Rennes Villejean-Université",
  "stopTimes": [
    {
      "stop": {
        "id": "2_6000",
        "lat": 48.218908,
        "lon": -1.893833,
        "name": "Romillé Collège",
        "code": 6000
      },
      "arrival": 34200,
      "departure": 34200
    },
    {
      "stop": {
        "id": "2_6002",
        "lat": 48.215591,
        "lon": -1.891703,
        "name": "Frères Aubert",
        "code": 6002
      },
      "arrival": 34260,
      "departure": 34260
    },
    {
      "stop": {
        "id": "2_6004",
        "lat": 48.214147,
        "lon": -1.892143,
        "name": "Romillé Mairie",
        "code": 6004
      },
      "arrival": 34380,
      "departure": 34380
    },
    {
      "stop": {
        "id": "2_6006",
        "lat": 48.212913,
        "lon": -1.891338,
        "name": "Mettrie Templiers",
        "code": 6006
      },
      "arrival": 34440,
      "departure": 34440
    },
    {
      "stop": {
        "id": "2_4452",
        "lat": 48.18138007,
        "lon": -1.85347313,
        "name": "Croix Simon",
        "code": 4452
      },
      "arrival": 34740,
      "departure": 34740
    },
    {
      "stop": {
        "id": "2_4460",
        "lat": 48.178213,
        "lon": -1.853036,
        "name": "La Cour aux Pages",
        "code": 4460
      },
      "arrival": 34800,
      "departure": 34800
    },
    {
      "stop": {
        "id": "2_4453",
        "lat": 48.1760181,
        "lon": -1.85254844,
        "name": "Clayes Centre",
        "code": 4453
      },
      "arrival": 34860,
      "departure": 34860
    },
    {
      "stop": {
        "id": "2_1517",
        "lat": 48.11854026,
        "lon": -1.71363649,
        "name": "Berry",
        "code": 1517
      },
      "arrival": 35640,
      "departure": 35640
    },
    {
      "stop": {
        "id": "2_1520",
        "lat": 48.12050245,
        "lon": -1.70973991,
        "name": "Bourbonnais",
        "code": 1520
      },
      "arrival": 35760,
      "departure": 35760
    },
    {
      "stop": {
        "id": "2_1497",
        "lat": 48.12102411,
        "lon": -1.70300103,
        "name": "Villejean-Université",
        "code": 1497
      },
      "arrival": 35880,
      "departure": 35880
    }
  ],
  "route": {
    "id": "2_0081",
    "textColor": "FFFFFF",
    "color": "0083CD",
    "description": "Métropolitaine",
    "longName": "Rennes (Villejean-Université) \u003c\u003e Clayes / Romillé",
    "shortName": "81",
    "type": 3,
    "agencyId": "2"
  }
}