{
  "headsign": "74 | Orgères Bourgbarré",
  "stopTimes": [
    {
      "stop": {
        "id": "2_1534",
        "lat": 48.08831453,
        "lon": -1.67444337,
        "name": "Henri Fréville",
        "code": 1534
      },
      "arrival": 73800,
      "departure": 73800
    },
    {
      "stop": {
        "id": "2_4357",
        "lat": 48.01706279,
        "lon": -1.66474597,
        "name": "Croix du Pigeonnet",
        "code": 4357
      },
      "arrival": 74520,
      "departure": 74520
    },
    {
      "stop": {
        "id": "2_3249",
        "lat": 48.01492798,
        "lon": -1.66396872,
        "name": "Orgerblon",
        "code": 3249
      },
      "arrival": 74520,
      "departure": 74520
    },
    {
      "stop": {
        "id": "2_3216",
        "lat": 48.00913379,
        "lon": -1.66637462,
        "name": "Plardière",
        "code": 3216
      },
      "arrival": 74580,
      "departure": 74580
    },
    {
      "stop": {
        "id": "2_3217",
        "lat": 48.00045136,
        "lon": -1.66706223,
        "name": "Levant",
        "code": 3217
      },
      "arrival": 74700,
      "departure": 74700
    },
    {
      "stop": {
        "id": "2_3218",
        "lat": 47.99689445,
        "lon": -1.66900508,
        "name": "Groupe Scolaire",
        "code": 3218
      },
      "arrival": 74760,
      "departure": 74760
    },
    {
      "stop": {
        "id": "2_3219",
        "lat": 47.99494128,
        "lon": -1.67090261,
        "name": "Coteau",
        "code": 3219
      },
      "arrival": 74820,
      "departure": 74820
    },
    {
      "stop": {
        "id": "2_3220",
        "lat": 47.99225072,
        "lon": -1.66789719,
        "name": "Surcouf",
        "code": 3220
      },
      "arrival": 74880,
      "departure": 74880
    },
    {
      "stop": {
        "id": "2_3221",
        "lat": 47.99372623,
        "lon": -1.6652472,
        "name": "Chateaubriand",
        "code": 3221
      },
      "arrival": 75000,
      "departure": 75000
    },
    {
      "stop": {
        "id": "2_3806",
        "lat": 47.99442685,
        "lon": -1.63135702,
        "name": "Perelle",
        "code": 3806
      },
      "arrival": 75180,
      "departure": 75180
    },
    {
      "stop": {
        "id": "2_3807",
        "lat": 47.99512362,
        "lon": -1.62373584,
        "name": "La Basse Erable",
        "code": 3807
      },
      "arrival": 75240,
      "departure": 75240
    },
    {
      "stop": {
        "id": "2_3808",
        "lat": 47.99590317,
        "lon": -1.61766621,
        "name": "La Motte",
        "code": 3808
      },
      "arrival": 75300,
      "departure": 75300
    },
    {
      "stop": {
        "id": "2_3809",
        "lat": 47.99476166,
        "lon": -1.61410331,
        "name": "Bourgbarré Mairie",
        "code": 3809
      },
      "arrival": 75360,
      "departure": 75360
    },
    {
      "stop": {
        "id": "2_3801",
        "lat": 47.99009528,
        "lon": -1.6138293,
        "name": "Centre de Loisirs",
        "code": 3801
      },
      "arrival": 75480,
      "departure": 75480
    }
  ],
  "route": {
    "id": "2_0074",
    "textColor": "201D21",
    "color": "F6C200",
    "description": "Métropolitaine",
    "longName": "Rennes (Henri Fréville) \u003c\u003e Orgères / Bourgbarré",
    "shortName": "74",
    "type": 3,
    "agencyId": "2"
  }
}