{
  "headsign": "37 | Saint-Jacques Morinais",
  "stopTimes": [
    {
      "stop": {
        "id": "2_1447",
        "lat": 48.08721,
        "lon": -1.675075,
        "name": "Henri Fréville",
        "code": 1447
      },
      "arrival": 25200,
      "departure": 25200
    },
    {
      "stop": {
        "id": "2_2217",
        "lat": 48.090645,
        "lon": -1.695013,
        "name": "25 Fusillés",
        "code": 2217
      },
      "arrival": 25440,
      "departure": 25440
    },
    {
      "stop": {
        "id": "2_2231",
        "lat": 48.086974,
        "lon": -1.706633,
        "name": "Gaité",
        "code": 2231
      },
      "arrival": 25620,
      "departure": 25620
    },
    {
      "stop": {
        "id": "2_2251",
        "lat": 48.086662,
        "lon": -1.713071,
        "name": "Maffeys",
        "code": 2251
      },
      "arrival": 25680,
      "departure": 25680
    },
    {
      "stop": {
        "id": "2_2250",
        "lat": 48.086736,
        "lon": -1.721996,
        "name": "Reuzerais",
        "code": 2250
      },
      "arrival": 25740,
      "departure": 25740
    },
    {
      "stop": {
        "id": "2_2254",
        "lat": 48.085145,
        "lon": -1.727706,
        "name": "Le Pâtis",
        "code": 2254
      },
      "arrival": 25860,
      "departure": 25860
    },
    {
      "stop": {
        "id": "2_2255",
        "lat": 48.079221,
        "lon": -1.733373,
        "name": "Bellevue",
        "code": 2255
      },
      "arrival": 25920,
      "departure": 25920
    },
    {
      "stop": {
        "id": "2_2268",
        "lat": 48.075072,
        "lon": -1.728795,
        "name": "Auriol",
        "code": 2268
      },
      "arrival": 26040,
      "departure": 26040
    },
    {
      "stop": {
        "id": "2_2201",
        "lat": 48.075489,
        "lon": -1.716264,
        "name": "Morinais",
        "code": 2201
      },
      "arrival": 26160,
      "departure": 26160
    }
  ],
  "route": {
    "id": "2_0037",
    "textColor": "E2001A",
    "color": "FFF164",
    "description": "Inter-quartiers",
    "longName": "Henri Fréville \u003c\u003e Saint-Jacques-de-la-Lande (Morinais)",
    "shortName": "37",
    "type": 3,
    "agencyId": "2"
  }
}