{
  "headsign": "77 | Rennes Villejean-Université",
  "stopTimes": [
    {
      "stop": {
        "id": "2_3125",
        "lat": 48.16046526,
        "lon": -1.7679822,
        "name": "Pâtis Roussel",
        "code": 3125
      },
      "arrival": 59700,
      "departure": 59700
    },
    {
      "stop": {
        "id": "2_3126",
        "lat": 48.15732006,
        "lon": -1.76573096,
        "name": "Ouessant",
        "code": 3126
      },
      "arrival": 59760,
      "departure": 59760
    },
    {
      "stop": {
        "id": "2_3127",
        "lat": 48.15548929,
        "lon": -1.76463602,
        "name": "Champalaune",
        "code": 3127
      },
      "arrival": 59820,
      "departure": 59820
    },
    {
      "stop": {
        "id": "2_3128",
        "lat": 48.15407301,
        "lon": -1.77112297,
        "name": "Pacé Collèges",
        "code": 3128
      },
      "arrival": 59880,
      "departure": 59880
    },
    {
      "stop": {
        "id": "2_3129",
        "lat": 48.15071817,
        "lon": -1.77071191,
        "name": "Le Brix",
        "code": 3129
      },
      "arrival": 59940,
      "departure": 59940
    },
    {
      "stop": {
        "id": "2_3109",
        "lat": 48.14815857,
        "lon": -1.76980701,
        "name": "Pacé Cimetière",
        "code": 3109
      },
      "arrival": 60000,
      "departure": 60000
    },
    {
      "stop": {
        "id": "2_3110",
        "lat": 48.1457978,
        "lon": -1.77067127,
        "name": "Carré Dumaine",
        "code": 3110
      },
      "arrival": 60060,
      "departure": 60060
    },
    {
      "stop": {
        "id": "2_3111",
        "lat": 48.14284411,
        "lon": -1.77014839,
        "name": "Le Ponant",
        "code": 3111
      },
      "arrival": 60120,
      "departure": 60120
    },
    {
      "stop": {
        "id": "2_3112",
        "lat": 48.14112507,
        "lon": -1.76740703,
        "name": "Opéra",
        "code": 3112
      },
      "arrival": 60300,
      "departure": 60300
    },
    {
      "stop": {
        "id": "2_3139",
        "lat": 48.14020951,
        "lon": -1.76329723,
        "name": "Rive Ouest",
        "code": 3139
      },
      "arrival": 60300,
      "departure": 60300
    },
    {
      "stop": {
        "id": "2_3144",
        "lat": 48.14098531,
        "lon": -1.76618221,
        "name": "Opéra",
        "code": 3144
      },
      "arrival": 60360,
      "departure": 60360
    },
    {
      "stop": {
        "id": "2_1517",
        "lat": 48.11854026,
        "lon": -1.71363649,
        "name": "Berry",
        "code": 1517
      },
      "arrival": 60720,
      "departure": 60720
    },
    {
      "stop": {
        "id": "2_1520",
        "lat": 48.12050245,
        "lon": -1.70973991,
        "name": "Bourbonnais",
        "code": 1520
      },
      "arrival": 60780,
      "departure": 60780
    },
    {
      "stop": {
        "id": "2_1519",
        "lat": 48.12110069,
        "lon": -1.70297631,
        "name": "Villejean-Université",
        "code": 1519
      },
      "arrival": 60960,
      "departure": 60960
    }
  ],
  "route": {
    "id": "2_0077",
    "textColor": "201d21",
    "color": "f6c200",
    "description": "Métropolitaine",
    "longName": "Rennes (Villejean-Université) \u003c\u003e Pacé",
    "shortName": "77",
    "type": 3,
    "agencyId": "2"
  }
}