{
  "headsign": "74 | Rennes Henri Fréville",
  "stopTimes": [
    {
      "stop": {
        "id": "2_3801",
        "lat": 47.99009528,
        "lon": -1.6138293,
        "name": "Centre de Loisirs",
        "code": 3801
      },
      "arrival": 59400,
      "departure": 59400
    },
    {
      "stop": {
        "id": "2_3802",
        "lat": 47.99488015,
        "lon": -1.61426966,
        "name": "Bourgbarré Mairie",
        "code": 3802
      },
      "arrival": 59520,
      "departure": 59520
    },
    {
      "stop": {
        "id": "2_3803",
        "lat": 47.99607325,
        "lon": -1.61723784,
        "name": "La Motte",
        "code": 3803
      },
      "arrival": 59580,
      "departure": 59580
    },
    {
      "stop": {
        "id": "2_3804",
        "lat": 47.99514007,
        "lon": -1.62423419,
        "name": "La Basse Erable",
        "code": 3804
      },
      "arrival": 59640,
      "departure": 59640
    },
    {
      "stop": {
        "id": "2_3805",
        "lat": 47.99450137,
        "lon": -1.6315247,
        "name": "Perelle",
        "code": 3805
      },
      "arrival": 59700,
      "departure": 59700
    },
    {
      "stop": {
        "id": "2_3208",
        "lat": 47.99395077,
        "lon": -1.66549531,
        "name": "Chateaubriand",
        "code": 3208
      },
      "arrival": 59940,
      "departure": 59940
    },
    {
      "stop": {
        "id": "2_3209",
        "lat": 47.99249678,
        "lon": -1.66873811,
        "name": "Surcouf",
        "code": 3209
      },
      "arrival": 60060,
      "departure": 60060
    },
    {
      "stop": {
        "id": "2_3210",
        "lat": 47.99502136,
        "lon": -1.67075631,
        "name": "Coteau",
        "code": 3210
      },
      "arrival": 60120,
      "departure": 60120
    },
    {
      "stop": {
        "id": "2_3211",
        "lat": 47.99730201,
        "lon": -1.66850378,
        "name": "Groupe Scolaire",
        "code": 3211
      },
      "arrival": 60180,
      "departure": 60180
    },
    {
      "stop": {
        "id": "2_3212",
        "lat": 48.00074048,
        "lon": -1.66681908,
        "name": "Levant",
        "code": 3212
      },
      "arrival": 60240,
      "departure": 60240
    },
    {
      "stop": {
        "id": "2_3213",
        "lat": 48.00907966,
        "lon": -1.66635078,
        "name": "Plardière",
        "code": 3213
      },
      "arrival": 60360,
      "departure": 60360
    },
    {
      "stop": {
        "id": "2_3250",
        "lat": 48.01492814,
        "lon": -1.66383754,
        "name": "Orgerblon",
        "code": 3250
      },
      "arrival": 60420,
      "departure": 60420
    },
    {
      "stop": {
        "id": "2_4356",
        "lat": 48.01707558,
        "lon": -1.66458685,
        "name": "Croix du Pigeonnet",
        "code": 4356
      },
      "arrival": 60420,
      "departure": 60420
    },
    {
      "stop": {
        "id": "2_1534",
        "lat": 48.08831453,
        "lon": -1.67444337,
        "name": "Henri Fréville",
        "code": 1534
      },
      "arrival": 61080,
      "departure": 61080
    }
  ],
  "route": {
    "id": "2_0074",
    "textColor": "201D21",
    "color": "F6C200",
    "description": "Métropolitaine",
    "longName": "Rennes (Henri Fréville) \u003c\u003e Orgères / Bourgbarré",
    "shortName": "74",
    "type": 3,
    "agencyId": "2"
  }
}