{
  "headsign": "78 | Rennes Villejean-Université",
  "stopTimes": [
    {
      "stop": {
        "id": "2_2437",
        "lat": 48.18157224,
        "lon": -1.63928389,
        "name": "Betton Centre",
        "code": 2437
      },
      "arrival": 24900,
      "departure": 24900
    },
    {
      "stop": {
        "id": "2_2418",
        "lat": 48.18191158,
        "lon": -1.64120022,
        "name": "Betton Mairie",
        "code": 2418
      },
      "arrival": 24960,
      "departure": 24960
    },
    {
      "stop": {
        "id": "2_2448",
        "lat": 48.18380616,
        "lon": -1.64642136,
        "name": "Trégor",
        "code": 2448
      },
      "arrival": 25080,
      "departure": 25080
    },
    {
      "stop": {
        "id": "2_2438",
        "lat": 48.1849863,
        "lon": -1.65009721,
        "name": "Mézières",
        "code": 2438
      },
      "arrival": 25140,
      "departure": 25140
    },
    {
      "stop": {
        "id": "2_2454",
        "lat": 48.18321398,
        "lon": -1.65475608,
        "name": "Renaudais",
        "code": 2454
      },
      "arrival": 25200,
      "departure": 25200
    },
    {
      "stop": {
        "id": "2_2456",
        "lat": 48.17877727,
        "lon": -1.66093011,
        "name": "Pont Brand",
        "code": 2456
      },
      "arrival": 25380,
      "departure": 25380
    },
    {
      "stop": {
        "id": "2_2452",
        "lat": 48.17544354,
        "lon": -1.66235738,
        "name": "Chaperonnais",
        "code": 2452
      },
      "arrival": 25440,
      "departure": 25440
    },
    {
      "stop": {
        "id": "2_2833",
        "lat": 48.16021058,
        "lon": -1.67713605,
        "name": "Jean-Paul II",
        "code": 2833
      },
      "arrival": 25680,
      "departure": 25680
    },
    {
      "stop": {
        "id": "2_2831",
        "lat": 48.15358812,
        "lon": -1.67869141,
        "name": "Holywell",
        "code": 2831
      },
      "arrival": 25800,
      "departure": 25800
    },
    {
      "stop": {
        "id": "2_2848",
        "lat": 48.15187265,
        "lon": -1.68443158,
        "name": "Forge",
        "code": 2848
      },
      "arrival": 25920,
      "departure": 25920
    },
    {
      "stop": {
        "id": "2_2850",
        "lat": 48.15448628,
        "lon": -1.69261894,
        "name": "Paul-Emile Victor",
        "code": 2850
      },
      "arrival": 26100,
      "departure": 26100
    },
    {
      "stop": {
        "id": "2_2838",
        "lat": 48.15390514,
        "lon": -1.69683761,
        "name": "Alphasis",
        "code": 2838
      },
      "arrival": 26160,
      "departure": 26160
    },
    {
      "stop": {
        "id": "2_2852",
        "lat": 48.14792541,
        "lon": -1.69689328,
        "name": "Edonia",
        "code": 2852
      },
      "arrival": 26280,
      "departure": 26280
    },
    {
      "stop": {
        "id": "2_2817",
        "lat": 48.1430331,
        "lon": -1.68650406,
        "name": "CHP Saint-Grégoire",
        "code": 2817
      },
      "arrival": 26400,
      "departure": 26400
    },
    {
      "stop": {
        "id": "2_2803",
        "lat": 48.13739456,
        "lon": -1.6885143,
        "name": "La Plesse",
        "code": 2803
      },
      "arrival": 26460,
      "departure": 26460
    },
    {
      "stop": {
        "id": "2_2801",
        "lat": 48.13580525,
        "lon": -1.69311343,
        "name": "Grand Quartier",
        "code": 2801
      },
      "arrival": 26520,
      "departure": 26520
    },
    {
      "stop": {
        "id": "2_1543",
        "lat": 48.13134643,
        "lon": -1.69183513,
        "name": "Léonard",
        "code": 1543
      },
      "arrival": 26640,
      "departure": 26640
    },
    {
      "stop": {
        "id": "2_1493",
        "lat": 48.12716786,
        "lon": -1.69331907,
        "name": "Lycée Basch",
        "code": 1493
      },
      "arrival": 26760,
      "departure": 26760
    },
    {
      "stop": {
        "id": "2_1497",
        "lat": 48.12102411,
        "lon": -1.70300103,
        "name": "Villejean-Université",
        "code": 1497
      },
      "arrival": 27000,
      "departure": 27000
    }
  ],
  "route": {
    "id": "2_0078",
    "textColor": "FFFFFF",
    "color": "E3006A",
    "description": "Métropolitaine",
    "longName": "Rennes (Villejean-Université) \u003c\u003e Saint-Grégoire / Betton (Centre)",
    "shortName": "78",
    "type": 3,
    "agencyId": "2"
  }
}