{
  "headsign": "54 | Rennes Charles de Gaulle",
  "stopTimes": [
    {
      "stop": {
        "id": "2_4652",
        "lat": 48.105043,
        "lon": -1.872646,
        "name": "Chêne Vert",
        "code": 4652
      },
      "arrival": 61080,
      "departure": 61080
    },
    {
      "stop": {
        "id": "2_4653",
        "lat": 48.103336,
        "lon": -1.869545,
        "name": "Saint-Melaine",
        "code": 4653
      },
      "arrival": 61140,
      "departure": 61140
    },
    {
      "stop": {
        "id": "2_2501",
        "lat": 48.102436,
        "lon": -1.832289,
        "name": "Noë Diolé",
        "code": 2501
      },
      "arrival": 61320,
      "departure": 61320
    },
    {
      "stop": {
        "id": "2_2502",
        "lat": 48.100526,
        "lon": -1.806596,
        "name": "Lycée Monod",
        "code": 2502
      },
      "arrival": 61500,
      "departure": 61500
    },
    {
      "stop": {
        "id": "2_2503",
        "lat": 48.098908,
        "lon": -1.801395,
        "name": "Champs Freslons",
        "code": 2503
      },
      "arrival": 61620,
      "departure": 61620
    },
    {
      "stop": {
        "id": "2_2504",
        "lat": 48.098973,
        "lon": -1.796821,
        "name": "Brassens",
        "code": 2504
      },
      "arrival": 61680,
      "departure": 61680
    },
    {
      "stop": {
        "id": "2_2505",
        "lat": 48.101535,
        "lon": -1.794453,
        "name": "Bouleaux",
        "code": 2505
      },
      "arrival": 61740,
      "departure": 61740
    },
    {
      "stop": {
        "id": "2_2506",
        "lat": 48.099251,
        "lon": -1.791133,
        "name": "Genêts",
        "code": 2506
      },
      "arrival": 61800,
      "departure": 61800
    },
    {
      "stop": {
        "id": "2_2507",
        "lat": 48.097502,
        "lon": -1.781275,
        "name": "Barberais",
        "code": 2507
      },
      "arrival": 61860,
      "departure": 61860
    },
    {
      "stop": {
        "id": "2_2508",
        "lat": 48.096835,
        "lon": -1.77559,
        "name": "Les Pins",
        "code": 2508
      },
      "arrival": 61920,
      "departure": 61920
    },
    {
      "stop": {
        "id": "2_2509",
        "lat": 48.096139,
        "lon": -1.764573,
        "name": "Pont d\u0027Avoine",
        "code": 2509
      },
      "arrival": 62040,
      "departure": 62040
    },
    {
      "stop": {
        "id": "2_2510",
        "lat": 48.10389,
        "lon": -1.75034,
        "name": "Plessix Saucourt",
        "code": 2510
      },
      "arrival": 62220,
      "departure": 62220
    },
    {
      "stop": {
        "id": "2_3752",
        "lat": 48.104704,
        "lon": -1.739009,
        "name": "Trois Marches",
        "code": 3752
      },
      "arrival": 62340,
      "departure": 62340
    },
    {
      "stop": {
        "id": "2_1508",
        "lat": 48.106693,
        "lon": -1.729127,
        "name": "Berthault",
        "code": 1508
      },
      "arrival": 62460,
      "departure": 62460
    },
    {
      "stop": {
        "id": "2_1233",
        "lat": 48.107021,
        "lon": -1.72162,
        "name": "Lemaistre",
        "code": 1233
      },
      "arrival": 62520,
      "departure": 62520
    },
    {
      "stop": {
        "id": "2_1235",
        "lat": 48.108898,
        "lon": -1.709658,
        "name": "Géniaux",
        "code": 1235
      },
      "arrival": 62640,
      "departure": 62640
    },
    {
      "stop": {
        "id": "2_1238",
        "lat": 48.108687,
        "lon": -1.698735,
        "name": "Guilloux Lorient",
        "code": 1238
      },
      "arrival": 62760,
      "departure": 62760
    },
    {
      "stop": {
        "id": "2_1239",
        "lat": 48.108256,
        "lon": -1.694158,
        "name": "Chèques Postaux",
        "code": 1239
      },
      "arrival": 62820,
      "departure": 62820
    },
    {
      "stop": {
        "id": "2_1542",
        "lat": 48.10992,
        "lon": -1.68535,
        "name": "Pont de Bretagne",
        "code": 1542
      },
      "arrival": 63000,
      "departure": 63000
    },
    {
      "stop": {
        "id": "2_1242",
        "lat": 48.109758,
        "lon": -1.679532,
        "name": "République",
        "code": 1242
      },
      "arrival": 63060,
      "departure": 63060
    },
    {
      "stop": {
        "id": "2_1088",
        "lat": 48.107377,
        "lon": -1.674981,
        "name": "Liberté TNB",
        "code": 1088
      },
      "arrival": 63240,
      "departure": 63240
    },
    {
      "stop": {
        "id": "2_1567",
        "lat": 48.106213,
        "lon": -1.677425,
        "name": "Charles de Gaulle",
        "code": 1567
      },
      "arrival": 63360,
      "departure": 63360
    }
  ],
  "route": {
    "id": "2_0054",
    "textColor": "FFFFFF",
    "color": "CD93BD",
    "description": "Métropolitaine",
    "longName": "Rennes (Charles de Gaulle) \u003c\u003e Le Rheu / Cintré",
    "shortName": "54",
    "type": 3,
    "agencyId": "2"
  }
}