{
  "headsign": "72 | Rennes Henri Fréville",
  "stopTimes": [
    {
      "stop": {
        "id": "2_4708",
        "lat": 47.98009235,
        "lon": -1.7309092,
        "name": "Gingouillère",
        "code": 4708
      },
      "arrival": 29340,
      "departure": 29340
    },
    {
      "stop": {
        "id": "2_4706",
        "lat": 47.97919009,
        "lon": -1.72431431,
        "name": "Châtaigneraie",
        "code": 4706
      },
      "arrival": 29400,
      "departure": 29400
    },
    {
      "stop": {
        "id": "2_4704",
        "lat": 47.978117,
        "lon": -1.72041031,
        "name": "Laillé Eglise",
        "code": 4704
      },
      "arrival": 29460,
      "departure": 29460
    },
    {
      "stop": {
        "id": "2_4702",
        "lat": 47.97543276,
        "lon": -1.71711069,
        "name": "Orée du Bois",
        "code": 4702
      },
      "arrival": 29520,
      "departure": 29520
    },
    {
      "stop": {
        "id": "2_4700",
        "lat": 47.97843783,
        "lon": -1.71368821,
        "name": "Point du Jour",
        "code": 4700
      },
      "arrival": 29640,
      "departure": 29640
    },
    {
      "stop": {
        "id": "2_3924",
        "lat": 47.99991179,
        "lon": -1.69692096,
        "name": "Bois Esnault",
        "code": 3924
      },
      "arrival": 30000,
      "departure": 30000
    },
    {
      "stop": {
        "id": "2_3902",
        "lat": 48.00647989,
        "lon": -1.69857206,
        "name": "Caliorne",
        "code": 3902
      },
      "arrival": 30060,
      "departure": 30060
    },
    {
      "stop": {
        "id": "2_3903",
        "lat": 48.01062005,
        "lon": -1.70099518,
        "name": "Mouton Blanc",
        "code": 3903
      },
      "arrival": 30120,
      "departure": 30120
    },
    {
      "stop": {
        "id": "2_3913",
        "lat": 48.01296314,
        "lon": -1.703044,
        "name": "Chemin Vert",
        "code": 3913
      },
      "arrival": 30180,
      "departure": 30180
    },
    {
      "stop": {
        "id": "2_3905",
        "lat": 48.01057926,
        "lon": -1.70697013,
        "name": "Pont Péan Mairie",
        "code": 3905
      },
      "arrival": 30240,
      "departure": 30240
    },
    {
      "stop": {
        "id": "2_3906",
        "lat": 48.0136449,
        "lon": -1.70763245,
        "name": "Rivaudière",
        "code": 3906
      },
      "arrival": 30300,
      "departure": 30300
    },
    {
      "stop": {
        "id": "2_3907",
        "lat": 48.01629245,
        "lon": -1.70567784,
        "name": "Fontaine Blanche",
        "code": 3907
      },
      "arrival": 30300,
      "departure": 30300
    },
    {
      "stop": {
        "id": "2_3908",
        "lat": 48.01989989,
        "lon": -1.70699303,
        "name": "Renaissance",
        "code": 3908
      },
      "arrival": 30360,
      "departure": 30360
    },
    {
      "stop": {
        "id": "2_2928",
        "lat": 48.03144516,
        "lon": -1.70886705,
        "name": "Constant Mérel",
        "code": 2928
      },
      "arrival": 30540,
      "departure": 30540
    },
    {
      "stop": {
        "id": "2_2911",
        "lat": 48.03319414,
        "lon": -1.70728888,
        "name": "Parc de Loisirs",
        "code": 2911
      },
      "arrival": 30600,
      "departure": 30600
    },
    {
      "stop": {
        "id": "2_2912",
        "lat": 48.03551346,
        "lon": -1.70632588,
        "name": "Argoat",
        "code": 2912
      },
      "arrival": 30660,
      "departure": 30660
    },
    {
      "stop": {
        "id": "2_2913",
        "lat": 48.03465949,
        "lon": -1.69950247,
        "name": "Cornouaille",
        "code": 2913
      },
      "arrival": 30720,
      "departure": 30720
    },
    {
      "stop": {
        "id": "2_2914",
        "lat": 48.03691975,
        "lon": -1.69708216,
        "name": "Vieux Bourg",
        "code": 2914
      },
      "arrival": 30780,
      "departure": 30780
    },
    {
      "stop": {
        "id": "2_2915",
        "lat": 48.04133261,
        "lon": -1.69832095,
        "name": "Collège Pôle Sud",
        "code": 2915
      },
      "arrival": 30900,
      "departure": 30900
    },
    {
      "stop": {
        "id": "2_2916",
        "lat": 48.04164779,
        "lon": -1.70262208,
        "name": "Auditoire",
        "code": 2916
      },
      "arrival": 30960,
      "departure": 30960
    },
    {
      "stop": {
        "id": "2_2917",
        "lat": 48.04230372,
        "lon": -1.70649993,
        "name": "Chartres Centre",
        "code": 2917
      },
      "arrival": 31020,
      "departure": 31020
    },
    {
      "stop": {
        "id": "2_2905",
        "lat": 48.04226025,
        "lon": -1.71208839,
        "name": "Callouët",
        "code": 2905
      },
      "arrival": 31140,
      "departure": 31140
    },
    {
      "stop": {
        "id": "2_2906",
        "lat": 48.0459329,
        "lon": -1.71017676,
        "name": "Croix aux Potiers",
        "code": 2906
      },
      "arrival": 31200,
      "departure": 31200
    },
    {
      "stop": {
        "id": "2_2701",
        "lat": 48.05897113,
        "lon": -1.70107764,
        "name": "Janais",
        "code": 2701
      },
      "arrival": 31320,
      "departure": 31320
    },
    {
      "stop": {
        "id": "2_2702",
        "lat": 48.06829803,
        "lon": -1.69763551,
        "name": "Vallon",
        "code": 2702
      },
      "arrival": 31440,
      "departure": 31440
    },
    {
      "stop": {
        "id": "2_1270",
        "lat": 48.08578354,
        "lon": -1.69404539,
        "name": "Félix Eboué",
        "code": 1270
      },
      "arrival": 31620,
      "departure": 31620
    },
    {
      "stop": {
        "id": "2_1456",
        "lat": 48.08658018,
        "lon": -1.68739623,
        "name": "Coubertin",
        "code": 1456
      },
      "arrival": 31740,
      "departure": 31740
    },
    {
      "stop": {
        "id": "2_1457",
        "lat": 48.08679431,
        "lon": -1.6838896,
        "name": "Norvège",
        "code": 1457
      },
      "arrival": 31800,
      "departure": 31800
    },
    {
      "stop": {
        "id": "2_1510",
        "lat": 48.08777947,
        "lon": -1.67446532,
        "name": "Henri Fréville",
        "code": 1510
      },
      "arrival": 31920,
      "departure": 31920
    }
  ],
  "route": {
    "id": "2_0072",
    "textColor": "FFFFFF",
    "color": "0C3C91",
    "description": "Métropolitaine",
    "longName": "Rennes (Henri Fréville) \u003c\u003e Chartres-de-Bretagne / Pont-Péan / Laillé",
    "shortName": "72",
    "type": 3,
    "agencyId": "2"
  }
}