{
  "headsign": "81 | Clayes Romillé",
  "stopTimes": [
    {
      "stop": {
        "id": "2_1497",
        "lat": 48.12102411,
        "lon": -1.70300103,
        "name": "Villejean-Université",
        "code": 1497
      },
      "arrival": 32400,
      "departure": 32400
    },
    {
      "stop": {
        "id": "2_1518",
        "lat": 48.12062672,
        "lon": -1.71046453,
        "name": "Bourbonnais",
        "code": 1518
      },
      "arrival": 32520,
      "departure": 32520
    },
    {
      "stop": {
        "id": "2_1521",
        "lat": 48.11845974,
        "lon": -1.71376004,
        "name": "Berry",
        "code": 1521
      },
      "arrival": 32580,
      "departure": 32580
    },
    {
      "stop": {
        "id": "2_4457",
        "lat": 48.17625101,
        "lon": -1.85250541,
        "name": "Clayes Centre",
        "code": 4457
      },
      "arrival": 33360,
      "departure": 33360
    },
    {
      "stop": {
        "id": "2_4459",
        "lat": 48.17812546,
        "lon": -1.85279449,
        "name": "La Cour aux Pages",
        "code": 4459
      },
      "arrival": 33420,
      "departure": 33420
    },
    {
      "stop": {
        "id": "2_4458",
        "lat": 48.18236273,
        "lon": -1.85310164,
        "name": "Croix Simon",
        "code": 4458
      },
      "arrival": 33480,
      "departure": 33480
    },
    {
      "stop": {
        "id": "2_6005",
        "lat": 48.21248705,
        "lon": -1.89091828,
        "name": "Mettrie Templiers",
        "code": 6005
      },
      "arrival": 33780,
      "departure": 33780
    },
    {
      "stop": {
        "id": "2_6003",
        "lat": 48.21491243,
        "lon": -1.89244054,
        "name": "Romillé Mairie",
        "code": 6003
      },
      "arrival": 33840,
      "departure": 33840
    },
    {
      "stop": {
        "id": "2_6001",
        "lat": 48.2169016,
        "lon": -1.89044066,
        "name": "Frères Aubert",
        "code": 6001
      },
      "arrival": 33900,
      "departure": 33900
    },
    {
      "stop": {
        "id": "2_6000",
        "lat": 48.21870667,
        "lon": -1.8933469,
        "name": "Romillé Collège",
        "code": 6000
      },
      "arrival": 34020,
      "departure": 34020
    }
  ],
  "route": {
    "id": "2_0081",
    "textColor": "FFFFFF",
    "color": "0081C6",
    "description": "Métropolitaine",
    "longName": "Rennes (Villejean-Université) \u003c\u003e Clayes / Romillé",
    "shortName": "81",
    "type": 3,
    "agencyId": "2"
  }
}