{
  "headsign": "94 | Betton Centre",
  "stopTimes": [
    {
      "stop": {
        "id": "2_3951",
        "lat": 48.22528095,
        "lon": -1.57037306,
        "name": "Cropy",
        "code": 3951
      },
      "arrival": 37980,
      "departure": 37980
    },
    {
      "stop": {
        "id": "2_3952",
        "lat": 48.223221,
        "lon": -1.5763179,
        "name": "Chesnais",
        "code": 3952
      },
      "arrival": 38040,
      "departure": 38040
    },
    {
      "stop": {
        "id": "2_3953",
        "lat": 48.21792113,
        "lon": -1.58142255,
        "name": "Bourg",
        "code": 3953
      },
      "arrival": 38100,
      "departure": 38100
    },
    {
      "stop": {
        "id": "2_3960",
        "lat": 48.2146956,
        "lon": -1.58674396,
        "name": "Terrain des Sports",
        "code": 3960
      },
      "arrival": 38160,
      "departure": 38160
    },
    {
      "stop": {
        "id": "2_3955",
        "lat": 48.21169142,
        "lon": -1.59075734,
        "name": "Tronchay",
        "code": 3955
      },
      "arrival": 38220,
      "departure": 38220
    },
    {
      "stop": {
        "id": "2_4604",
        "lat": 48.21008788,
        "lon": -1.62587418,
        "name": "Pommiers",
        "code": 4604
      },
      "arrival": 38460,
      "departure": 38460
    },
    {
      "stop": {
        "id": "2_4605",
        "lat": 48.21442422,
        "lon": -1.62878295,
        "name": "Fonderies",
        "code": 4605
      },
      "arrival": 38520,
      "departure": 38520
    },
    {
      "stop": {
        "id": "2_4606",
        "lat": 48.21193254,
        "lon": -1.63026334,
        "name": "Chevaigné Mairie",
        "code": 4606
      },
      "arrival": 38580,
      "departure": 38580
    },
    {
      "stop": {
        "id": "2_4607",
        "lat": 48.20764801,
        "lon": -1.63080398,
        "name": "Chevaigné Gare",
        "code": 4607
      },
      "arrival": 38640,
      "departure": 38640
    },
    {
      "stop": {
        "id": "2_4609",
        "lat": 48.19917578,
        "lon": -1.62757919,
        "name": "Chopinais",
        "code": 4609
      },
      "arrival": 38760,
      "departure": 38760
    },
    {
      "stop": {
        "id": "2_2433",
        "lat": 48.19035731,
        "lon": -1.62607743,
        "name": "Gentilhommière",
        "code": 2433
      },
      "arrival": 38880,
      "departure": 38880
    },
    {
      "stop": {
        "id": "2_2432",
        "lat": 48.18633047,
        "lon": -1.63325395,
        "name": "J.-Sébastien Bach",
        "code": 2432
      },
      "arrival": 38940,
      "departure": 38940
    },
    {
      "stop": {
        "id": "2_2431",
        "lat": 48.18305974,
        "lon": -1.63721735,
        "name": "Mozart",
        "code": 2431
      },
      "arrival": 39000,
      "departure": 39000
    },
    {
      "stop": {
        "id": "2_2406",
        "lat": 48.18119826,
        "lon": -1.6380241,
        "name": "Betton Centre",
        "code": 2406
      },
      "arrival": 39060,
      "departure": 39060
    }
  ],
  "route": {
    "id": "2_0094",
    "textColor": "DF171C",
    "color": "8FC255",
    "description": "Intercommunale",
    "longName": "Saint-Sulpice-la-Forêt / Chevaigné \u003c\u003e Betton (Centre)",
    "shortName": "94",
    "type": 3,
    "agencyId": "2"
  }
}