{
  "headsign": "11 | Saint-Saëns",
  "stopTimes": [
    {
      "stop": {
        "id": "2_3751",
        "lat": 48.107431,
        "lon": -1.739281,
        "name": "ZI Ouest",
        "code": 3751
      },
      "arrival": 75600,
      "departure": 75600
    },
    {
      "stop": {
        "id": "2_3752",
        "lat": 48.104704,
        "lon": -1.739009,
        "name": "Trois Marches",
        "code": 3752
      },
      "arrival": 75660,
      "departure": 75660
    },
    {
      "stop": {
        "id": "2_3769",
        "lat": 48.104169,
        "lon": -1.736036,
        "name": "Marais",
        "code": 3769
      },
      "arrival": 75660,
      "departure": 75660
    },
    {
      "stop": {
        "id": "2_1229",
        "lat": 48.101154,
        "lon": -1.731617,
        "name": "Servigné",
        "code": 1229
      },
      "arrival": 75780,
      "departure": 75780
    },
    {
      "stop": {
        "id": "2_1230",
        "lat": 48.102175,
        "lon": -1.726098,
        "name": "Jardin Moderne",
        "code": 1230
      },
      "arrival": 75840,
      "departure": 75840
    },
    {
      "stop": {
        "id": "2_1231",
        "lat": 48.103369,
        "lon": -1.723283,
        "name": "Robinot de St-Cyr",
        "code": 1231
      },
      "arrival": 75840,
      "departure": 75840
    },
    {
      "stop": {
        "id": "2_1232",
        "lat": 48.106259,
        "lon": -1.723704,
        "name": "Le Hô",
        "code": 1232
      },
      "arrival": 75900,
      "departure": 75900
    },
    {
      "stop": {
        "id": "2_1233",
        "lat": 48.107021,
        "lon": -1.72162,
        "name": "Lemaistre",
        "code": 1233
      },
      "arrival": 75960,
      "departure": 75960
    },
    {
      "stop": {
        "id": "2_1234",
        "lat": 48.107689,
        "lon": -1.714796,
        "name": "Stade Rennais",
        "code": 1234
      },
      "arrival": 76020,
      "departure": 76020
    },
    {
      "stop": {
        "id": "2_1235",
        "lat": 48.108898,
        "lon": -1.709658,
        "name": "Géniaux",
        "code": 1235
      },
      "arrival": 76080,
      "departure": 76080
    },
    {
      "stop": {
        "id": "2_1236",
        "lat": 48.10876,
        "lon": -1.705656,
        "name": "Kerviler",
        "code": 1236
      },
      "arrival": 76140,
      "departure": 76140
    },
    {
      "stop": {
        "id": "2_1237",
        "lat": 48.107689,
        "lon": -1.702121,
        "name": "Papeteries",
        "code": 1237
      },
      "arrival": 76200,
      "departure": 76200
    },
    {
      "stop": {
        "id": "2_1238",
        "lat": 48.108687,
        "lon": -1.698735,
        "name": "Guilloux Lorient",
        "code": 1238
      },
      "arrival": 76260,
      "departure": 76260
    },
    {
      "stop": {
        "id": "2_1239",
        "lat": 48.108256,
        "lon": -1.694158,
        "name": "Chèques Postaux",
        "code": 1239
      },
      "arrival": 76320,
      "departure": 76320
    },
    {
      "stop": {
        "id": "2_1240",
        "lat": 48.109271,
        "lon": -1.689587,
        "name": "Le Mail",
        "code": 1240
      },
      "arrival": 76440,
      "departure": 76440
    },
    {
      "stop": {
        "id": "2_1091",
        "lat": 48.109734,
        "lon": -1.68385,
        "name": "Place de Bretagne",
        "code": 1091
      },
      "arrival": 76560,
      "departure": 76560
    },
    {
      "stop": {
        "id": "2_1242",
        "lat": 48.109758,
        "lon": -1.679532,
        "name": "République",
        "code": 1242
      },
      "arrival": 76680,
      "departure": 77400
    },
    {
      "stop": {
        "id": "2_1088",
        "lat": 48.107377,
        "lon": -1.674981,
        "name": "Liberté TNB",
        "code": 1088
      },
      "arrival": 77580,
      "departure": 77580
    },
    {
      "stop": {
        "id": "2_1087",
        "lat": 48.105276,
        "lon": -1.673939,
        "name": "Champs Libres",
        "code": 1087
      },
      "arrival": 77640,
      "departure": 77640
    },
    {
      "stop": {
        "id": "2_1477",
        "lat": 48.103839,
        "lon": -1.67286,
        "name": "Gares",
        "code": 1477
      },
      "arrival": 77700,
      "departure": 77700
    },
    {
      "stop": {
        "id": "2_1085",
        "lat": 48.10471,
        "lon": -1.666557,
        "name": "Laënnec",
        "code": 1085
      },
      "arrival": 77820,
      "departure": 77820
    },
    {
      "stop": {
        "id": "2_1243",
        "lat": 48.102515,
        "lon": -1.661094,
        "name": "Croix Saint-Hélier",
        "code": 1243
      },
      "arrival": 77880,
      "departure": 77880
    },
    {
      "stop": {
        "id": "2_1244",
        "lat": 48.102217,
        "lon": -1.655063,
        "name": "Mouézy",
        "code": 1244
      },
      "arrival": 77940,
      "departure": 77940
    },
    {
      "stop": {
        "id": "2_1211",
        "lat": 48.103116,
        "lon": -1.652491,
        "name": "Serpette",
        "code": 1211
      },
      "arrival": 77940,
      "departure": 77940
    },
    {
      "stop": {
        "id": "2_1246",
        "lat": 48.104353,
        "lon": -1.64928,
        "name": "Cimetière de l\u0027Est",
        "code": 1246
      },
      "arrival": 78000,
      "departure": 78000
    },
    {
      "stop": {
        "id": "2_1247",
        "lat": 48.104868,
        "lon": -1.643656,
        "name": "Pavie",
        "code": 1247
      },
      "arrival": 78060,
      "departure": 78060
    },
    {
      "stop": {
        "id": "2_1208",
        "lat": 48.104165,
        "lon": -1.637787,
        "name": "Saint-Saëns",
        "code": 1208
      },
      "arrival": 78120,
      "departure": 78120
    }
  ],
  "route": {
    "id": "2_0011",
    "textColor": "FFFFFF",
    "color": "DD84B1",
    "description": "Urbaine",
    "longName": "ZI Ouest / Stade Rennais \u003c\u003e Saint-Saëns / La Poterie",
    "shortName": "11",
    "type": 3,
    "agencyId": "2"
  }
}