{
  "headsign": "37 | Saint-Jacques Morinais",
  "stopTimes": [
    {
      "stop": {
        "id": "2_1447",
        "lat": 48.08721,
        "lon": -1.675075,
        "name": "Henri Fréville",
        "code": 1447
      },
      "arrival": 29400,
      "departure": 29400
    },
    {
      "stop": {
        "id": "2_2217",
        "lat": 48.090645,
        "lon": -1.695013,
        "name": "25 Fusillés",
        "code": 2217
      },
      "arrival": 29700,
      "departure": 29700
    },
    {
      "stop": {
        "id": "2_2231",
        "lat": 48.086974,
        "lon": -1.706633,
        "name": "Gaité",
        "code": 2231
      },
      "arrival": 29880,
      "departure": 29880
    },
    {
      "stop": {
        "id": "2_2251",
        "lat": 48.086662,
        "lon": -1.713071,
        "name": "Maffeys",
        "code": 2251
      },
      "arrival": 29940,
      "departure": 29940
    },
    {
      "stop": {
        "id": "2_2250",
        "lat": 48.086736,
        "lon": -1.721996,
        "name": "Reuzerais",
        "code": 2250
      },
      "arrival": 30060,
      "departure": 30060
    },
    {
      "stop": {
        "id": "2_2254",
        "lat": 48.085145,
        "lon": -1.727706,
        "name": "Le Pâtis",
        "code": 2254
      },
      "arrival": 30120,
      "departure": 30120
    },
    {
      "stop": {
        "id": "2_2255",
        "lat": 48.079221,
        "lon": -1.733373,
        "name": "Bellevue",
        "code": 2255
      },
      "arrival": 30240,
      "departure": 30240
    },
    {
      "stop": {
        "id": "2_2268",
        "lat": 48.075072,
        "lon": -1.728795,
        "name": "Auriol",
        "code": 2268
      },
      "arrival": 30360,
      "departure": 30360
    },
    {
      "stop": {
        "id": "2_2201",
        "lat": 48.075489,
        "lon": -1.716264,
        "name": "Morinais",
        "code": 2201
      },
      "arrival": 30480,
      "departure": 30480
    }
  ],
  "route": {
    "id": "2_0037",
    "textColor": "E2001A",
    "color": "FFF164",
    "description": "Inter-quartiers",
    "longName": "Henri Fréville \u003c\u003e Saint-Jacques-de-la-Lande (Morinais)",
    "shortName": "37",
    "type": 3,
    "agencyId": "2"
  }
}