{
  "headsign": "67 | Rennes République",
  "stopTimes": [
    {
      "stop": {
        "id": "2_2089",
        "lat": 48.11358949,
        "lon": -1.59050027,
        "name": "Rigourdière",
        "code": 2089
      },
      "arrival": 69600,
      "departure": 69600
    },
    {
      "stop": {
        "id": "2_2039",
        "lat": 48.11441474,
        "lon": -1.60044452,
        "name": "Bordage",
        "code": 2039
      },
      "arrival": 69780,
      "departure": 69780
    },
    {
      "stop": {
        "id": "2_2057",
        "lat": 48.11388631,
        "lon": -1.60325405,
        "name": "Cesson Gare",
        "code": 2057
      },
      "arrival": 69840,
      "departure": 69840
    },
    {
      "stop": {
        "id": "2_2058",
        "lat": 48.11260659,
        "lon": -1.60716704,
        "name": "Peupliers",
        "code": 2058
      },
      "arrival": 69840,
      "departure": 69840
    },
    {
      "stop": {
        "id": "2_2059",
        "lat": 48.10930792,
        "lon": -1.60901705,
        "name": "Monniais",
        "code": 2059
      },
      "arrival": 69960,
      "departure": 69960
    },
    {
      "stop": {
        "id": "2_2060",
        "lat": 48.10779161,
        "lon": -1.61466557,
        "name": "Rond Point de Bray",
        "code": 2060
      },
      "arrival": 70020,
      "departure": 70020
    },
    {
      "stop": {
        "id": "2_2016",
        "lat": 48.11418172,
        "lon": -1.62194938,
        "name": "Taillis",
        "code": 2016
      },
      "arrival": 70200,
      "departure": 70200
    },
    {
      "stop": {
        "id": "2_2017",
        "lat": 48.11408545,
        "lon": -1.63036724,
        "name": "Champs Péans",
        "code": 2017
      },
      "arrival": 70260,
      "departure": 70260
    },
    {
      "stop": {
        "id": "2_1609",
        "lat": 48.11416988,
        "lon": -1.63650542,
        "name": "Tournebride",
        "code": 1609
      },
      "arrival": 70320,
      "departure": 70320
    },
    {
      "stop": {
        "id": "2_1528",
        "lat": 48.11399429,
        "lon": -1.64435828,
        "name": "Piletière",
        "code": 1528
      },
      "arrival": 70440,
      "departure": 70440
    },
    {
      "stop": {
        "id": "2_1527",
        "lat": 48.11433481,
        "lon": -1.64920718,
        "name": "Moulin de Joué",
        "code": 1527
      },
      "arrival": 70500,
      "departure": 70500
    },
    {
      "stop": {
        "id": "2_1526",
        "lat": 48.11479096,
        "lon": -1.65317793,
        "name": "Hôpital Régnier",
        "code": 1526
      },
      "arrival": 70560,
      "departure": 70560
    },
    {
      "stop": {
        "id": "2_1474",
        "lat": 48.1135156,
        "lon": -1.65671606,
        "name": "Durafour Strasbourg",
        "code": 1474
      },
      "arrival": 70620,
      "departure": 70620
    },
    {
      "stop": {
        "id": "2_1163",
        "lat": 48.1101066,
        "lon": -1.66054614,
        "name": "Robidou",
        "code": 1163
      },
      "arrival": 70800,
      "departure": 70800
    },
    {
      "stop": {
        "id": "2_1556",
        "lat": 48.10943229,
        "lon": -1.67763328,
        "name": "République",
        "code": 1556
      },
      "arrival": 71040,
      "departure": 71040
    }
  ],
  "route": {
    "id": "2_0067",
    "textColor": "FFFFFF",
    "color": "E2003B",
    "description": "Métropolitaine",
    "longName": "Rennes (République) \u003c\u003e Cesson-Sévigné / Brécé",
    "shortName": "67",
    "type": 3,
    "agencyId": "2"
  }
}