{
  "headsign": "91 | Bruz Pont-Réan",
  "stopTimes": [
    {
      "stop": {
        "id": "2_2719",
        "lat": 48.04706769,
        "lon": -1.66111999,
        "name": "Petite Saudrais",
        "code": 2719
      },
      "arrival": 57900,
      "departure": 57900
    },
    {
      "stop": {
        "id": "2_2720",
        "lat": 48.0440836,
        "lon": -1.66135439,
        "name": "Salle Polyvalente",
        "code": 2720
      },
      "arrival": 57960,
      "departure": 57960
    },
    {
      "stop": {
        "id": "2_2721",
        "lat": 48.04244672,
        "lon": -1.665579,
        "name": "Centre",
        "code": 2721
      },
      "arrival": 58020,
      "departure": 58020
    },
    {
      "stop": {
        "id": "2_2722",
        "lat": 48.04077157,
        "lon": -1.67212053,
        "name": "Potiers",
        "code": 2722
      },
      "arrival": 58080,
      "departure": 58080
    },
    {
      "stop": {
        "id": "2_2726",
        "lat": 48.03964698,
        "lon": -1.67673187,
        "name": "Guyomerais",
        "code": 2726
      },
      "arrival": 58140,
      "departure": 58140
    },
    {
      "stop": {
        "id": "2_2750",
        "lat": 48.03925076,
        "lon": -1.68044618,
        "name": "Monts Gaultier",
        "code": 2750
      },
      "arrival": 58200,
      "departure": 58200
    },
    {
      "stop": {
        "id": "2_2915",
        "lat": 48.04133261,
        "lon": -1.69832095,
        "name": "Collège Pôle Sud",
        "code": 2915
      },
      "arrival": 58380,
      "departure": 58380
    },
    {
      "stop": {
        "id": "2_2916",
        "lat": 48.04164779,
        "lon": -1.70262208,
        "name": "Auditoire",
        "code": 2916
      },
      "arrival": 58440,
      "departure": 58440
    },
    {
      "stop": {
        "id": "2_2917",
        "lat": 48.04230372,
        "lon": -1.70649993,
        "name": "Chartres Centre",
        "code": 2917
      },
      "arrival": 58500,
      "departure": 58500
    },
    {
      "stop": {
        "id": "2_2908",
        "lat": 48.04140713,
        "lon": -1.712456,
        "name": "Callouët",
        "code": 2908
      },
      "arrival": 58560,
      "departure": 58560
    },
    {
      "stop": {
        "id": "2_2909",
        "lat": 48.03681768,
        "lon": -1.71247725,
        "name": "Taillebois",
        "code": 2909
      },
      "arrival": 58620,
      "departure": 58620
    },
    {
      "stop": {
        "id": "2_2925",
        "lat": 48.03309275,
        "lon": -1.71162122,
        "name": "Chaussairie",
        "code": 2925
      },
      "arrival": 58680,
      "departure": 58680
    },
    {
      "stop": {
        "id": "2_2351",
        "lat": 48.029193,
        "lon": -1.71962005,
        "name": "Mare de la Salle",
        "code": 2351
      },
      "arrival": 58740,
      "departure": 58740
    },
    {
      "stop": {
        "id": "2_2328",
        "lat": 48.03490665,
        "lon": -1.72460581,
        "name": "Doublé",
        "code": 2328
      },
      "arrival": 58920,
      "departure": 58920
    },
    {
      "stop": {
        "id": "2_2338",
        "lat": 48.03327206,
        "lon": -1.7330462,
        "name": "Lavoisier",
        "code": 2338
      },
      "arrival": 58980,
      "departure": 58980
    },
    {
      "stop": {
        "id": "2_2339",
        "lat": 48.02837459,
        "lon": -1.73561585,
        "name": "Champ Niguel",
        "code": 2339
      },
      "arrival": 59100,
      "departure": 59100
    },
    {
      "stop": {
        "id": "2_2340",
        "lat": 48.02603219,
        "lon": -1.73454161,
        "name": "Bobinais",
        "code": 2340
      },
      "arrival": 59100,
      "departure": 59100
    },
    {
      "stop": {
        "id": "2_2341",
        "lat": 48.02366722,
        "lon": -1.73621021,
        "name": "Pasteur",
        "code": 2341
      },
      "arrival": 59220,
      "departure": 59220
    },
    {
      "stop": {
        "id": "2_2348",
        "lat": 48.02346099,
        "lon": -1.74333447,
        "name": "Victor Hugo",
        "code": 2348
      },
      "arrival": 59280,
      "departure": 59280
    },
    {
      "stop": {
        "id": "2_2360",
        "lat": 48.02494911,
        "lon": -1.74509798,
        "name": "Bruz Centre",
        "code": 2360
      },
      "arrival": 59340,
      "departure": 59340
    },
    {
      "stop": {
        "id": "2_2302",
        "lat": 48.02485673,
        "lon": -1.7507341,
        "name": "Herverie",
        "code": 2302
      },
      "arrival": 59400,
      "departure": 59400
    },
    {
      "stop": {
        "id": "2_2303",
        "lat": 48.02466598,
        "lon": -1.75723493,
        "name": "Haut Launay",
        "code": 2303
      },
      "arrival": 59460,
      "departure": 59460
    },
    {
      "stop": {
        "id": "2_2345",
        "lat": 48.02383482,
        "lon": -1.76188545,
        "name": "Rabine",
        "code": 2345
      },
      "arrival": 59520,
      "departure": 59520
    },
    {
      "stop": {
        "id": "2_2329",
        "lat": 48.00916236,
        "lon": -1.77334982,
        "name": "Croix Vaisserelle",
        "code": 2329
      },
      "arrival": 59700,
      "departure": 59700
    },
    {
      "stop": {
        "id": "2_2347",
        "lat": 48.00471646,
        "lon": -1.77520341,
        "name": "Pont-Réan",
        "code": 2347
      },
      "arrival": 59760,
      "departure": 59760
    }
  ],
  "route": {
    "id": "2_0091",
    "textColor": "df171c",
    "color": "8fc255",
    "description": "Intercommunale",
    "longName": "Bruz / Chartres \u003c\u003e Noyal-Châtillon-sur-Seiche",
    "shortName": "91",
    "type": 3,
    "agencyId": "2"
  }
}