{
  "headsign": "74 | Orgères Surcouf",
  "stopTimes": [
    {
      "stop": {
        "id": "2_3810",
        "lat": 47.960038,
        "lon": -1.632394,
        "name": "Moc Souris",
        "code": 3810
      },
      "arrival": 29100,
      "departure": 29100
    },
    {
      "stop": {
        "id": "2_3812",
        "lat": 47.959614,
        "lon": -1.636978,
        "name": "Sept Fours",
        "code": 3812
      },
      "arrival": 29160,
      "departure": 29160
    },
    {
      "stop": {
        "id": "2_3201",
        "lat": 47.96981,
        "lon": -1.646041,
        "name": "Fort Joual",
        "code": 3201
      },
      "arrival": 29340,
      "departure": 29340
    },
    {
      "stop": {
        "id": "2_3202",
        "lat": 47.975399,
        "lon": -1.651256,
        "name": "Frogerais",
        "code": 3202
      },
      "arrival": 29460,
      "departure": 29460
    },
    {
      "stop": {
        "id": "2_3203",
        "lat": 47.976283,
        "lon": -1.657445,
        "name": "Petite Rochelle",
        "code": 3203
      },
      "arrival": 29520,
      "departure": 29520
    },
    {
      "stop": {
        "id": "2_3204",
        "lat": 47.983239,
        "lon": -1.660165,
        "name": "Télégraphe",
        "code": 3204
      },
      "arrival": 29640,
      "departure": 29640
    },
    {
      "stop": {
        "id": "2_3209",
        "lat": 47.992472,
        "lon": -1.668757,
        "name": "Surcouf",
        "code": 3209
      },
      "arrival": 29940,
      "departure": 29940
    }
  ],
  "route": {
    "id": "2_0074",
    "textColor": "1A171B",
    "color": "FCC000",
    "description": "Métropolitaine",
    "longName": "Rennes (Henri Fréville) \u003c\u003e Orgères / Bourgbarré",
    "shortName": "74",
    "type": 3,
    "agencyId": "2"
  }
}