{
  "headsign": "68 | Rennes Villejean-Université",
  "stopTimes": [
    {
      "stop": {
        "id": "2_4507",
        "lat": 48.22178273,
        "lon": -1.80232719,
        "name": "Cheval Blanc",
        "code": 4507
      },
      "arrival": 54000,
      "departure": 54000
    },
    {
      "stop": {
        "id": "2_4508",
        "lat": 48.22448225,
        "lon": -1.80078454,
        "name": "Coualeuc",
        "code": 4508
      },
      "arrival": 54060,
      "departure": 54060
    },
    {
      "stop": {
        "id": "2_4510",
        "lat": 48.22361535,
        "lon": -1.79362989,
        "name": "Prés Verts",
        "code": 4510
      },
      "arrival": 54180,
      "departure": 54180
    },
    {
      "stop": {
        "id": "2_4502",
        "lat": 48.22104867,
        "lon": -1.78874652,
        "name": "Gévezé Mairie",
        "code": 4502
      },
      "arrival": 54300,
      "departure": 54300
    },
    {
      "stop": {
        "id": "2_4504",
        "lat": 48.21830476,
        "lon": -1.78327707,
        "name": "Flume",
        "code": 4504
      },
      "arrival": 54360,
      "departure": 54360
    },
    {
      "stop": {
        "id": "2_4062",
        "lat": 48.17676429,
        "lon": -1.72204091,
        "name": "La Brosse",
        "code": 4062
      },
      "arrival": 54840,
      "departure": 54840
    },
    {
      "stop": {
        "id": "2_3506",
        "lat": 48.15311386,
        "lon": -1.706642,
        "name": "Décoparc",
        "code": 3506
      },
      "arrival": 55080,
      "departure": 55080
    },
    {
      "stop": {
        "id": "2_1492",
        "lat": 48.13384612,
        "lon": -1.69386845,
        "name": "Grand Quartier",
        "code": 1492
      },
      "arrival": 55260,
      "departure": 55260
    },
    {
      "stop": {
        "id": "2_1537",
        "lat": 48.13157495,
        "lon": -1.69170144,
        "name": "Léonard",
        "code": 1537
      },
      "arrival": 55320,
      "departure": 55320
    },
    {
      "stop": {
        "id": "2_1493",
        "lat": 48.12716785,
        "lon": -1.69331906,
        "name": "Lycée Basch",
        "code": 1493
      },
      "arrival": 55440,
      "departure": 55440
    },
    {
      "stop": {
        "id": "2_1529",
        "lat": 48.12118964,
        "lon": -1.70297204,
        "name": "Villejean-Université",
        "code": 1529
      },
      "arrival": 55680,
      "departure": 55680
    }
  ],
  "route": {
    "id": "2_0068",
    "textColor": "201d21",
    "color": "d6c800",
    "description": "Métropolitaine",
    "longName": "Rennes (Villejean-Université) \u003c\u003e Gévezé",
    "shortName": "68",
    "type": 3,
    "agencyId": "2"
  }
}