{
  "headsign": "68 | Rennes Villejean-Université",
  "stopTimes": [
    {
      "stop": {
        "id": "2_4507",
        "lat": 48.221783,
        "lon": -1.802327,
        "name": "Cheval Blanc",
        "code": 4507
      },
      "arrival": 25800,
      "departure": 25800
    },
    {
      "stop": {
        "id": "2_4508",
        "lat": 48.224482,
        "lon": -1.800785,
        "name": "Coualeuc",
        "code": 4508
      },
      "arrival": 25860,
      "departure": 25860
    },
    {
      "stop": {
        "id": "2_4510",
        "lat": 48.223615,
        "lon": -1.79363,
        "name": "Prés Verts",
        "code": 4510
      },
      "arrival": 25980,
      "departure": 25980
    },
    {
      "stop": {
        "id": "2_4502",
        "lat": 48.220986,
        "lon": -1.788723,
        "name": "Gévezé Mairie",
        "code": 4502
      },
      "arrival": 26100,
      "departure": 26100
    },
    {
      "stop": {
        "id": "2_4504",
        "lat": 48.21819,
        "lon": -1.78315,
        "name": "Flume",
        "code": 4504
      },
      "arrival": 26160,
      "departure": 26160
    },
    {
      "stop": {
        "id": "2_4062",
        "lat": 48.176749,
        "lon": -1.722096,
        "name": "La Brosse",
        "code": 4062
      },
      "arrival": 26700,
      "departure": 26700
    },
    {
      "stop": {
        "id": "2_3506",
        "lat": 48.152987,
        "lon": -1.706581,
        "name": "Décoparc",
        "code": 3506
      },
      "arrival": 26940,
      "departure": 26940
    },
    {
      "stop": {
        "id": "2_1492",
        "lat": 48.133784,
        "lon": -1.69386,
        "name": "Grand Quartier",
        "code": 1492
      },
      "arrival": 27180,
      "departure": 27180
    },
    {
      "stop": {
        "id": "2_1543",
        "lat": 48.131341,
        "lon": -1.691889,
        "name": "Léonard",
        "code": 1543
      },
      "arrival": 27240,
      "departure": 27240
    },
    {
      "stop": {
        "id": "2_1493",
        "lat": 48.127175,
        "lon": -1.693387,
        "name": "Lycée Basch",
        "code": 1493
      },
      "arrival": 27360,
      "departure": 27360
    },
    {
      "stop": {
        "id": "2_1529",
        "lat": 48.121156,
        "lon": -1.702973,
        "name": "Villejean-Université",
        "code": 1529
      },
      "arrival": 27660,
      "departure": 27660
    }
  ],
  "route": {
    "id": "2_0068",
    "textColor": "1A171B",
    "color": "DDC500",
    "description": "Métropolitaine",
    "longName": "Rennes (Villejean-Université) \u003c\u003e Gévezé",
    "shortName": "68",
    "type": 3,
    "agencyId": "2"
  }
}