{
  "headsign": "61 | Noyal-Châtillon Saint-Erblon",
  "stopTimes": [
    {
      "stop": {
        "id": "2_1534",
        "lat": 48.08831454,
        "lon": -1.67444337,
        "name": "Henri Fréville",
        "code": 1534
      },
      "arrival": 33600,
      "departure": 33600
    },
    {
      "stop": {
        "id": "2_1465",
        "lat": 48.08611757,
        "lon": -1.66106774,
        "name": "Triangle",
        "code": 1465
      },
      "arrival": 33840,
      "departure": 33840
    },
    {
      "stop": {
        "id": "2_2715",
        "lat": 48.07864104,
        "lon": -1.66122751,
        "name": "Hil-Bintinais",
        "code": 2715
      },
      "arrival": 33960,
      "departure": 33960
    },
    {
      "stop": {
        "id": "2_2716",
        "lat": 48.0686191,
        "lon": -1.66595219,
        "name": "Petit Beaulieu",
        "code": 2716
      },
      "arrival": 34080,
      "departure": 34080
    },
    {
      "stop": {
        "id": "2_2717",
        "lat": 48.06365395,
        "lon": -1.66385987,
        "name": "Mail Lancé",
        "code": 2717
      },
      "arrival": 34140,
      "departure": 34140
    },
    {
      "stop": {
        "id": "2_2718",
        "lat": 48.05597165,
        "lon": -1.66413694,
        "name": "Croix Fleurie",
        "code": 2718
      },
      "arrival": 34200,
      "departure": 34200
    },
    {
      "stop": {
        "id": "2_2719",
        "lat": 48.04706769,
        "lon": -1.66111999,
        "name": "Petite Saudrais",
        "code": 2719
      },
      "arrival": 34320,
      "departure": 34320
    },
    {
      "stop": {
        "id": "2_2720",
        "lat": 48.0440836,
        "lon": -1.66135439,
        "name": "Salle Polyvalente",
        "code": 2720
      },
      "arrival": 34380,
      "departure": 34380
    },
    {
      "stop": {
        "id": "2_2721",
        "lat": 48.04244672,
        "lon": -1.665579,
        "name": "Centre",
        "code": 2721
      },
      "arrival": 34440,
      "departure": 34440
    },
    {
      "stop": {
        "id": "2_2722",
        "lat": 48.04077157,
        "lon": -1.67212053,
        "name": "Potiers",
        "code": 2722
      },
      "arrival": 34500,
      "departure": 34500
    },
    {
      "stop": {
        "id": "2_2723",
        "lat": 48.03839894,
        "lon": -1.67062832,
        "name": "Molène",
        "code": 2723
      },
      "arrival": 34560,
      "departure": 34560
    },
    {
      "stop": {
        "id": "2_2732",
        "lat": 48.03865705,
        "lon": -1.66680397,
        "name": "Pont",
        "code": 2732
      },
      "arrival": 34620,
      "departure": 34620
    },
    {
      "stop": {
        "id": "2_2733",
        "lat": 48.03487037,
        "lon": -1.66409088,
        "name": "Côteaux",
        "code": 2733
      },
      "arrival": 34680,
      "departure": 34680
    },
    {
      "stop": {
        "id": "2_2724",
        "lat": 48.02864041,
        "lon": -1.65979212,
        "name": "Bray",
        "code": 2724
      },
      "arrival": 34740,
      "departure": 34740
    },
    {
      "stop": {
        "id": "2_4360",
        "lat": 48.02156395,
        "lon": -1.65364618,
        "name": "Leuzières",
        "code": 4360
      },
      "arrival": 34860,
      "departure": 34860
    },
    {
      "stop": {
        "id": "2_4361",
        "lat": 48.01776753,
        "lon": -1.64957701,
        "name": "Croix Faucheux",
        "code": 4361
      },
      "arrival": 34920,
      "departure": 34920
    },
    {
      "stop": {
        "id": "2_4363",
        "lat": 48.01629311,
        "lon": -1.65132633,
        "name": "Alexandre Gilois",
        "code": 4363
      },
      "arrival": 34980,
      "departure": 34980
    },
    {
      "stop": {
        "id": "2_4354",
        "lat": 48.01764653,
        "lon": -1.65445718,
        "name": "Paul Féval",
        "code": 4354
      },
      "arrival": 35040,
      "departure": 35040
    },
    {
      "stop": {
        "id": "2_4355",
        "lat": 48.01883506,
        "lon": -1.65767902,
        "name": "Champ Mulon",
        "code": 4355
      },
      "arrival": 35100,
      "departure": 35100
    },
    {
      "stop": {
        "id": "2_4351",
        "lat": 48.01725669,
        "lon": -1.66042889,
        "name": "Parc d\u0027Activités",
        "code": 4351
      },
      "arrival": 35160,
      "departure": 35160
    }
  ],
  "route": {
    "id": "2_0061",
    "textColor": "FFFFFF",
    "color": "E6396C",
    "description": "Métropolitaine",
    "longName": "Rennes (Henri Fréville) \u003c\u003e Noyal-Châtillon-sur-Seiche / Saint-Erblon",
    "shortName": "61",
    "type": 3,
    "agencyId": "2"
  }
}