{
  "headsign": "68 | Rennes Villejean-Université",
  "stopTimes": [
    {
      "stop": {
        "id": "2_4507",
        "lat": 48.221783,
        "lon": -1.802327,
        "name": "Cheval Blanc",
        "code": 4507
      },
      "arrival": 31500,
      "departure": 31500
    },
    {
      "stop": {
        "id": "2_4508",
        "lat": 48.224482,
        "lon": -1.800785,
        "name": "Coualeuc",
        "code": 4508
      },
      "arrival": 31560,
      "departure": 31560
    },
    {
      "stop": {
        "id": "2_4510",
        "lat": 48.223615,
        "lon": -1.79363,
        "name": "Prés Verts",
        "code": 4510
      },
      "arrival": 31680,
      "departure": 31680
    },
    {
      "stop": {
        "id": "2_4502",
        "lat": 48.220986,
        "lon": -1.788723,
        "name": "Gévezé Mairie",
        "code": 4502
      },
      "arrival": 31740,
      "departure": 31740
    },
    {
      "stop": {
        "id": "2_4504",
        "lat": 48.21819,
        "lon": -1.78315,
        "name": "Flume",
        "code": 4504
      },
      "arrival": 31800,
      "departure": 31800
    },
    {
      "stop": {
        "id": "2_4062",
        "lat": 48.176749,
        "lon": -1.722096,
        "name": "La Brosse",
        "code": 4062
      },
      "arrival": 32400,
      "departure": 32400
    },
    {
      "stop": {
        "id": "2_3506",
        "lat": 48.152987,
        "lon": -1.706581,
        "name": "Décoparc",
        "code": 3506
      },
      "arrival": 32640,
      "departure": 32640
    },
    {
      "stop": {
        "id": "2_1492",
        "lat": 48.133784,
        "lon": -1.69386,
        "name": "Grand Quartier",
        "code": 1492
      },
      "arrival": 32820,
      "departure": 32820
    },
    {
      "stop": {
        "id": "2_1543",
        "lat": 48.131341,
        "lon": -1.691889,
        "name": "Léonard",
        "code": 1543
      },
      "arrival": 32880,
      "departure": 32880
    },
    {
      "stop": {
        "id": "2_1493",
        "lat": 48.127175,
        "lon": -1.693387,
        "name": "Lycée Basch",
        "code": 1493
      },
      "arrival": 33000,
      "departure": 33000
    },
    {
      "stop": {
        "id": "2_1529",
        "lat": 48.121156,
        "lon": -1.702973,
        "name": "Villejean-Université",
        "code": 1529
      },
      "arrival": 33240,
      "departure": 33240
    }
  ],
  "route": {
    "id": "2_0068",
    "textColor": "1A171B",
    "color": "DDC500",
    "description": "Métropolitaine",
    "longName": "Rennes (Villejean-Université) \u003c\u003e Gévezé",
    "shortName": "68",
    "type": 3,
    "agencyId": "2"
  }
}