{
  "headsign": "61 | Rennes Henri Fréville",
  "stopTimes": [
    {
      "stop": {
        "id": "2_4351",
        "lat": 48.01725669,
        "lon": -1.66042889,
        "name": "Parc d\u0027Activités",
        "code": 4351
      },
      "arrival": 73200,
      "departure": 73200
    },
    {
      "stop": {
        "id": "2_4352",
        "lat": 48.01883453,
        "lon": -1.65769241,
        "name": "Champ Mulon",
        "code": 4352
      },
      "arrival": 73260,
      "departure": 73260
    },
    {
      "stop": {
        "id": "2_4353",
        "lat": 48.01766237,
        "lon": -1.65451232,
        "name": "Paul Féval",
        "code": 4353
      },
      "arrival": 73320,
      "departure": 73320
    },
    {
      "stop": {
        "id": "2_4362",
        "lat": 48.01622131,
        "lon": -1.65152108,
        "name": "Alexandre Gilois",
        "code": 4362
      },
      "arrival": 73320,
      "departure": 73320
    },
    {
      "stop": {
        "id": "2_4358",
        "lat": 48.01767454,
        "lon": -1.64942104,
        "name": "Croix Faucheux",
        "code": 4358
      },
      "arrival": 73380,
      "departure": 73380
    },
    {
      "stop": {
        "id": "2_4359",
        "lat": 48.02152221,
        "lon": -1.65356188,
        "name": "Leuzières",
        "code": 4359
      },
      "arrival": 73440,
      "departure": 73440
    },
    {
      "stop": {
        "id": "2_2705",
        "lat": 48.02898231,
        "lon": -1.65980879,
        "name": "Bray",
        "code": 2705
      },
      "arrival": 73560,
      "departure": 73560
    },
    {
      "stop": {
        "id": "2_2734",
        "lat": 48.03439807,
        "lon": -1.66349817,
        "name": "Côteaux",
        "code": 2734
      },
      "arrival": 73620,
      "departure": 73620
    },
    {
      "stop": {
        "id": "2_2727",
        "lat": 48.03842301,
        "lon": -1.66656825,
        "name": "Pont",
        "code": 2727
      },
      "arrival": 73680,
      "departure": 73680
    },
    {
      "stop": {
        "id": "2_2706",
        "lat": 48.0384178,
        "lon": -1.67071213,
        "name": "Molène",
        "code": 2706
      },
      "arrival": 73740,
      "departure": 73740
    },
    {
      "stop": {
        "id": "2_2707",
        "lat": 48.04080291,
        "lon": -1.6719381,
        "name": "Potiers",
        "code": 2707
      },
      "arrival": 73800,
      "departure": 73800
    },
    {
      "stop": {
        "id": "2_2708",
        "lat": 48.04239861,
        "lon": -1.66565541,
        "name": "Centre",
        "code": 2708
      },
      "arrival": 73860,
      "departure": 73860
    },
    {
      "stop": {
        "id": "2_2709",
        "lat": 48.0440963,
        "lon": -1.66126141,
        "name": "Salle Polyvalente",
        "code": 2709
      },
      "arrival": 73920,
      "departure": 73920
    },
    {
      "stop": {
        "id": "2_2710",
        "lat": 48.0471142,
        "lon": -1.66108375,
        "name": "Petite Saudrais",
        "code": 2710
      },
      "arrival": 73980,
      "departure": 73980
    },
    {
      "stop": {
        "id": "2_2711",
        "lat": 48.05658786,
        "lon": -1.66382824,
        "name": "Croix Fleurie",
        "code": 2711
      },
      "arrival": 74100,
      "departure": 74100
    },
    {
      "stop": {
        "id": "2_2712",
        "lat": 48.06366666,
        "lon": -1.66376685,
        "name": "Mail Lancé",
        "code": 2712
      },
      "arrival": 74160,
      "departure": 74160
    },
    {
      "stop": {
        "id": "2_2713",
        "lat": 48.06835652,
        "lon": -1.66575417,
        "name": "Petit Beaulieu",
        "code": 2713
      },
      "arrival": 74160,
      "departure": 74160
    },
    {
      "stop": {
        "id": "2_2714",
        "lat": 48.07719318,
        "lon": -1.66114018,
        "name": "Hil-Bintinais",
        "code": 2714
      },
      "arrival": 74280,
      "departure": 74280
    },
    {
      "stop": {
        "id": "2_1441",
        "lat": 48.08606219,
        "lon": -1.66094033,
        "name": "Triangle",
        "code": 1441
      },
      "arrival": 74400,
      "departure": 74400
    },
    {
      "stop": {
        "id": "2_1534",
        "lat": 48.08831454,
        "lon": -1.67444337,
        "name": "Henri Fréville",
        "code": 1534
      },
      "arrival": 74580,
      "departure": 74580
    }
  ],
  "route": {
    "id": "2_0061",
    "textColor": "FFFFFF",
    "color": "E6396C",
    "description": "Métropolitaine",
    "longName": "Rennes (Henri Fréville) \u003c\u003e Noyal-Châtillon-sur-Seiche / Saint-Erblon",
    "shortName": "61",
    "type": 3,
    "agencyId": "2"
  }
}