{
  "headsign": "C4 | Beauregard",
  "stopTimes": [
    {
      "stop": {
        "id": "2_1630",
        "lat": 48.132662,
        "lon": -1.636187,
        "name": "ZA Saint-Sulpice",
        "code": 1630
      },
      "arrival": 84240,
      "departure": 84240
    },
    {
      "stop": {
        "id": "2_1617",
        "lat": 48.129137,
        "lon": -1.630168,
        "name": "Longs Champs Est",
        "code": 1617
      },
      "arrival": 84360,
      "departure": 84360
    },
    {
      "stop": {
        "id": "2_1536",
        "lat": 48.12678,
        "lon": -1.630245,
        "name": "Clos Courtel",
        "code": 1536
      },
      "arrival": 84420,
      "departure": 84420
    },
    {
      "stop": {
        "id": "2_1291",
        "lat": 48.124789,
        "lon": -1.633892,
        "name": "IUT",
        "code": 1291
      },
      "arrival": 84480,
      "departure": 84480
    },
    {
      "stop": {
        "id": "2_1292",
        "lat": 48.121437,
        "lon": -1.638194,
        "name": "Beaulieu Restau U",
        "code": 1292
      },
      "arrival": 84540,
      "departure": 84540
    },
    {
      "stop": {
        "id": "2_1176",
        "lat": 48.119028,
        "lon": -1.63521,
        "name": "Beaulieu INSA",
        "code": 1176
      },
      "arrival": 84600,
      "departure": 84600
    },
    {
      "stop": {
        "id": "2_1312",
        "lat": 48.116581,
        "lon": -1.633944,
        "name": "Beaulieu Chimie",
        "code": 1312
      },
      "arrival": 84660,
      "departure": 84660
    },
    {
      "stop": {
        "id": "2_1160",
        "lat": 48.114099,
        "lon": -1.637565,
        "name": "Tournebride",
        "code": 1160
      },
      "arrival": 84720,
      "departure": 84720
    },
    {
      "stop": {
        "id": "2_1603",
        "lat": 48.11325,
        "lon": -1.641287,
        "name": "Les Préales",
        "code": 1603
      },
      "arrival": 84780,
      "departure": 84780
    },
    {
      "stop": {
        "id": "2_1161",
        "lat": 48.112232,
        "lon": -1.644227,
        "name": "Plaine de Baud",
        "code": 1161
      },
      "arrival": 84840,
      "departure": 84840
    },
    {
      "stop": {
        "id": "2_1605",
        "lat": 48.110157,
        "lon": -1.656509,
        "name": "Pont de Strasbourg",
        "code": 1605
      },
      "arrival": 84960,
      "departure": 84960
    },
    {
      "stop": {
        "id": "2_1163",
        "lat": 48.110164,
        "lon": -1.660479,
        "name": "Robidou",
        "code": 1163
      },
      "arrival": 85020,
      "departure": 85020
    },
    {
      "stop": {
        "id": "2_1164",
        "lat": 48.110145,
        "lon": -1.663921,
        "name": "Pont de Châteaudun",
        "code": 1164
      },
      "arrival": 85080,
      "departure": 85080
    },
    {
      "stop": {
        "id": "2_1165",
        "lat": 48.110111,
        "lon": -1.67021,
        "name": "Paul Bert",
        "code": 1165
      },
      "arrival": 85140,
      "departure": 85140
    },
    {
      "stop": {
        "id": "2_1166",
        "lat": 48.109914,
        "lon": -1.675145,
        "name": "Musée Beaux Arts",
        "code": 1166
      },
      "arrival": 85200,
      "departure": 85200
    },
    {
      "stop": {
        "id": "2_1052",
        "lat": 48.109934,
        "lon": -1.678869,
        "name": "République",
        "code": 1052
      },
      "arrival": 85320,
      "departure": 85800
    },
    {
      "stop": {
        "id": "2_1051",
        "lat": 48.109888,
        "lon": -1.68328,
        "name": "Place de Bretagne",
        "code": 1051
      },
      "arrival": 85860,
      "departure": 85860
    },
    {
      "stop": {
        "id": "2_1216",
        "lat": 48.109176,
        "lon": -1.690514,
        "name": "Le Mail",
        "code": 1216
      },
      "arrival": 85980,
      "departure": 85980
    },
    {
      "stop": {
        "id": "2_1217",
        "lat": 48.108252,
        "lon": -1.694511,
        "name": "Chèques Postaux",
        "code": 1217
      },
      "arrival": 86040,
      "departure": 86040
    },
    {
      "stop": {
        "id": "2_1293",
        "lat": 48.110001,
        "lon": -1.698679,
        "name": "Guilloux",
        "code": 1293
      },
      "arrival": 86100,
      "departure": 86100
    },
    {
      "stop": {
        "id": "2_1310",
        "lat": 48.111292,
        "lon": -1.700837,
        "name": "Marbeuf",
        "code": 1310
      },
      "arrival": 86160,
      "departure": 86160
    },
    {
      "stop": {
        "id": "2_1192",
        "lat": 48.114999,
        "lon": -1.701423,
        "name": "La Salle",
        "code": 1192
      },
      "arrival": 86280,
      "departure": 86280
    },
    {
      "stop": {
        "id": "2_1295",
        "lat": 48.116762,
        "lon": -1.704608,
        "name": "Berger",
        "code": 1295
      },
      "arrival": 86340,
      "departure": 86340
    },
    {
      "stop": {
        "id": "2_1296",
        "lat": 48.119313,
        "lon": -1.704499,
        "name": "Université",
        "code": 1296
      },
      "arrival": 86400,
      "departure": 86400
    },
    {
      "stop": {
        "id": "2_1297",
        "lat": 48.121918,
        "lon": -1.703705,
        "name": "Villejean-Université",
        "code": 1297
      },
      "arrival": 86460,
      "departure": 86460
    },
    {
      "stop": {
        "id": "2_1298",
        "lat": 48.125698,
        "lon": -1.703017,
        "name": "Bois Labbé",
        "code": 1298
      },
      "arrival": 86520,
      "departure": 86520
    },
    {
      "stop": {
        "id": "2_1299",
        "lat": 48.127905,
        "lon": -1.702753,
        "name": "Olympe de Gouges",
        "code": 1299
      },
      "arrival": 86580,
      "departure": 86580
    },
    {
      "stop": {
        "id": "2_1304",
        "lat": 48.128501,
        "lon": -1.698712,
        "name": "Cucillé",
        "code": 1304
      },
      "arrival": 86640,
      "departure": 86640
    },
    {
      "stop": {
        "id": "2_1301",
        "lat": 48.128165,
        "lon": -1.69398,
        "name": "Préfecture",
        "code": 1301
      },
      "arrival": 86700,
      "departure": 86700
    },
    {
      "stop": {
        "id": "2_1302",
        "lat": 48.131493,
        "lon": -1.691785,
        "name": "Léonard",
        "code": 1302
      },
      "arrival": 86760,
      "departure": 86760
    },
    {
      "stop": {
        "id": "2_1586",
        "lat": 48.131507,
        "lon": -1.694506,
        "name": "Beauregard",
        "code": 1586
      },
      "arrival": 86820,
      "departure": 86820
    }
  ],
  "route": {
    "id": "2_0004",
    "textColor": "FFFFFF",
    "color": "6D1F80",
    "description": "Chronostar",
    "longName": "Beauregard \u003c\u003e ZA Saint-Sulpice",
    "shortName": "C4",
    "type": 3,
    "agencyId": "2"
  }
}