{
  "headsign": "73 | Saint-Armel Corps-Nuds",
  "stopTimes": [
    {
      "stop": {
        "id": "2_1511",
        "lat": 48.08753913,
        "lon": -1.64345457,
        "name": "La Poterie",
        "code": 1511
      },
      "arrival": 32400,
      "departure": 32400
    },
    {
      "stop": {
        "id": "2_2619",
        "lat": 48.04461606,
        "lon": -1.60388168,
        "name": "La Poste",
        "code": 2619
      },
      "arrival": 32880,
      "departure": 32880
    },
    {
      "stop": {
        "id": "2_2620",
        "lat": 48.04354744,
        "lon": -1.60171592,
        "name": "Bel Air",
        "code": 2620
      },
      "arrival": 32940,
      "departure": 32940
    },
    {
      "stop": {
        "id": "2_2621",
        "lat": 48.04090176,
        "lon": -1.60229224,
        "name": "Vern La Touche",
        "code": 2621
      },
      "arrival": 32940,
      "departure": 32940
    },
    {
      "stop": {
        "id": "2_2640",
        "lat": 48.03840649,
        "lon": -1.60224987,
        "name": "Croix Malinge",
        "code": 2640
      },
      "arrival": 33000,
      "departure": 33000
    },
    {
      "stop": {
        "id": "2_2628",
        "lat": 48.03125903,
        "lon": -1.59946437,
        "name": "Vaugon",
        "code": 2628
      },
      "arrival": 33060,
      "departure": 33060
    },
    {
      "stop": {
        "id": "2_4553",
        "lat": 48.01466943,
        "lon": -1.59829558,
        "name": "Lande du Jardin",
        "code": 4553
      },
      "arrival": 33240,
      "departure": 33240
    },
    {
      "stop": {
        "id": "2_4552",
        "lat": 48.01396709,
        "lon": -1.59426931,
        "name": "Saint-Armel Gare",
        "code": 4552
      },
      "arrival": 33300,
      "departure": 33300
    },
    {
      "stop": {
        "id": "2_4551",
        "lat": 48.0134184,
        "lon": -1.59096813,
        "name": "Saint-Armel Eglise",
        "code": 4551
      },
      "arrival": 33420,
      "departure": 33420
    },
    {
      "stop": {
        "id": "2_3817",
        "lat": 48.00091583,
        "lon": -1.59465195,
        "name": "Launay Garnier",
        "code": 3817
      },
      "arrival": 33660,
      "departure": 33660
    },
    {
      "stop": {
        "id": "2_4108",
        "lat": 47.98189705,
        "lon": -1.58838301,
        "name": "Chêne Hervé",
        "code": 4108
      },
      "arrival": 33840,
      "departure": 33840
    },
    {
      "stop": {
        "id": "2_4109",
        "lat": 47.97901569,
        "lon": -1.58783799,
        "name": "Corps-Nuds Mairie",
        "code": 4109
      },
      "arrival": 33840,
      "departure": 33840
    },
    {
      "stop": {
        "id": "2_4110",
        "lat": 47.97776379,
        "lon": -1.58550091,
        "name": "Place de Kildare",
        "code": 4110
      },
      "arrival": 33900,
      "departure": 33900
    },
    {
      "stop": {
        "id": "2_4111",
        "lat": 47.98259928,
        "lon": -1.58032069,
        "name": "Huberdières",
        "code": 4111
      },
      "arrival": 33960,
      "departure": 33960
    },
    {
      "stop": {
        "id": "2_4112",
        "lat": 47.98528795,
        "lon": -1.57609539,
        "name": "Corps-Nuds Gare",
        "code": 4112
      },
      "arrival": 34020,
      "departure": 34020
    }
  ],
  "route": {
    "id": "2_0073",
    "textColor": "FFFFFF",
    "color": "008436",
    "description": "Métropolitaine",
    "longName": "Rennes (La Poterie) \u003c\u003e Vern-sur-Seiche / Saint-Armel / Corps-Nuds",
    "shortName": "73",
    "type": 3,
    "agencyId": "2"
  }
}