{
  "headsign": "55 | Mordelles Le Verger",
  "stopTimes": [
    {
      "stop": {
        "id": "2_1567",
        "lat": 48.1062288,
        "lon": -1.67750174,
        "name": "Charles de Gaulle",
        "code": 1567
      },
      "arrival": 29220,
      "departure": 29220
    },
    {
      "stop": {
        "id": "2_1214",
        "lat": 48.10990137,
        "lon": -1.6796669,
        "name": "République",
        "code": 1214
      },
      "arrival": 29400,
      "departure": 29400
    },
    {
      "stop": {
        "id": "2_1540",
        "lat": 48.1099522,
        "lon": -1.68519001,
        "name": "Pont de Bretagne",
        "code": 1540
      },
      "arrival": 29460,
      "departure": 29460
    },
    {
      "stop": {
        "id": "2_1217",
        "lat": 48.10823293,
        "lon": -1.69450077,
        "name": "Chèques Postaux",
        "code": 1217
      },
      "arrival": 29580,
      "departure": 29580
    },
    {
      "stop": {
        "id": "2_1218",
        "lat": 48.10910111,
        "lon": -1.69795527,
        "name": "Guilloux Lorient",
        "code": 1218
      },
      "arrival": 29640,
      "departure": 29640
    },
    {
      "stop": {
        "id": "2_1221",
        "lat": 48.10886589,
        "lon": -1.71061365,
        "name": "Géniaux",
        "code": 1221
      },
      "arrival": 29760,
      "departure": 29760
    },
    {
      "stop": {
        "id": "2_1539",
        "lat": 48.10723128,
        "lon": -1.72306614,
        "name": "Lemaistre",
        "code": 1539
      },
      "arrival": 29940,
      "departure": 29940
    },
    {
      "stop": {
        "id": "2_1506",
        "lat": 48.10648052,
        "lon": -1.73143819,
        "name": "Berthault",
        "code": 1506
      },
      "arrival": 30000,
      "departure": 30000
    },
    {
      "stop": {
        "id": "2_3766",
        "lat": 48.10499211,
        "lon": -1.74065229,
        "name": "Trois Marches",
        "code": 3766
      },
      "arrival": 30060,
      "departure": 30060
    },
    {
      "stop": {
        "id": "2_2512",
        "lat": 48.09623469,
        "lon": -1.76464809,
        "name": "Pont d\u0027Avoine",
        "code": 2512
      },
      "arrival": 30240,
      "departure": 30240
    },
    {
      "stop": {
        "id": "2_2523",
        "lat": 48.09407165,
        "lon": -1.77398049,
        "name": "Mahomat",
        "code": 2523
      },
      "arrival": 30300,
      "departure": 30300
    },
    {
      "stop": {
        "id": "2_2524",
        "lat": 48.09134708,
        "lon": -1.78557585,
        "name": "Gerhoui",
        "code": 2524
      },
      "arrival": 30360,
      "departure": 30360
    },
    {
      "stop": {
        "id": "2_3859",
        "lat": 48.0881174,
        "lon": -1.79980194,
        "name": "Vivier des Bois",
        "code": 3859
      },
      "arrival": 30480,
      "departure": 30480
    },
    {
      "stop": {
        "id": "2_3860",
        "lat": 48.08361464,
        "lon": -1.81579413,
        "name": "Grande Fontaine",
        "code": 3860
      },
      "arrival": 30600,
      "departure": 30600
    },
    {
      "stop": {
        "id": "2_3861",
        "lat": 48.08139625,
        "lon": -1.82681277,
        "name": "Croix Ignon",
        "code": 3861
      },
      "arrival": 30660,
      "departure": 30660
    },
    {
      "stop": {
        "id": "2_3862",
        "lat": 48.07780008,
        "lon": -1.83732775,
        "name": "Gretay",
        "code": 3862
      },
      "arrival": 30720,
      "departure": 30720
    },
    {
      "stop": {
        "id": "2_3863",
        "lat": 48.0755735,
        "lon": -1.84280109,
        "name": "Mordelles Lilas",
        "code": 3863
      },
      "arrival": 30780,
      "departure": 30780
    },
    {
      "stop": {
        "id": "2_3864",
        "lat": 48.07357073,
        "lon": -1.84677438,
        "name": "Mordelles Mairie",
        "code": 3864
      },
      "arrival": 30840,
      "departure": 30840
    },
    {
      "stop": {
        "id": "2_3865",
        "lat": 48.07185149,
        "lon": -1.85020843,
        "name": "Mordelles Eglise",
        "code": 3865
      },
      "arrival": 30900,
      "departure": 30900
    },
    {
      "stop": {
        "id": "2_3869",
        "lat": 48.07393624,
        "lon": -1.85365528,
        "name": "Mordelles Pâtis",
        "code": 3869
      },
      "arrival": 31020,
      "departure": 31020
    },
    {
      "stop": {
        "id": "2_4403",
        "lat": 48.07002136,
        "lon": -1.93025491,
        "name": "Bouvrais",
        "code": 4403
      },
      "arrival": 31620,
      "departure": 31620
    },
    {
      "stop": {
        "id": "2_4408",
        "lat": 48.06999662,
        "lon": -1.93235118,
        "name": "Le Verger Eglise",
        "code": 4408
      },
      "arrival": 31620,
      "departure": 31620
    }
  ],
  "route": {
    "id": "2_0055",
    "textColor": "1A171B",
    "color": "F7A800",
    "description": "Métropolitaine",
    "longName": "Rennes (Charles de Gaulle) \u003c\u003e Mordelles / Le Verger",
    "shortName": "55",
    "type": 3,
    "agencyId": "2"
  }
}