{
  "headsign": "3 | Henri Fréville",
  "stopTimes": [
    {
      "stop": {
        "id": "2_1103",
        "lat": 48.13880017,
        "lon": -1.65921311,
        "name": "Saint-Laurent",
        "code": 1103
      },
      "arrival": 57960,
      "departure": 57960
    },
    {
      "stop": {
        "id": "2_1104",
        "lat": 48.13478815,
        "lon": -1.65854932,
        "name": "Hôtel de Région",
        "code": 1104
      },
      "arrival": 58080,
      "departure": 58080
    },
    {
      "stop": {
        "id": "2_1105",
        "lat": 48.13555,
        "lon": -1.65569436,
        "name": "Héronière",
        "code": 1105
      },
      "arrival": 58140,
      "departure": 58140
    },
    {
      "stop": {
        "id": "2_1106",
        "lat": 48.13436417,
        "lon": -1.65216944,
        "name": "Gayeulles Piscine",
        "code": 1106
      },
      "arrival": 58200,
      "departure": 58200
    },
    {
      "stop": {
        "id": "2_1107",
        "lat": 48.13086934,
        "lon": -1.65210388,
        "name": "Le Blizz",
        "code": 1107
      },
      "arrival": 58260,
      "departure": 58260
    },
    {
      "stop": {
        "id": "2_1108",
        "lat": 48.12838796,
        "lon": -1.652168,
        "name": "Gayeulles",
        "code": 1108
      },
      "arrival": 58320,
      "departure": 58320
    },
    {
      "stop": {
        "id": "2_1109",
        "lat": 48.12513724,
        "lon": -1.65304693,
        "name": "Joliot-Curie",
        "code": 1109
      },
      "arrival": 58380,
      "departure": 58380
    },
    {
      "stop": {
        "id": "2_1110",
        "lat": 48.12307228,
        "lon": -1.65145652,
        "name": "Lycée Chateaubriand",
        "code": 1110
      },
      "arrival": 58440,
      "departure": 58440
    },
    {
      "stop": {
        "id": "2_1111",
        "lat": 48.12024278,
        "lon": -1.65071004,
        "name": "Docteur Quentin",
        "code": 1111
      },
      "arrival": 58500,
      "departure": 58500
    },
    {
      "stop": {
        "id": "2_1112",
        "lat": 48.11890008,
        "lon": -1.65092835,
        "name": "Vitré Danton",
        "code": 1112
      },
      "arrival": 58500,
      "departure": 58500
    },
    {
      "stop": {
        "id": "2_1113",
        "lat": 48.11635262,
        "lon": -1.65563088,
        "name": "Jeanne d\u0027Arc",
        "code": 1113
      },
      "arrival": 58620,
      "departure": 58620
    },
    {
      "stop": {
        "id": "2_1114",
        "lat": 48.11447378,
        "lon": -1.65800938,
        "name": "Durafour",
        "code": 1114
      },
      "arrival": 58680,
      "departure": 58680
    },
    {
      "stop": {
        "id": "2_1115",
        "lat": 48.11349726,
        "lon": -1.66127497,
        "name": "Oberthur",
        "code": 1115
      },
      "arrival": 58740,
      "departure": 58740
    },
    {
      "stop": {
        "id": "2_1116",
        "lat": 48.11274314,
        "lon": -1.6643851,
        "name": "Saint-Vincent",
        "code": 1116
      },
      "arrival": 58800,
      "departure": 58800
    },
    {
      "stop": {
        "id": "2_1117",
        "lat": 48.11249212,
        "lon": -1.66685313,
        "name": "Châteaudun",
        "code": 1117
      },
      "arrival": 58860,
      "departure": 58860
    },
    {
      "stop": {
        "id": "2_1118",
        "lat": 48.11175864,
        "lon": -1.67121493,
        "name": "Thabor",
        "code": 1118
      },
      "arrival": 58980,
      "departure": 58980
    },
    {
      "stop": {
        "id": "2_1119",
        "lat": 48.11054175,
        "lon": -1.67489145,
        "name": "Place Pasteur",
        "code": 1119
      },
      "arrival": 59040,
      "departure": 59040
    },
    {
      "stop": {
        "id": "2_1120",
        "lat": 48.10998229,
        "lon": -1.67785697,
        "name": "République Jaurès",
        "code": 1120
      },
      "arrival": 59220,
      "departure": 59220
    },
    {
      "stop": {
        "id": "2_1121",
        "lat": 48.10607067,
        "lon": -1.6777658,
        "name": "Charles de Gaulle",
        "code": 1121
      },
      "arrival": 59340,
      "departure": 59340
    },
    {
      "stop": {
        "id": "2_1122",
        "lat": 48.10306416,
        "lon": -1.67682716,
        "name": "Gare Sud Féval",
        "code": 1122
      },
      "arrival": 59400,
      "departure": 59400
    },
    {
      "stop": {
        "id": "2_1123",
        "lat": 48.09916061,
        "lon": -1.67570108,
        "name": "Ginguené",
        "code": 1123
      },
      "arrival": 59460,
      "departure": 59460
    },
    {
      "stop": {
        "id": "2_1124",
        "lat": 48.09733551,
        "lon": -1.67557993,
        "name": "Jacques Cartier",
        "code": 1124
      },
      "arrival": 59520,
      "departure": 59520
    },
    {
      "stop": {
        "id": "2_1125",
        "lat": 48.09690529,
        "lon": -1.67914824,
        "name": "Sacrés Coeurs",
        "code": 1125
      },
      "arrival": 59580,
      "departure": 59580
    },
    {
      "stop": {
        "id": "2_1126",
        "lat": 48.09602989,
        "lon": -1.68166781,
        "name": "Garigliano",
        "code": 1126
      },
      "arrival": 59640,
      "departure": 59640
    },
    {
      "stop": {
        "id": "2_1127",
        "lat": 48.09306489,
        "lon": -1.68187605,
        "name": "Frères Moines",
        "code": 1127
      },
      "arrival": 59700,
      "departure": 59700
    },
    {
      "stop": {
        "id": "2_1128",
        "lat": 48.09103622,
        "lon": -1.68211341,
        "name": "Champs Manceaux",
        "code": 1128
      },
      "arrival": 59760,
      "departure": 59760
    },
    {
      "stop": {
        "id": "2_1129",
        "lat": 48.08727486,
        "lon": -1.68239903,
        "name": "Suède",
        "code": 1129
      },
      "arrival": 59880,
      "departure": 59880
    },
    {
      "stop": {
        "id": "2_1130",
        "lat": 48.08520713,
        "lon": -1.6824849,
        "name": "Canada",
        "code": 1130
      },
      "arrival": 59940,
      "departure": 59940
    },
    {
      "stop": {
        "id": "2_1623",
        "lat": 48.083999,
        "lon": -1.67885,
        "name": "Alma",
        "code": 1623
      },
      "arrival": 60000,
      "departure": 60000
    },
    {
      "stop": {
        "id": "2_1564",
        "lat": 48.08782223,
        "lon": -1.67459024,
        "name": "Henri Fréville",
        "code": 1564
      },
      "arrival": 60120,
      "departure": 60120
    }
  ],
  "route": {
    "id": "2_0003",
    "textColor": "FFFFFF",
    "color": "00843A",
    "description": "Majeure",
    "longName": "Saint-Laurent \u003c\u003e Henri Fréville",
    "shortName": "3",
    "type": 3,
    "agencyId": "2"
  }
}