{
  "headsign": "11 | Saint-Saëns",
  "stopTimes": [
    {
      "stop": {
        "id": "2_1234",
        "lat": 48.10775888,
        "lon": -1.71484897,
        "name": "Stade Rennais",
        "code": 1234
      },
      "arrival": 48900,
      "departure": 48900
    },
    {
      "stop": {
        "id": "2_1235",
        "lat": 48.10892663,
        "lon": -1.70977108,
        "name": "Géniaux",
        "code": 1235
      },
      "arrival": 48960,
      "departure": 48960
    },
    {
      "stop": {
        "id": "2_1236",
        "lat": 48.10881331,
        "lon": -1.7056153,
        "name": "Kerviler",
        "code": 1236
      },
      "arrival": 49020,
      "departure": 49020
    },
    {
      "stop": {
        "id": "2_1237",
        "lat": 48.10773621,
        "lon": -1.70211405,
        "name": "Papeteries",
        "code": 1237
      },
      "arrival": 49080,
      "departure": 49080
    },
    {
      "stop": {
        "id": "2_1238",
        "lat": 48.1086959,
        "lon": -1.69884796,
        "name": "Guilloux Lorient",
        "code": 1238
      },
      "arrival": 49140,
      "departure": 49140
    },
    {
      "stop": {
        "id": "2_1239",
        "lat": 48.10814248,
        "lon": -1.6948685,
        "name": "Chèques Postaux",
        "code": 1239
      },
      "arrival": 49200,
      "departure": 49200
    },
    {
      "stop": {
        "id": "2_1240",
        "lat": 48.10927186,
        "lon": -1.68970708,
        "name": "Le Mail",
        "code": 1240
      },
      "arrival": 49320,
      "departure": 49320
    },
    {
      "stop": {
        "id": "2_1091",
        "lat": 48.10977885,
        "lon": -1.68388248,
        "name": "Place de Bretagne",
        "code": 1091
      },
      "arrival": 49440,
      "departure": 49440
    },
    {
      "stop": {
        "id": "2_1242",
        "lat": 48.10980333,
        "lon": -1.6795219,
        "name": "République",
        "code": 1242
      },
      "arrival": 49620,
      "departure": 49620
    },
    {
      "stop": {
        "id": "2_1088",
        "lat": 48.10744897,
        "lon": -1.67491383,
        "name": "Liberté TNB",
        "code": 1088
      },
      "arrival": 49800,
      "departure": 49800
    },
    {
      "stop": {
        "id": "2_1087",
        "lat": 48.1060299,
        "lon": -1.67410184,
        "name": "Champs Libres",
        "code": 1087
      },
      "arrival": 49920,
      "departure": 49920
    },
    {
      "stop": {
        "id": "2_1086",
        "lat": 48.10400351,
        "lon": -1.67201145,
        "name": "Gares",
        "code": 1086
      },
      "arrival": 49980,
      "departure": 49980
    },
    {
      "stop": {
        "id": "2_1085",
        "lat": 48.10473324,
        "lon": -1.66565625,
        "name": "Laënnec",
        "code": 1085
      },
      "arrival": 50100,
      "departure": 50100
    },
    {
      "stop": {
        "id": "2_1243",
        "lat": 48.10254897,
        "lon": -1.66111869,
        "name": "Croix Saint-Hélier",
        "code": 1243
      },
      "arrival": 50160,
      "departure": 50160
    },
    {
      "stop": {
        "id": "2_1244",
        "lat": 48.10229227,
        "lon": -1.65513195,
        "name": "Mouézy",
        "code": 1244
      },
      "arrival": 50220,
      "departure": 50220
    },
    {
      "stop": {
        "id": "2_1211",
        "lat": 48.10317679,
        "lon": -1.65251241,
        "name": "Serpette",
        "code": 1211
      },
      "arrival": 50280,
      "departure": 50280
    },
    {
      "stop": {
        "id": "2_1246",
        "lat": 48.10439597,
        "lon": -1.64934184,
        "name": "Cimetière de l\u0027Est",
        "code": 1246
      },
      "arrival": 50340,
      "departure": 50340
    },
    {
      "stop": {
        "id": "2_1247",
        "lat": 48.10491097,
        "lon": -1.64382886,
        "name": "Pavie",
        "code": 1247
      },
      "arrival": 50400,
      "departure": 50400
    },
    {
      "stop": {
        "id": "2_1208",
        "lat": 48.10411631,
        "lon": -1.63768938,
        "name": "Saint-Saëns",
        "code": 1208
      },
      "arrival": 50520,
      "departure": 50520
    }
  ],
  "route": {
    "id": "2_0011",
    "textColor": "FFFFFF",
    "color": "DC81AE",
    "description": "Urbaine",
    "longName": "ZI Ouest / Stade Rennais \u003c\u003e Saint-Saëns / ZI Sud-Est",
    "shortName": "11",
    "type": 3,
    "agencyId": "2"
  }
}