{
  "headsign": "161 | Bourgbarré",
  "stopTimes": [
    {
      "stop": {
        "id": "2_1534",
        "lat": 48.08831453,
        "lon": -1.67444337,
        "name": "Henri Fréville",
        "code": 1534
      },
      "arrival": 67500,
      "departure": 67500
    },
    {
      "stop": {
        "id": "2_1465",
        "lat": 48.08611757,
        "lon": -1.66106774,
        "name": "Triangle",
        "code": 1465
      },
      "arrival": 67800,
      "departure": 67800
    },
    {
      "stop": {
        "id": "2_2730",
        "lat": 48.04624051,
        "lon": -1.66470375,
        "name": "Croix de Pierre",
        "code": 2730
      },
      "arrival": 68160,
      "departure": 68160
    },
    {
      "stop": {
        "id": "2_2731",
        "lat": 48.04294494,
        "lon": -1.66597246,
        "name": "Centre",
        "code": 2731
      },
      "arrival": 68220,
      "departure": 68220
    },
    {
      "stop": {
        "id": "2_2733",
        "lat": 48.03487037,
        "lon": -1.66409088,
        "name": "Côteaux",
        "code": 2733
      },
      "arrival": 68340,
      "departure": 68340
    },
    {
      "stop": {
        "id": "2_4360",
        "lat": 48.02156395,
        "lon": -1.65364618,
        "name": "Leuzières",
        "code": 4360
      },
      "arrival": 68520,
      "departure": 68520
    },
    {
      "stop": {
        "id": "2_4361",
        "lat": 48.01776753,
        "lon": -1.64957701,
        "name": "Croix Faucheux",
        "code": 4361
      },
      "arrival": 68580,
      "departure": 68580
    },
    {
      "stop": {
        "id": "2_3815",
        "lat": 47.99753101,
        "lon": -1.61890953,
        "name": "Rue de Rennes",
        "code": 3815
      },
      "arrival": 68820,
      "departure": 68820
    },
    {
      "stop": {
        "id": "2_3809",
        "lat": 47.99476166,
        "lon": -1.61410331,
        "name": "Bourgbarré Mairie",
        "code": 3809
      },
      "arrival": 68880,
      "departure": 68880
    },
    {
      "stop": {
        "id": "2_3801",
        "lat": 47.99009528,
        "lon": -1.6138293,
        "name": "Centre de Loisirs",
        "code": 3801
      },
      "arrival": 69060,
      "departure": 69060
    }
  ],
  "route": {
    "id": "2_0161",
    "textColor": "E43D6A",
    "color": "FCE000",
    "description": "Express métropolitaine",
    "longName": "Rennes (Henri Fréville) \u003c\u003e Noyal-Châtillon-sur-Seiche / Saint-Erblon / Bourgbarré",
    "shortName": "161",
    "type": 3,
    "agencyId": "2"
  }
}