{
  "headsign": "81 | Rennes Villejean-Université",
  "stopTimes": [
    {
      "stop": {
        "id": "2_6000",
        "lat": 48.218676,
        "lon": -1.893365,
        "name": "Romillé Collège",
        "code": 6000
      },
      "arrival": 60900,
      "departure": 60900
    },
    {
      "stop": {
        "id": "2_6002",
        "lat": 48.216709,
        "lon": -1.890934,
        "name": "Frères Aubert",
        "code": 6002
      },
      "arrival": 60960,
      "departure": 60960
    },
    {
      "stop": {
        "id": "2_6004",
        "lat": 48.2154,
        "lon": -1.892311,
        "name": "Romillé Mairie",
        "code": 6004
      },
      "arrival": 61080,
      "departure": 61080
    },
    {
      "stop": {
        "id": "2_6006",
        "lat": 48.212334,
        "lon": -1.890901,
        "name": "Mettrie Templiers",
        "code": 6006
      },
      "arrival": 61140,
      "departure": 61140
    },
    {
      "stop": {
        "id": "2_4452",
        "lat": 48.181419,
        "lon": -1.853554,
        "name": "Croix Simon",
        "code": 4452
      },
      "arrival": 61440,
      "departure": 61440
    },
    {
      "stop": {
        "id": "2_4460",
        "lat": 48.178058,
        "lon": -1.852853,
        "name": "La Cour aux Pages",
        "code": 4460
      },
      "arrival": 61500,
      "departure": 61500
    },
    {
      "stop": {
        "id": "2_4453",
        "lat": 48.176019,
        "lon": -1.85261,
        "name": "Clayes Centre",
        "code": 4453
      },
      "arrival": 61560,
      "departure": 61560
    },
    {
      "stop": {
        "id": "2_3732",
        "lat": 48.14933,
        "lon": -1.839024,
        "name": "Ile des Bois",
        "code": 3732
      },
      "arrival": 61920,
      "departure": 61920
    },
    {
      "stop": {
        "id": "2_3717",
        "lat": 48.153985,
        "lon": -1.8376,
        "name": "Maison Neuve",
        "code": 3717
      },
      "arrival": 61980,
      "departure": 61980
    },
    {
      "stop": {
        "id": "2_3715",
        "lat": 48.153745,
        "lon": -1.834034,
        "name": "Clos des Cerisiers",
        "code": 3715
      },
      "arrival": 62040,
      "departure": 62040
    },
    {
      "stop": {
        "id": "2_3705",
        "lat": 48.15298,
        "lon": -1.829806,
        "name": "Saint-Gilles Centre",
        "code": 3705
      },
      "arrival": 62040,
      "departure": 62040
    },
    {
      "stop": {
        "id": "2_3707",
        "lat": 48.150683,
        "lon": -1.825279,
        "name": "Pont aux Moines",
        "code": 3707
      },
      "arrival": 62160,
      "departure": 62160
    },
    {
      "stop": {
        "id": "2_3708",
        "lat": 48.152801,
        "lon": -1.820678,
        "name": "Vigne",
        "code": 3708
      },
      "arrival": 62220,
      "departure": 62220
    },
    {
      "stop": {
        "id": "2_3709",
        "lat": 48.152952,
        "lon": -1.809229,
        "name": "Fouaye",
        "code": 3709
      },
      "arrival": 62340,
      "departure": 62340
    },
    {
      "stop": {
        "id": "2_3102",
        "lat": 48.151381,
        "lon": -1.792259,
        "name": "Pie Neuve",
        "code": 3102
      },
      "arrival": 62460,
      "departure": 62460
    },
    {
      "stop": {
        "id": "2_3103",
        "lat": 48.149232,
        "lon": -1.788989,
        "name": "Docteur Léon",
        "code": 3103
      },
      "arrival": 62520,
      "departure": 62520
    },
    {
      "stop": {
        "id": "2_3104",
        "lat": 48.148463,
        "lon": -1.784791,
        "name": "Touche Milon",
        "code": 3104
      },
      "arrival": 62520,
      "departure": 62520
    },
    {
      "stop": {
        "id": "2_3119",
        "lat": 48.147515,
        "lon": -1.781103,
        "name": "Pinault",
        "code": 3119
      },
      "arrival": 62580,
      "departure": 62580
    },
    {
      "stop": {
        "id": "2_3134",
        "lat": 48.141622,
        "lon": -1.770457,
        "name": "Nominoë",
        "code": 3134
      },
      "arrival": 62700,
      "departure": 62700
    },
    {
      "stop": {
        "id": "2_1517",
        "lat": 48.118565,
        "lon": -1.713574,
        "name": "Berry",
        "code": 1517
      },
      "arrival": 63060,
      "departure": 63060
    },
    {
      "stop": {
        "id": "2_1520",
        "lat": 48.120473,
        "lon": -1.709574,
        "name": "Bourbonnais",
        "code": 1520
      },
      "arrival": 63180,
      "departure": 63180
    },
    {
      "stop": {
        "id": "2_1497",
        "lat": 48.120973,
        "lon": -1.70298,
        "name": "Villejean-Université",
        "code": 1497
      },
      "arrival": 63300,
      "departure": 63300
    }
  ],
  "route": {
    "id": "2_0081",
    "textColor": "FFFFFF",
    "color": "0081C6",
    "description": "Métropolitaine",
    "longName": "Rennes (Villejean-Université) \u003c\u003e Clayes / Romillé",
    "shortName": "81",
    "type": 3,
    "agencyId": "2"
  }
}