{
  "headsign": "5 | Patton",
  "stopTimes": [
    {
      "stop": {
        "id": "2_1269",
        "lat": 48.08423941,
        "lon": -1.69207225,
        "name": "Lycée Bréquigny",
        "code": 1269
      },
      "arrival": 46560,
      "departure": 46560
    },
    {
      "stop": {
        "id": "2_1270",
        "lat": 48.08578354,
        "lon": -1.69404539,
        "name": "Félix Eboué",
        "code": 1270
      },
      "arrival": 46620,
      "departure": 46620
    },
    {
      "stop": {
        "id": "2_2257",
        "lat": 48.0870383,
        "lon": -1.69467527,
        "name": "Pressoirs",
        "code": 2257
      },
      "arrival": 46680,
      "departure": 46680
    },
    {
      "stop": {
        "id": "2_1453",
        "lat": 48.08974508,
        "lon": -1.69303205,
        "name": "Pigeon Blanc",
        "code": 1453
      },
      "arrival": 46740,
      "departure": 46740
    },
    {
      "stop": {
        "id": "2_1273",
        "lat": 48.09269072,
        "lon": -1.69127533,
        "name": "Saint-Yves",
        "code": 1273
      },
      "arrival": 46800,
      "departure": 46800
    },
    {
      "stop": {
        "id": "2_1274",
        "lat": 48.09503109,
        "lon": -1.69000293,
        "name": "Pilate",
        "code": 1274
      },
      "arrival": 46860,
      "departure": 46860
    },
    {
      "stop": {
        "id": "2_1275",
        "lat": 48.09745816,
        "lon": -1.6885901,
        "name": "Mermoz",
        "code": 1275
      },
      "arrival": 46920,
      "departure": 46920
    },
    {
      "stop": {
        "id": "2_1276",
        "lat": 48.09970592,
        "lon": -1.68624612,
        "name": "Foyer Rennais",
        "code": 1276
      },
      "arrival": 46980,
      "departure": 46980
    },
    {
      "stop": {
        "id": "2_1277",
        "lat": 48.10216859,
        "lon": -1.68416325,
        "name": "Pont de Nantes",
        "code": 1277
      },
      "arrival": 47040,
      "departure": 47040
    },
    {
      "stop": {
        "id": "2_1021",
        "lat": 48.10550614,
        "lon": -1.68388047,
        "name": "Cité Judiciaire",
        "code": 1021
      },
      "arrival": 47100,
      "departure": 47100
    },
    {
      "stop": {
        "id": "2_1022",
        "lat": 48.10622878,
        "lon": -1.68080951,
        "name": "Plélo Colombier",
        "code": 1022
      },
      "arrival": 47220,
      "departure": 47220
    },
    {
      "stop": {
        "id": "2_1023",
        "lat": 48.10798151,
        "lon": -1.68011595,
        "name": "Les Halles",
        "code": 1023
      },
      "arrival": 47280,
      "departure": 47280
    },
    {
      "stop": {
        "id": "2_1016",
        "lat": 48.11007256,
        "lon": -1.6801671,
        "name": "République Nemours",
        "code": 1016
      },
      "arrival": 47400,
      "departure": 47400
    },
    {
      "stop": {
        "id": "2_1025",
        "lat": 48.11273566,
        "lon": -1.68025817,
        "name": "Champ Jacquet",
        "code": 1025
      },
      "arrival": 47460,
      "departure": 47460
    },
    {
      "stop": {
        "id": "2_1026",
        "lat": 48.11478452,
        "lon": -1.67927843,
        "name": "Sainte-Anne",
        "code": 1026
      },
      "arrival": 47580,
      "departure": 47580
    },
    {
      "stop": {
        "id": "2_1278",
        "lat": 48.11709412,
        "lon": -1.67786765,
        "name": "Hôtel Dieu",
        "code": 1278
      },
      "arrival": 47640,
      "departure": 47640
    },
    {
      "stop": {
        "id": "2_1279",
        "lat": 48.11946401,
        "lon": -1.67448311,
        "name": "Rectorat",
        "code": 1279
      },
      "arrival": 47700,
      "departure": 47700
    },
    {
      "stop": {
        "id": "2_1280",
        "lat": 48.12141907,
        "lon": -1.67087311,
        "name": "Jules Ferry",
        "code": 1280
      },
      "arrival": 47760,
      "departure": 47760
    },
    {
      "stop": {
        "id": "2_1281",
        "lat": 48.12528439,
        "lon": -1.66636805,
        "name": "Volney",
        "code": 1281
      },
      "arrival": 47880,
      "departure": 47880
    },
    {
      "stop": {
        "id": "2_1282",
        "lat": 48.12661537,
        "lon": -1.66533269,
        "name": "Gros Chêne",
        "code": 1282
      },
      "arrival": 47940,
      "departure": 47940
    },
    {
      "stop": {
        "id": "2_1283",
        "lat": 48.12879195,
        "lon": -1.663837,
        "name": "Rochester",
        "code": 1283
      },
      "arrival": 47940,
      "departure": 47940
    },
    {
      "stop": {
        "id": "2_1284",
        "lat": 48.13105022,
        "lon": -1.66440004,
        "name": "Houx Cité U.",
        "code": 1284
      },
      "arrival": 48000,
      "departure": 48000
    },
    {
      "stop": {
        "id": "2_1285",
        "lat": 48.13277864,
        "lon": -1.66759846,
        "name": "Morbihan",
        "code": 1285
      },
      "arrival": 48060,
      "departure": 48060
    },
    {
      "stop": {
        "id": "2_1286",
        "lat": 48.13270956,
        "lon": -1.67234326,
        "name": "Bellangerais",
        "code": 1286
      },
      "arrival": 48120,
      "departure": 48120
    },
    {
      "stop": {
        "id": "2_1287",
        "lat": 48.13491655,
        "lon": -1.67283484,
        "name": "Condate",
        "code": 1287
      },
      "arrival": 48180,
      "departure": 48180
    },
    {
      "stop": {
        "id": "2_1288",
        "lat": 48.13668515,
        "lon": -1.67074244,
        "name": "Neruda",
        "code": 1288
      },
      "arrival": 48240,
      "departure": 48240
    },
    {
      "stop": {
        "id": "2_1289",
        "lat": 48.13658555,
        "lon": -1.66756896,
        "name": "Monts d\u0027Arrée",
        "code": 1289
      },
      "arrival": 48300,
      "departure": 48300
    },
    {
      "stop": {
        "id": "2_1252",
        "lat": 48.13876768,
        "lon": -1.66595729,
        "name": "Patton",
        "code": 1252
      },
      "arrival": 48360,
      "departure": 48360
    }
  ],
  "route": {
    "id": "2_0005",
    "textColor": "ffffff",
    "color": "eb8200",
    "description": "Majeure",
    "longName": "Patton \u003c\u003e Lycée Bréquigny",
    "shortName": "5",
    "type": 3,
    "agencyId": "2"
  }
}