{
  "headsign": "STN | République",
  "stopTimes": [
    {
      "stop": {
        "id": "2_1568",
        "lat": 48.121028,
        "lon": -1.713571,
        "name": "Kennedy Guyenne",
        "code": 1568
      },
      "arrival": 6000,
      "departure": 6000
    },
    {
      "stop": {
        "id": "2_1520",
        "lat": 48.120473,
        "lon": -1.709574,
        "name": "Bourbonnais",
        "code": 1520
      },
      "arrival": 6060,
      "departure": 6060
    },
    {
      "stop": {
        "id": "2_1305",
        "lat": 48.127565,
        "lon": -1.703293,
        "name": "Olympe de Gouges",
        "code": 1305
      },
      "arrival": 6300,
      "departure": 6300
    },
    {
      "stop": {
        "id": "2_1306",
        "lat": 48.12525,
        "lon": -1.703189,
        "name": "Bois Labbé",
        "code": 1306
      },
      "arrival": 6360,
      "departure": 6360
    },
    {
      "stop": {
        "id": "2_1307",
        "lat": 48.121755,
        "lon": -1.703954,
        "name": "Villejean-Université",
        "code": 1307
      },
      "arrival": 6420,
      "departure": 6420
    },
    {
      "stop": {
        "id": "2_1308",
        "lat": 48.118926,
        "lon": -1.704736,
        "name": "Université",
        "code": 1308
      },
      "arrival": 6480,
      "departure": 6480
    },
    {
      "stop": {
        "id": "2_1309",
        "lat": 48.116745,
        "lon": -1.704803,
        "name": "Berger",
        "code": 1309
      },
      "arrival": 6540,
      "departure": 6540
    },
    {
      "stop": {
        "id": "2_1188",
        "lat": 48.114898,
        "lon": -1.701959,
        "name": "La Salle",
        "code": 1188
      },
      "arrival": 6600,
      "departure": 6600
    },
    {
      "stop": {
        "id": "2_1294",
        "lat": 48.111305,
        "lon": -1.701301,
        "name": "Marbeuf",
        "code": 1294
      },
      "arrival": 6720,
      "departure": 6720
    },
    {
      "stop": {
        "id": "2_1311",
        "lat": 48.10957,
        "lon": -1.698313,
        "name": "Guilloux",
        "code": 1311
      },
      "arrival": 6720,
      "departure": 6720
    },
    {
      "stop": {
        "id": "2_1239",
        "lat": 48.108256,
        "lon": -1.694158,
        "name": "Chèques Postaux",
        "code": 1239
      },
      "arrival": 6780,
      "departure": 6780
    },
    {
      "stop": {
        "id": "2_1240",
        "lat": 48.109271,
        "lon": -1.689587,
        "name": "Le Mail",
        "code": 1240
      },
      "arrival": 6900,
      "departure": 6900
    },
    {
      "stop": {
        "id": "2_1091",
        "lat": 48.109734,
        "lon": -1.68385,
        "name": "Place de Bretagne",
        "code": 1091
      },
      "arrival": 6960,
      "departure": 6960
    },
    {
      "stop": {
        "id": "2_1168",
        "lat": 48.109761,
        "lon": -1.678807,
        "name": "République",
        "code": 1168
      },
      "arrival": 7020,
      "departure": 7020
    }
  ],
  "route": {
    "id": "2_0805",
    "textColor": "FFFFFF",
    "color": "004B96",
    "description": "Spéciale",
    "longName": "STAR de Nuit - Beaulieu Atalante \u003c\u003e J.F. Kennedy",
    "shortName": "STN",
    "type": 3,
    "agencyId": "2"
  }
}