{
  "headsign": "64 | Rennes République",
  "stopTimes": [
    {
      "stop": {
        "id": "2_4001",
        "lat": 48.13701918,
        "lon": -1.52637517,
        "name": "Timonière",
        "code": 4001
      },
      "arrival": 57000,
      "departure": 57000
    },
    {
      "stop": {
        "id": "2_4002",
        "lat": 48.13696093,
        "lon": -1.53304901,
        "name": "Verdaudais",
        "code": 4002
      },
      "arrival": 57120,
      "departure": 57120
    },
    {
      "stop": {
        "id": "2_4003",
        "lat": 48.13419518,
        "lon": -1.53491257,
        "name": "Acigné Mairie",
        "code": 4003
      },
      "arrival": 57180,
      "departure": 57180
    },
    {
      "stop": {
        "id": "2_4004",
        "lat": 48.13391306,
        "lon": -1.53776926,
        "name": "Foyer",
        "code": 4004
      },
      "arrival": 57240,
      "departure": 57240
    },
    {
      "stop": {
        "id": "2_4018",
        "lat": 48.13398435,
        "lon": -1.54045772,
        "name": "Lande",
        "code": 4018
      },
      "arrival": 57300,
      "departure": 57300
    },
    {
      "stop": {
        "id": "2_4006",
        "lat": 48.13719872,
        "lon": -1.54956474,
        "name": "Pont d\u0027Ohin",
        "code": 4006
      },
      "arrival": 57360,
      "departure": 57360
    },
    {
      "stop": {
        "id": "2_4007",
        "lat": 48.13905954,
        "lon": -1.55878783,
        "name": "Boulais",
        "code": 4007
      },
      "arrival": 57420,
      "departure": 57420
    },
    {
      "stop": {
        "id": "2_3317",
        "lat": 48.14105238,
        "lon": -1.57365219,
        "name": "Pâtis du Moulinet",
        "code": 3317
      },
      "arrival": 57540,
      "departure": 57540
    },
    {
      "stop": {
        "id": "2_2101",
        "lat": 48.13172609,
        "lon": -1.59790196,
        "name": "Saint-Etienne",
        "code": 2101
      },
      "arrival": 57720,
      "departure": 57720
    },
    {
      "stop": {
        "id": "2_2079",
        "lat": 48.12879761,
        "lon": -1.60595425,
        "name": "Verger",
        "code": 2079
      },
      "arrival": 57780,
      "departure": 57780
    },
    {
      "stop": {
        "id": "2_2080",
        "lat": 48.12734995,
        "lon": -1.61277526,
        "name": "Gaudais",
        "code": 2080
      },
      "arrival": 57840,
      "departure": 57840
    },
    {
      "stop": {
        "id": "2_2082",
        "lat": 48.12693602,
        "lon": -1.61988832,
        "name": "Bouriande",
        "code": 2082
      },
      "arrival": 57900,
      "departure": 57900
    },
    {
      "stop": {
        "id": "2_2044",
        "lat": 48.1273076,
        "lon": -1.62420233,
        "name": "Belle Fontaine",
        "code": 2044
      },
      "arrival": 57960,
      "departure": 57960
    },
    {
      "stop": {
        "id": "2_2045",
        "lat": 48.12734821,
        "lon": -1.62821813,
        "name": "Clos Courtel",
        "code": 2045
      },
      "arrival": 57960,
      "departure": 57960
    },
    {
      "stop": {
        "id": "2_1177",
        "lat": 48.12187978,
        "lon": -1.640286,
        "name": "Beaulieu Restau U",
        "code": 1177
      },
      "arrival": 58140,
      "departure": 58140
    },
    {
      "stop": {
        "id": "2_1178",
        "lat": 48.12078326,
        "lon": -1.64386488,
        "name": "Beaulieu Cité U",
        "code": 1178
      },
      "arrival": 58200,
      "departure": 58200
    },
    {
      "stop": {
        "id": "2_1432",
        "lat": 48.11876913,
        "lon": -1.64990717,
        "name": "Vitré Foulon",
        "code": 1432
      },
      "arrival": 58260,
      "departure": 58260
    },
    {
      "stop": {
        "id": "2_1513",
        "lat": 48.1153356,
        "lon": -1.64843846,
        "name": "Bois Perrin",
        "code": 1513
      },
      "arrival": 58320,
      "departure": 58320
    },
    {
      "stop": {
        "id": "2_1514",
        "lat": 48.11333583,
        "lon": -1.64760506,
        "name": "Moulin de Joué",
        "code": 1514
      },
      "arrival": 58380,
      "departure": 58380
    },
    {
      "stop": {
        "id": "2_1163",
        "lat": 48.1101066,
        "lon": -1.66054614,
        "name": "Robidou",
        "code": 1163
      },
      "arrival": 58620,
      "departure": 58620
    },
    {
      "stop": {
        "id": "2_1166",
        "lat": 48.10988328,
        "lon": -1.67512929,
        "name": "Musée Beaux Arts",
        "code": 1166
      },
      "arrival": 58800,
      "departure": 58800
    },
    {
      "stop": {
        "id": "2_1167",
        "lat": 48.10936738,
        "lon": -1.678658,
        "name": "République Pré Botté",
        "code": 1167
      },
      "arrival": 58860,
      "departure": 58860
    }
  ],
  "route": {
    "id": "2_0064",
    "textColor": "FFFFFF",
    "color": "0094D8",
    "description": "Métropolitaine",
    "longName": "Rennes (République) \u003c\u003e Acigné",
    "shortName": "64",
    "type": 3,
    "agencyId": "2"
  }
}