{
  "headsign": "70 | Rennes Hoche",
  "stopTimes": [
    {
      "stop": {
        "id": "2_3951",
        "lat": 48.22528095,
        "lon": -1.57037306,
        "name": "Cropy",
        "code": 3951
      },
      "arrival": 26100,
      "departure": 26100
    },
    {
      "stop": {
        "id": "2_3952",
        "lat": 48.223221,
        "lon": -1.5763179,
        "name": "Chesnais",
        "code": 3952
      },
      "arrival": 26160,
      "departure": 26160
    },
    {
      "stop": {
        "id": "2_3953",
        "lat": 48.21792113,
        "lon": -1.58142255,
        "name": "Bourg",
        "code": 3953
      },
      "arrival": 26280,
      "departure": 26280
    },
    {
      "stop": {
        "id": "2_3960",
        "lat": 48.2146956,
        "lon": -1.58674396,
        "name": "Terrain des Sports",
        "code": 3960
      },
      "arrival": 26400,
      "departure": 26400
    },
    {
      "stop": {
        "id": "2_3955",
        "lat": 48.21169143,
        "lon": -1.59075734,
        "name": "Tronchay",
        "code": 3955
      },
      "arrival": 26460,
      "departure": 26460
    },
    {
      "stop": {
        "id": "2_3964",
        "lat": 48.20387938,
        "lon": -1.59463442,
        "name": "Lande Saint Denis",
        "code": 3964
      },
      "arrival": 26520,
      "departure": 26520
    },
    {
      "stop": {
        "id": "2_3956",
        "lat": 48.1998183,
        "lon": -1.59754322,
        "name": "Oliverie",
        "code": 3956
      },
      "arrival": 26520,
      "departure": 26520
    },
    {
      "stop": {
        "id": "2_2422",
        "lat": 48.18224318,
        "lon": -1.61598527,
        "name": "Petite Hublais",
        "code": 2422
      },
      "arrival": 26700,
      "departure": 26700
    },
    {
      "stop": {
        "id": "2_2423",
        "lat": 48.17542874,
        "lon": -1.62289518,
        "name": "Cour Neuve",
        "code": 2423
      },
      "arrival": 26820,
      "departure": 26820
    },
    {
      "stop": {
        "id": "2_2424",
        "lat": 48.17098545,
        "lon": -1.62219591,
        "name": "Champ Giron",
        "code": 2424
      },
      "arrival": 26880,
      "departure": 26880
    },
    {
      "stop": {
        "id": "2_2425",
        "lat": 48.16381456,
        "lon": -1.62508425,
        "name": "Tihouït",
        "code": 2425
      },
      "arrival": 27000,
      "departure": 27000
    },
    {
      "stop": {
        "id": "2_2076",
        "lat": 48.13406638,
        "lon": -1.6290629,
        "name": "Lande Bouhard",
        "code": 2076
      },
      "arrival": 27540,
      "departure": 27540
    },
    {
      "stop": {
        "id": "2_1484",
        "lat": 48.13185966,
        "lon": -1.63589821,
        "name": "ZA Saint-Sulpice (ex Gaudinais)",
        "code": 1484
      },
      "arrival": 27600,
      "departure": 27600
    },
    {
      "stop": {
        "id": "2_1483",
        "lat": 48.12955581,
        "lon": -1.64358619,
        "name": "Pâtis Tatelin (ex ZAC Saint-Sulpice)",
        "code": 1483
      },
      "arrival": 27720,
      "departure": 27720
    },
    {
      "stop": {
        "id": "2_1409",
        "lat": 48.12687029,
        "lon": -1.65316527,
        "name": "Joliot-Curie",
        "code": 1409
      },
      "arrival": 27840,
      "departure": 27840
    },
    {
      "stop": {
        "id": "2_1008",
        "lat": 48.12317413,
        "lon": -1.6602443,
        "name": "Painlevé",
        "code": 1008
      },
      "arrival": 28020,
      "departure": 28020
    },
    {
      "stop": {
        "id": "2_1009",
        "lat": 48.12162483,
        "lon": -1.6631771,
        "name": "Metz Volney",
        "code": 1009
      },
      "arrival": 28080,
      "departure": 28080
    },
    {
      "stop": {
        "id": "2_1011",
        "lat": 48.11830509,
        "lon": -1.67120349,
        "name": "Fac de Droit",
        "code": 1011
      },
      "arrival": 28260,
      "departure": 28260
    },
    {
      "stop": {
        "id": "2_1606",
        "lat": 48.11563109,
        "lon": -1.67670645,
        "name": "Hoche",
        "code": 1606
      },
      "arrival": 28380,
      "departure": 28380
    }
  ],
  "route": {
    "id": "2_0070",
    "textColor": "FFFFFF",
    "color": "EC748D",
    "description": "Métropolitaine",
    "longName": "Rennes (Hoche) \u003c\u003e Saint-Sulpice-la-Forêt",
    "shortName": "70",
    "type": 3,
    "agencyId": "2"
  }
}