{
  "headsign": "81 | Pacé Saint-Gilles Clayes Romillé",
  "stopTimes": [
    {
      "stop": {
        "id": "2_1551",
        "lat": 48.10989761,
        "lon": -1.67826219,
        "name": "République",
        "code": 1551
      },
      "arrival": 92100,
      "departure": 92100
    },
    {
      "stop": {
        "id": "2_1497",
        "lat": 48.12102411,
        "lon": -1.70300103,
        "name": "Villejean-Université",
        "code": 1497
      },
      "arrival": 92640,
      "departure": 92640
    },
    {
      "stop": {
        "id": "2_1518",
        "lat": 48.12062672,
        "lon": -1.71046453,
        "name": "Bourbonnais",
        "code": 1518
      },
      "arrival": 92760,
      "departure": 92760
    },
    {
      "stop": {
        "id": "2_1521",
        "lat": 48.11845974,
        "lon": -1.71376004,
        "name": "Berry",
        "code": 1521
      },
      "arrival": 92820,
      "departure": 92820
    },
    {
      "stop": {
        "id": "2_3135",
        "lat": 48.14172254,
        "lon": -1.77090905,
        "name": "Nominoë",
        "code": 3135
      },
      "arrival": 93180,
      "departure": 93180
    },
    {
      "stop": {
        "id": "2_3105",
        "lat": 48.14754061,
        "lon": -1.78105296,
        "name": "Pinault",
        "code": 3105
      },
      "arrival": 93300,
      "departure": 93300
    },
    {
      "stop": {
        "id": "2_3120",
        "lat": 48.14853531,
        "lon": -1.78475327,
        "name": "Touche Milon",
        "code": 3120
      },
      "arrival": 93360,
      "departure": 93360
    },
    {
      "stop": {
        "id": "2_3121",
        "lat": 48.1492868,
        "lon": -1.78888968,
        "name": "Docteur Léon",
        "code": 3121
      },
      "arrival": 93360,
      "departure": 93360
    },
    {
      "stop": {
        "id": "2_3122",
        "lat": 48.15128452,
        "lon": -1.79230415,
        "name": "Pie Neuve",
        "code": 3122
      },
      "arrival": 93420,
      "departure": 93420
    },
    {
      "stop": {
        "id": "2_3710",
        "lat": 48.15356445,
        "lon": -1.81046986,
        "name": "Fouaye",
        "code": 3710
      },
      "arrival": 93540,
      "departure": 93540
    },
    {
      "stop": {
        "id": "2_3711",
        "lat": 48.15413317,
        "lon": -1.81993908,
        "name": "Vigne",
        "code": 3711
      },
      "arrival": 93600,
      "departure": 93600
    },
    {
      "stop": {
        "id": "2_3712",
        "lat": 48.15067999,
        "lon": -1.82479689,
        "name": "Pont aux Moines",
        "code": 3712
      },
      "arrival": 93720,
      "departure": 93720
    },
    {
      "stop": {
        "id": "2_3714",
        "lat": 48.15249376,
        "lon": -1.82982513,
        "name": "Saint-Gilles Centre",
        "code": 3714
      },
      "arrival": 93780,
      "departure": 93780
    },
    {
      "stop": {
        "id": "2_3724",
        "lat": 48.15381862,
        "lon": -1.8340467,
        "name": "Clos des Cerisiers",
        "code": 3724
      },
      "arrival": 93780,
      "departure": 93780
    },
    {
      "stop": {
        "id": "2_3723",
        "lat": 48.15403633,
        "lon": -1.83780571,
        "name": "Maison Neuve",
        "code": 3723
      },
      "arrival": 93840,
      "departure": 93840
    },
    {
      "stop": {
        "id": "2_3732",
        "lat": 48.14932288,
        "lon": -1.83903709,
        "name": "Ile des Bois",
        "code": 3732
      },
      "arrival": 93960,
      "departure": 93960
    },
    {
      "stop": {
        "id": "2_4457",
        "lat": 48.17625101,
        "lon": -1.85250541,
        "name": "Clayes Centre",
        "code": 4457
      },
      "arrival": 94260,
      "departure": 94260
    },
    {
      "stop": {
        "id": "2_4459",
        "lat": 48.17812546,
        "lon": -1.85279449,
        "name": "La Cour aux Pages",
        "code": 4459
      },
      "arrival": 94320,
      "departure": 94320
    },
    {
      "stop": {
        "id": "2_4458",
        "lat": 48.18236273,
        "lon": -1.85310164,
        "name": "Croix Simon",
        "code": 4458
      },
      "arrival": 94380,
      "departure": 94380
    },
    {
      "stop": {
        "id": "2_6005",
        "lat": 48.21248705,
        "lon": -1.89091828,
        "name": "Mettrie Templiers",
        "code": 6005
      },
      "arrival": 94620,
      "departure": 94620
    },
    {
      "stop": {
        "id": "2_6003",
        "lat": 48.21491243,
        "lon": -1.89244054,
        "name": "Romillé Mairie",
        "code": 6003
      },
      "arrival": 94680,
      "departure": 94680
    },
    {
      "stop": {
        "id": "2_6001",
        "lat": 48.2169016,
        "lon": -1.89044066,
        "name": "Frères Aubert",
        "code": 6001
      },
      "arrival": 94740,
      "departure": 94740
    },
    {
      "stop": {
        "id": "2_6000",
        "lat": 48.21870667,
        "lon": -1.8933469,
        "name": "Romillé Collège",
        "code": 6000
      },
      "arrival": 94860,
      "departure": 94860
    }
  ],
  "route": {
    "id": "2_0081",
    "textColor": "FFFFFF",
    "color": "0081C6",
    "description": "Métropolitaine",
    "longName": "Rennes (Villejean-Université) \u003c\u003e Clayes / Romillé",
    "shortName": "81",
    "type": 3,
    "agencyId": "2"
  }
}