{
  "headsign": "11 | Saint-Saëns",
  "stopTimes": [
    {
      "stop": {
        "id": "2_3751",
        "lat": 48.107431,
        "lon": -1.739281,
        "name": "ZI Ouest",
        "code": 3751
      },
      "arrival": 55920,
      "departure": 55920
    },
    {
      "stop": {
        "id": "2_3752",
        "lat": 48.104704,
        "lon": -1.739009,
        "name": "Trois Marches",
        "code": 3752
      },
      "arrival": 55920,
      "departure": 55920
    },
    {
      "stop": {
        "id": "2_3769",
        "lat": 48.104169,
        "lon": -1.736036,
        "name": "Marais",
        "code": 3769
      },
      "arrival": 55980,
      "departure": 55980
    },
    {
      "stop": {
        "id": "2_1229",
        "lat": 48.101154,
        "lon": -1.731617,
        "name": "Servigné",
        "code": 1229
      },
      "arrival": 56040,
      "departure": 56040
    },
    {
      "stop": {
        "id": "2_1230",
        "lat": 48.102175,
        "lon": -1.726098,
        "name": "Jardin Moderne",
        "code": 1230
      },
      "arrival": 56100,
      "departure": 56100
    },
    {
      "stop": {
        "id": "2_1231",
        "lat": 48.103369,
        "lon": -1.723283,
        "name": "Robinot de St-Cyr",
        "code": 1231
      },
      "arrival": 56100,
      "departure": 56100
    },
    {
      "stop": {
        "id": "2_1232",
        "lat": 48.106259,
        "lon": -1.723704,
        "name": "Le Hô",
        "code": 1232
      },
      "arrival": 56160,
      "departure": 56160
    },
    {
      "stop": {
        "id": "2_1233",
        "lat": 48.107021,
        "lon": -1.72162,
        "name": "Lemaistre",
        "code": 1233
      },
      "arrival": 56220,
      "departure": 56220
    },
    {
      "stop": {
        "id": "2_1234",
        "lat": 48.107689,
        "lon": -1.714796,
        "name": "Stade Rennais",
        "code": 1234
      },
      "arrival": 56340,
      "departure": 56340
    },
    {
      "stop": {
        "id": "2_1235",
        "lat": 48.108898,
        "lon": -1.709658,
        "name": "Géniaux",
        "code": 1235
      },
      "arrival": 56400,
      "departure": 56400
    },
    {
      "stop": {
        "id": "2_1236",
        "lat": 48.10876,
        "lon": -1.705656,
        "name": "Kerviler",
        "code": 1236
      },
      "arrival": 56460,
      "departure": 56460
    },
    {
      "stop": {
        "id": "2_1237",
        "lat": 48.107689,
        "lon": -1.702121,
        "name": "Papeteries",
        "code": 1237
      },
      "arrival": 56520,
      "departure": 56520
    },
    {
      "stop": {
        "id": "2_1238",
        "lat": 48.108687,
        "lon": -1.698735,
        "name": "Guilloux Lorient",
        "code": 1238
      },
      "arrival": 56580,
      "departure": 56580
    },
    {
      "stop": {
        "id": "2_1239",
        "lat": 48.108256,
        "lon": -1.694158,
        "name": "Chèques Postaux",
        "code": 1239
      },
      "arrival": 56640,
      "departure": 56640
    },
    {
      "stop": {
        "id": "2_1240",
        "lat": 48.109271,
        "lon": -1.689587,
        "name": "Le Mail",
        "code": 1240
      },
      "arrival": 56760,
      "departure": 56760
    },
    {
      "stop": {
        "id": "2_1091",
        "lat": 48.109734,
        "lon": -1.68385,
        "name": "Place de Bretagne",
        "code": 1091
      },
      "arrival": 56880,
      "departure": 56880
    },
    {
      "stop": {
        "id": "2_1242",
        "lat": 48.109758,
        "lon": -1.679532,
        "name": "République",
        "code": 1242
      },
      "arrival": 57000,
      "departure": 57000
    },
    {
      "stop": {
        "id": "2_1088",
        "lat": 48.107377,
        "lon": -1.674981,
        "name": "Liberté TNB",
        "code": 1088
      },
      "arrival": 57180,
      "departure": 57180
    },
    {
      "stop": {
        "id": "2_1087",
        "lat": 48.105276,
        "lon": -1.673939,
        "name": "Champs Libres",
        "code": 1087
      },
      "arrival": 57240,
      "departure": 57240
    },
    {
      "stop": {
        "id": "2_1477",
        "lat": 48.103839,
        "lon": -1.67286,
        "name": "Gares",
        "code": 1477
      },
      "arrival": 57300,
      "departure": 57300
    },
    {
      "stop": {
        "id": "2_1085",
        "lat": 48.10471,
        "lon": -1.666557,
        "name": "Laënnec",
        "code": 1085
      },
      "arrival": 57420,
      "departure": 57420
    },
    {
      "stop": {
        "id": "2_1243",
        "lat": 48.102515,
        "lon": -1.661094,
        "name": "Croix Saint-Hélier",
        "code": 1243
      },
      "arrival": 57480,
      "departure": 57480
    },
    {
      "stop": {
        "id": "2_1244",
        "lat": 48.102217,
        "lon": -1.655063,
        "name": "Mouézy",
        "code": 1244
      },
      "arrival": 57540,
      "departure": 57540
    },
    {
      "stop": {
        "id": "2_1211",
        "lat": 48.103116,
        "lon": -1.652491,
        "name": "Serpette",
        "code": 1211
      },
      "arrival": 57600,
      "departure": 57600
    },
    {
      "stop": {
        "id": "2_1246",
        "lat": 48.104353,
        "lon": -1.64928,
        "name": "Cimetière de l\u0027Est",
        "code": 1246
      },
      "arrival": 57660,
      "departure": 57660
    },
    {
      "stop": {
        "id": "2_1247",
        "lat": 48.104868,
        "lon": -1.643656,
        "name": "Pavie",
        "code": 1247
      },
      "arrival": 57720,
      "departure": 57720
    },
    {
      "stop": {
        "id": "2_1208",
        "lat": 48.104165,
        "lon": -1.637787,
        "name": "Saint-Saëns",
        "code": 1208
      },
      "arrival": 57780,
      "departure": 57780
    }
  ],
  "route": {
    "id": "2_0011",
    "textColor": "FFFFFF",
    "color": "DD84B1",
    "description": "Urbaine",
    "longName": "ZI Ouest / Stade Rennais \u003c\u003e Saint-Saëns / La Poterie",
    "shortName": "11",
    "type": 3,
    "agencyId": "2"
  }
}