{
  "headsign": "9 | Cleunay",
  "stopTimes": [
    {
      "stop": {
        "id": "2_1372",
        "lat": 48.13840918,
        "lon": -1.65907086,
        "name": "Saint-Laurent",
        "code": 1372
      },
      "arrival": 87240,
      "departure": 87240
    },
    {
      "stop": {
        "id": "2_1159",
        "lat": 48.13439403,
        "lon": -1.65875427,
        "name": "Hôtel de Région",
        "code": 1159
      },
      "arrival": 87300,
      "departure": 87300
    },
    {
      "stop": {
        "id": "2_1374",
        "lat": 48.13324759,
        "lon": -1.65693216,
        "name": "Longs Prés",
        "code": 1374
      },
      "arrival": 87360,
      "departure": 87360
    },
    {
      "stop": {
        "id": "2_1375",
        "lat": 48.13013692,
        "lon": -1.65672512,
        "name": "Gast",
        "code": 1375
      },
      "arrival": 87420,
      "departure": 87420
    },
    {
      "stop": {
        "id": "2_1376",
        "lat": 48.12855272,
        "lon": -1.65712399,
        "name": "Europe",
        "code": 1376
      },
      "arrival": 87480,
      "departure": 87480
    },
    {
      "stop": {
        "id": "2_1377",
        "lat": 48.12679292,
        "lon": -1.65854407,
        "name": "Trégain",
        "code": 1377
      },
      "arrival": 87540,
      "departure": 87540
    },
    {
      "stop": {
        "id": "2_1378",
        "lat": 48.12493298,
        "lon": -1.66135545,
        "name": "Saint-Exupéry",
        "code": 1378
      },
      "arrival": 87600,
      "departure": 87600
    },
    {
      "stop": {
        "id": "2_1009",
        "lat": 48.12162483,
        "lon": -1.6631771,
        "name": "Metz Volney",
        "code": 1009
      },
      "arrival": 87720,
      "departure": 87720
    },
    {
      "stop": {
        "id": "2_1010",
        "lat": 48.11917574,
        "lon": -1.66765915,
        "name": "Guéhenno",
        "code": 1010
      },
      "arrival": 87780,
      "departure": 87780
    },
    {
      "stop": {
        "id": "2_1011",
        "lat": 48.11830509,
        "lon": -1.67120349,
        "name": "Fac de Droit",
        "code": 1011
      },
      "arrival": 87840,
      "departure": 87840
    },
    {
      "stop": {
        "id": "2_1012",
        "lat": 48.11618009,
        "lon": -1.67409822,
        "name": "Sévigné",
        "code": 1012
      },
      "arrival": 87900,
      "departure": 87900
    },
    {
      "stop": {
        "id": "2_1014",
        "lat": 48.11371103,
        "lon": -1.67903599,
        "name": "Sainte-Anne",
        "code": 1014
      },
      "arrival": 88020,
      "departure": 88020
    },
    {
      "stop": {
        "id": "2_1015",
        "lat": 48.11252173,
        "lon": -1.68031651,
        "name": "Champ Jacquet",
        "code": 1015
      },
      "arrival": 88080,
      "departure": 88080
    },
    {
      "stop": {
        "id": "2_1024",
        "lat": 48.10997886,
        "lon": -1.68021216,
        "name": "République Nemours",
        "code": 1024
      },
      "arrival": 88200,
      "departure": 88500
    },
    {
      "stop": {
        "id": "2_1017",
        "lat": 48.10834873,
        "lon": -1.6801754,
        "name": "Les Halles",
        "code": 1017
      },
      "arrival": 88560,
      "departure": 88560
    },
    {
      "stop": {
        "id": "2_1018",
        "lat": 48.10604754,
        "lon": -1.68160006,
        "name": "Plélo Colombier",
        "code": 1018
      },
      "arrival": 88680,
      "departure": 88680
    },
    {
      "stop": {
        "id": "2_1402",
        "lat": 48.10558068,
        "lon": -1.68517914,
        "name": "Cité Judiciaire",
        "code": 1402
      },
      "arrival": 88740,
      "departure": 88740
    },
    {
      "stop": {
        "id": "2_1611",
        "lat": 48.10546246,
        "lon": -1.6884217,
        "name": "Inkermann (futur Redon)",
        "code": 1611
      },
      "arrival": 88800,
      "departure": 88800
    },
    {
      "stop": {
        "id": "2_1616",
        "lat": 48.10330735,
        "lon": -1.68920582,
        "name": "Saint-Conwoïon",
        "code": 1616
      },
      "arrival": 88860,
      "departure": 88860
    },
    {
      "stop": {
        "id": "2_1381",
        "lat": 48.10510864,
        "lon": -1.69650072,
        "name": "Malakoff",
        "code": 1381
      },
      "arrival": 88980,
      "departure": 88980
    },
    {
      "stop": {
        "id": "2_1398",
        "lat": 48.10518896,
        "lon": -1.69863023,
        "name": "Voltaire",
        "code": 1398
      },
      "arrival": 89040,
      "departure": 89040
    },
    {
      "stop": {
        "id": "2_1397",
        "lat": 48.10361769,
        "lon": -1.70028046,
        "name": "Dargent",
        "code": 1397
      },
      "arrival": 89100,
      "departure": 89100
    },
    {
      "stop": {
        "id": "2_1384",
        "lat": 48.10261975,
        "lon": -1.70382543,
        "name": "Champion de Cicé",
        "code": 1384
      },
      "arrival": 89160,
      "departure": 89160
    },
    {
      "stop": {
        "id": "2_1385",
        "lat": 48.10069087,
        "lon": -1.70697779,
        "name": "De Lesseps",
        "code": 1385
      },
      "arrival": 89220,
      "departure": 89220
    },
    {
      "stop": {
        "id": "2_1386",
        "lat": 48.09893482,
        "lon": -1.70535446,
        "name": "Guérinais",
        "code": 1386
      },
      "arrival": 89280,
      "departure": 89280
    },
    {
      "stop": {
        "id": "2_1387",
        "lat": 48.09801007,
        "lon": -1.70819232,
        "name": "Récipon",
        "code": 1387
      },
      "arrival": 89340,
      "departure": 89340
    },
    {
      "stop": {
        "id": "2_1392",
        "lat": 48.09988042,
        "lon": -1.71123897,
        "name": "Montand",
        "code": 1392
      },
      "arrival": 89400,
      "departure": 89400
    },
    {
      "stop": {
        "id": "2_1389",
        "lat": 48.10121799,
        "lon": -1.71182929,
        "name": "Clinique La Sagesse",
        "code": 1389
      },
      "arrival": 89460,
      "departure": 89460
    },
    {
      "stop": {
        "id": "2_1390",
        "lat": 48.10413591,
        "lon": -1.71347582,
        "name": "Cleunay",
        "code": 1390
      },
      "arrival": 89520,
      "departure": 89520
    }
  ],
  "route": {
    "id": "2_0009",
    "textColor": "FFFFFF",
    "color": "004B9B",
    "description": "Majeure",
    "longName": "Saint-Laurent \u003c\u003e Cleunay",
    "shortName": "9",
    "type": 3,
    "agencyId": "2"
  }
}