{
  "headsign": "78 | Rennes Villejean-Université",
  "stopTimes": [
    {
      "stop": {
        "id": "2_2437",
        "lat": 48.18157224,
        "lon": -1.63928389,
        "name": "Betton Centre",
        "code": 2437
      },
      "arrival": 64500,
      "departure": 64500
    },
    {
      "stop": {
        "id": "2_2418",
        "lat": 48.18191158,
        "lon": -1.64120022,
        "name": "Betton Mairie",
        "code": 2418
      },
      "arrival": 64560,
      "departure": 64560
    },
    {
      "stop": {
        "id": "2_2448",
        "lat": 48.18380616,
        "lon": -1.64642136,
        "name": "Trégor",
        "code": 2448
      },
      "arrival": 64680,
      "departure": 64680
    },
    {
      "stop": {
        "id": "2_2438",
        "lat": 48.1849863,
        "lon": -1.65009721,
        "name": "Mézières",
        "code": 2438
      },
      "arrival": 64740,
      "departure": 64740
    },
    {
      "stop": {
        "id": "2_2454",
        "lat": 48.18321398,
        "lon": -1.65475608,
        "name": "Renaudais",
        "code": 2454
      },
      "arrival": 64800,
      "departure": 64800
    },
    {
      "stop": {
        "id": "2_2456",
        "lat": 48.17877727,
        "lon": -1.66093011,
        "name": "Pont Brand",
        "code": 2456
      },
      "arrival": 64980,
      "departure": 64980
    },
    {
      "stop": {
        "id": "2_2452",
        "lat": 48.17544354,
        "lon": -1.66235738,
        "name": "Chaperonnais",
        "code": 2452
      },
      "arrival": 65040,
      "departure": 65040
    },
    {
      "stop": {
        "id": "2_2833",
        "lat": 48.16021058,
        "lon": -1.67713605,
        "name": "Jean-Paul II",
        "code": 2833
      },
      "arrival": 65220,
      "departure": 65220
    },
    {
      "stop": {
        "id": "2_2831",
        "lat": 48.15358812,
        "lon": -1.67869141,
        "name": "Holywell",
        "code": 2831
      },
      "arrival": 65340,
      "departure": 65340
    },
    {
      "stop": {
        "id": "2_2848",
        "lat": 48.15187265,
        "lon": -1.68443158,
        "name": "Forge",
        "code": 2848
      },
      "arrival": 65460,
      "departure": 65460
    },
    {
      "stop": {
        "id": "2_2850",
        "lat": 48.15448628,
        "lon": -1.69261894,
        "name": "Paul-Emile Victor",
        "code": 2850
      },
      "arrival": 65640,
      "departure": 65640
    },
    {
      "stop": {
        "id": "2_2838",
        "lat": 48.15390514,
        "lon": -1.69683761,
        "name": "Alphasis",
        "code": 2838
      },
      "arrival": 65760,
      "departure": 65760
    },
    {
      "stop": {
        "id": "2_2852",
        "lat": 48.14792541,
        "lon": -1.69689328,
        "name": "Edonia",
        "code": 2852
      },
      "arrival": 65880,
      "departure": 65880
    },
    {
      "stop": {
        "id": "2_2817",
        "lat": 48.1430331,
        "lon": -1.68650406,
        "name": "CHP Saint-Grégoire",
        "code": 2817
      },
      "arrival": 66060,
      "departure": 66060
    },
    {
      "stop": {
        "id": "2_2803",
        "lat": 48.13739456,
        "lon": -1.6885143,
        "name": "La Plesse",
        "code": 2803
      },
      "arrival": 66240,
      "departure": 66240
    },
    {
      "stop": {
        "id": "2_2801",
        "lat": 48.13580525,
        "lon": -1.69311343,
        "name": "Grand Quartier",
        "code": 2801
      },
      "arrival": 66300,
      "departure": 66300
    },
    {
      "stop": {
        "id": "2_1543",
        "lat": 48.13134643,
        "lon": -1.69183513,
        "name": "Léonard",
        "code": 1543
      },
      "arrival": 66420,
      "departure": 66420
    },
    {
      "stop": {
        "id": "2_1493",
        "lat": 48.12716786,
        "lon": -1.69331907,
        "name": "Lycée Basch",
        "code": 1493
      },
      "arrival": 66540,
      "departure": 66540
    },
    {
      "stop": {
        "id": "2_1497",
        "lat": 48.12102411,
        "lon": -1.70300103,
        "name": "Villejean-Université",
        "code": 1497
      },
      "arrival": 66780,
      "departure": 66780
    }
  ],
  "route": {
    "id": "2_0078",
    "textColor": "FFFFFF",
    "color": "E3006A",
    "description": "Métropolitaine",
    "longName": "Rennes (Villejean-Université) \u003c\u003e Saint-Grégoire / Betton (Centre)",
    "shortName": "78",
    "type": 3,
    "agencyId": "2"
  }
}