{
  "headsign": "54 | Rennes Charles de Gaulle",
  "stopTimes": [
    {
      "stop": {
        "id": "2_4201",
        "lat": 48.0519556,
        "lon": -1.79762199,
        "name": "Croix Blanche",
        "code": 4201
      },
      "arrival": 61200,
      "departure": 61200
    },
    {
      "stop": {
        "id": "2_4202",
        "lat": 48.05201225,
        "lon": -1.79070221,
        "name": "Calvaire",
        "code": 4202
      },
      "arrival": 61320,
      "departure": 61320
    },
    {
      "stop": {
        "id": "2_4210",
        "lat": 48.05473857,
        "lon": -1.7901693,
        "name": "Alfred de Musset",
        "code": 4210
      },
      "arrival": 61380,
      "departure": 61380
    },
    {
      "stop": {
        "id": "2_4204",
        "lat": 48.05399506,
        "lon": -1.78384914,
        "name": "Avenir",
        "code": 4204
      },
      "arrival": 61440,
      "departure": 61440
    },
    {
      "stop": {
        "id": "2_4205",
        "lat": 48.05814164,
        "lon": -1.77631699,
        "name": "Grippay",
        "code": 4205
      },
      "arrival": 61560,
      "departure": 61560
    },
    {
      "stop": {
        "id": "2_3851",
        "lat": 48.07460255,
        "lon": -1.85367611,
        "name": "Mordelles Pâtis",
        "code": 3851
      },
      "arrival": 62160,
      "departure": 62160
    },
    {
      "stop": {
        "id": "2_3852",
        "lat": 48.07194172,
        "lon": -1.84998802,
        "name": "Mordelles Eglise",
        "code": 3852
      },
      "arrival": 62220,
      "departure": 62220
    },
    {
      "stop": {
        "id": "2_3853",
        "lat": 48.07371138,
        "lon": -1.84642407,
        "name": "Mordelles Mairie",
        "code": 3853
      },
      "arrival": 62280,
      "departure": 62280
    },
    {
      "stop": {
        "id": "2_3854",
        "lat": 48.07584083,
        "lon": -1.8422202,
        "name": "Mordelles Lilas",
        "code": 3854
      },
      "arrival": 62340,
      "departure": 62340
    },
    {
      "stop": {
        "id": "2_3855",
        "lat": 48.07771886,
        "lon": -1.83754903,
        "name": "Gretay",
        "code": 3855
      },
      "arrival": 62400,
      "departure": 62400
    },
    {
      "stop": {
        "id": "2_2502",
        "lat": 48.1005527,
        "lon": -1.80657108,
        "name": "Lycée Monod",
        "code": 2502
      },
      "arrival": 62760,
      "departure": 62760
    },
    {
      "stop": {
        "id": "2_2503",
        "lat": 48.09895197,
        "lon": -1.80139197,
        "name": "Champs Freslons",
        "code": 2503
      },
      "arrival": 62880,
      "departure": 62880
    },
    {
      "stop": {
        "id": "2_2504",
        "lat": 48.09897121,
        "lon": -1.79693897,
        "name": "Brassens",
        "code": 2504
      },
      "arrival": 62940,
      "departure": 62940
    },
    {
      "stop": {
        "id": "2_2505",
        "lat": 48.10163022,
        "lon": -1.79451553,
        "name": "Bouleaux",
        "code": 2505
      },
      "arrival": 63000,
      "departure": 63000
    },
    {
      "stop": {
        "id": "2_2506",
        "lat": 48.09931104,
        "lon": -1.79124998,
        "name": "Genêts",
        "code": 2506
      },
      "arrival": 63060,
      "departure": 63060
    },
    {
      "stop": {
        "id": "2_2507",
        "lat": 48.09755056,
        "lon": -1.78133332,
        "name": "Barberais",
        "code": 2507
      },
      "arrival": 63180,
      "departure": 63180
    },
    {
      "stop": {
        "id": "2_2508",
        "lat": 48.09687556,
        "lon": -1.77558132,
        "name": "Les Pins",
        "code": 2508
      },
      "arrival": 63240,
      "departure": 63240
    },
    {
      "stop": {
        "id": "2_2509",
        "lat": 48.09614161,
        "lon": -1.76472044,
        "name": "Pont d\u0027Avoine",
        "code": 2509
      },
      "arrival": 63360,
      "departure": 63360
    },
    {
      "stop": {
        "id": "2_2510",
        "lat": 48.10386756,
        "lon": -1.75043717,
        "name": "Plessix Saucourt",
        "code": 2510
      },
      "arrival": 63480,
      "departure": 63480
    },
    {
      "stop": {
        "id": "2_3752",
        "lat": 48.10474061,
        "lon": -1.73906178,
        "name": "Trois Marches",
        "code": 3752
      },
      "arrival": 63600,
      "departure": 63600
    },
    {
      "stop": {
        "id": "2_1508",
        "lat": 48.10673486,
        "lon": -1.7291459,
        "name": "Berthault",
        "code": 1508
      },
      "arrival": 63660,
      "departure": 63660
    },
    {
      "stop": {
        "id": "2_1233",
        "lat": 48.10704453,
        "lon": -1.72187845,
        "name": "Lemaistre",
        "code": 1233
      },
      "arrival": 63720,
      "departure": 63720
    },
    {
      "stop": {
        "id": "2_1235",
        "lat": 48.10892663,
        "lon": -1.70977108,
        "name": "Géniaux",
        "code": 1235
      },
      "arrival": 63840,
      "departure": 63840
    },
    {
      "stop": {
        "id": "2_1238",
        "lat": 48.10869591,
        "lon": -1.69884796,
        "name": "Guilloux Lorient",
        "code": 1238
      },
      "arrival": 63960,
      "departure": 63960
    },
    {
      "stop": {
        "id": "2_1239",
        "lat": 48.10827073,
        "lon": -1.6941653,
        "name": "Chèques Postaux",
        "code": 1239
      },
      "arrival": 64020,
      "departure": 64020
    },
    {
      "stop": {
        "id": "2_1542",
        "lat": 48.10997275,
        "lon": -1.68535336,
        "name": "Pont de Bretagne",
        "code": 1542
      },
      "arrival": 64200,
      "departure": 64200
    },
    {
      "stop": {
        "id": "2_1242",
        "lat": 48.10980333,
        "lon": -1.6795219,
        "name": "République",
        "code": 1242
      },
      "arrival": 64260,
      "departure": 64260
    },
    {
      "stop": {
        "id": "2_1088",
        "lat": 48.10744897,
        "lon": -1.67491383,
        "name": "Liberté TNB",
        "code": 1088
      },
      "arrival": 64440,
      "departure": 64440
    },
    {
      "stop": {
        "id": "2_1567",
        "lat": 48.1062288,
        "lon": -1.67750174,
        "name": "Charles de Gaulle",
        "code": 1567
      },
      "arrival": 64560,
      "departure": 64560
    }
  ],
  "route": {
    "id": "2_0054",
    "textColor": "FFFFFF",
    "color": "CD93BD",
    "description": "Métropolitaine",
    "longName": "Rennes (Charles de Gaulle) \u003c\u003e Le Rheu / Cintré",
    "shortName": "54",
    "type": 3,
    "agencyId": "2"
  }
}