{
  "headsign": "54 | Le Rheu Mordelles Le Verger",
  "stopTimes": [
    {
      "stop": {
        "id": "2_1567",
        "lat": 48.106213,
        "lon": -1.677425,
        "name": "Charles de Gaulle",
        "code": 1567
      },
      "arrival": 54000,
      "departure": 54000
    },
    {
      "stop": {
        "id": "2_1214",
        "lat": 48.109932,
        "lon": -1.679644,
        "name": "République",
        "code": 1214
      },
      "arrival": 54240,
      "departure": 54240
    },
    {
      "stop": {
        "id": "2_1540",
        "lat": 48.109999,
        "lon": -1.685158,
        "name": "Pont de Bretagne",
        "code": 1540
      },
      "arrival": 54300,
      "departure": 54300
    },
    {
      "stop": {
        "id": "2_1217",
        "lat": 48.108252,
        "lon": -1.694511,
        "name": "Chèques Postaux",
        "code": 1217
      },
      "arrival": 54480,
      "departure": 54480
    },
    {
      "stop": {
        "id": "2_1218",
        "lat": 48.109099,
        "lon": -1.697997,
        "name": "Guilloux Lorient",
        "code": 1218
      },
      "arrival": 54540,
      "departure": 54540
    },
    {
      "stop": {
        "id": "2_1221",
        "lat": 48.108871,
        "lon": -1.710766,
        "name": "Géniaux",
        "code": 1221
      },
      "arrival": 54660,
      "departure": 54660
    },
    {
      "stop": {
        "id": "2_1539",
        "lat": 48.107253,
        "lon": -1.723135,
        "name": "Lemaistre",
        "code": 1539
      },
      "arrival": 54780,
      "departure": 54780
    },
    {
      "stop": {
        "id": "2_1506",
        "lat": 48.106477,
        "lon": -1.73157,
        "name": "Berthault",
        "code": 1506
      },
      "arrival": 54840,
      "departure": 54840
    },
    {
      "stop": {
        "id": "2_3766",
        "lat": 48.104998,
        "lon": -1.740624,
        "name": "Trois Marches",
        "code": 3766
      },
      "arrival": 54900,
      "departure": 54900
    },
    {
      "stop": {
        "id": "2_2511",
        "lat": 48.103559,
        "lon": -1.751287,
        "name": "Plessix Saucourt",
        "code": 2511
      },
      "arrival": 54960,
      "departure": 54960
    },
    {
      "stop": {
        "id": "2_2512",
        "lat": 48.096246,
        "lon": -1.764714,
        "name": "Pont d\u0027Avoine",
        "code": 2512
      },
      "arrival": 55140,
      "departure": 55140
    },
    {
      "stop": {
        "id": "2_2513",
        "lat": 48.097012,
        "lon": -1.776051,
        "name": "Les Pins",
        "code": 2513
      },
      "arrival": 55200,
      "departure": 55200
    },
    {
      "stop": {
        "id": "2_2514",
        "lat": 48.09768,
        "lon": -1.781563,
        "name": "Barberais",
        "code": 2514
      },
      "arrival": 55260,
      "departure": 55260
    },
    {
      "stop": {
        "id": "2_2515",
        "lat": 48.099309,
        "lon": -1.790762,
        "name": "Genêts",
        "code": 2515
      },
      "arrival": 55320,
      "departure": 55320
    },
    {
      "stop": {
        "id": "2_2516",
        "lat": 48.101845,
        "lon": -1.79502,
        "name": "Bouleaux",
        "code": 2516
      },
      "arrival": 55380,
      "departure": 55380
    },
    {
      "stop": {
        "id": "2_2517",
        "lat": 48.099367,
        "lon": -1.796733,
        "name": "Brassens",
        "code": 2517
      },
      "arrival": 55440,
      "departure": 55440
    },
    {
      "stop": {
        "id": "2_2518",
        "lat": 48.099326,
        "lon": -1.802088,
        "name": "Champs Freslons",
        "code": 2518
      },
      "arrival": 55500,
      "departure": 55500
    },
    {
      "stop": {
        "id": "2_2519",
        "lat": 48.100897,
        "lon": -1.806904,
        "name": "Lycée Monod",
        "code": 2519
      },
      "arrival": 55560,
      "departure": 55560
    },
    {
      "stop": {
        "id": "2_3862",
        "lat": 48.077836,
        "lon": -1.837377,
        "name": "Gretay",
        "code": 3862
      },
      "arrival": 55920,
      "departure": 55920
    },
    {
      "stop": {
        "id": "2_3863",
        "lat": 48.075604,
        "lon": -1.842827,
        "name": "Mordelles Lilas",
        "code": 3863
      },
      "arrival": 55980,
      "departure": 55980
    },
    {
      "stop": {
        "id": "2_3864",
        "lat": 48.073558,
        "lon": -1.846884,
        "name": "Mordelles Mairie",
        "code": 3864
      },
      "arrival": 56040,
      "departure": 56040
    },
    {
      "stop": {
        "id": "2_3865",
        "lat": 48.071883,
        "lon": -1.85024,
        "name": "Mordelles Eglise",
        "code": 3865
      },
      "arrival": 56100,
      "departure": 56100
    },
    {
      "stop": {
        "id": "2_3869",
        "lat": 48.073924,
        "lon": -1.85372,
        "name": "Mordelles Pâtis",
        "code": 3869
      },
      "arrival": 56220,
      "departure": 56220
    },
    {
      "stop": {
        "id": "2_4403",
        "lat": 48.070056,
        "lon": -1.930273,
        "name": "Bouvrais",
        "code": 4403
      },
      "arrival": 56760,
      "departure": 56760
    },
    {
      "stop": {
        "id": "2_4408",
        "lat": 48.070227,
        "lon": -1.932356,
        "name": "Le Verger Eglise",
        "code": 4408
      },
      "arrival": 56760,
      "departure": 56760
    }
  ],
  "route": {
    "id": "2_0054",
    "textColor": "FFFFFF",
    "color": "CD93BD",
    "description": "Métropolitaine",
    "longName": "Rennes (Charles de Gaulle) \u003c\u003e Le Rheu / Cintré",
    "shortName": "54",
    "type": 3,
    "agencyId": "2"
  }
}