{
  "headsign": "52 | Rennes Villejean-Université",
  "stopTimes": [
    {
      "stop": {
        "id": "2_4507",
        "lat": 48.221783,
        "lon": -1.802327,
        "name": "Cheval Blanc",
        "code": 4507
      },
      "arrival": 43200,
      "departure": 43200
    },
    {
      "stop": {
        "id": "2_4508",
        "lat": 48.224482,
        "lon": -1.800785,
        "name": "Coualeuc",
        "code": 4508
      },
      "arrival": 43260,
      "departure": 43260
    },
    {
      "stop": {
        "id": "2_4510",
        "lat": 48.223615,
        "lon": -1.79363,
        "name": "Prés Verts",
        "code": 4510
      },
      "arrival": 43380,
      "departure": 43380
    },
    {
      "stop": {
        "id": "2_4502",
        "lat": 48.220986,
        "lon": -1.788723,
        "name": "Gévezé Mairie",
        "code": 4502
      },
      "arrival": 43440,
      "departure": 43440
    },
    {
      "stop": {
        "id": "2_4504",
        "lat": 48.21819,
        "lon": -1.78315,
        "name": "Flume",
        "code": 4504
      },
      "arrival": 43500,
      "departure": 43500
    },
    {
      "stop": {
        "id": "2_4070",
        "lat": 48.183016,
        "lon": -1.726386,
        "name": "Besneraie",
        "code": 4070
      },
      "arrival": 43980,
      "departure": 43980
    },
    {
      "stop": {
        "id": "2_4053",
        "lat": 48.17951,
        "lon": -1.729201,
        "name": "Métairie",
        "code": 4053
      },
      "arrival": 44040,
      "departure": 44040
    },
    {
      "stop": {
        "id": "2_4054",
        "lat": 48.177108,
        "lon": -1.732207,
        "name": "Mairie",
        "code": 4054
      },
      "arrival": 44100,
      "departure": 44100
    },
    {
      "stop": {
        "id": "2_4055",
        "lat": 48.174111,
        "lon": -1.735204,
        "name": "Viennais",
        "code": 4055
      },
      "arrival": 44160,
      "departure": 44160
    },
    {
      "stop": {
        "id": "2_4056",
        "lat": 48.17016,
        "lon": -1.736188,
        "name": "Sénestrais",
        "code": 4056
      },
      "arrival": 44160,
      "departure": 44160
    },
    {
      "stop": {
        "id": "2_3500",
        "lat": 48.163969,
        "lon": -1.731752,
        "name": "Silandière",
        "code": 3500
      },
      "arrival": 44220,
      "departure": 44220
    },
    {
      "stop": {
        "id": "2_3514",
        "lat": 48.157221,
        "lon": -1.723306,
        "name": "Fougerolle",
        "code": 3514
      },
      "arrival": 44340,
      "departure": 44340
    },
    {
      "stop": {
        "id": "2_3502",
        "lat": 48.155655,
        "lon": -1.720614,
        "name": "Pierre Texier",
        "code": 3502
      },
      "arrival": 44400,
      "departure": 44400
    },
    {
      "stop": {
        "id": "2_3503",
        "lat": 48.15574,
        "lon": -1.71654,
        "name": "Montgermont Mairie",
        "code": 3503
      },
      "arrival": 44460,
      "departure": 44460
    },
    {
      "stop": {
        "id": "2_3504",
        "lat": 48.157226,
        "lon": -1.714447,
        "name": "Courtines",
        "code": 3504
      },
      "arrival": 44520,
      "departure": 44520
    },
    {
      "stop": {
        "id": "2_3505",
        "lat": 48.155304,
        "lon": -1.710895,
        "name": "Belle Epine",
        "code": 3505
      },
      "arrival": 44580,
      "departure": 44580
    },
    {
      "stop": {
        "id": "2_3506",
        "lat": 48.152987,
        "lon": -1.706581,
        "name": "Décoparc",
        "code": 3506
      },
      "arrival": 44640,
      "departure": 44640
    },
    {
      "stop": {
        "id": "2_3507",
        "lat": 48.148918,
        "lon": -1.704108,
        "name": "Vizeule",
        "code": 3507
      },
      "arrival": 44640,
      "departure": 44640
    },
    {
      "stop": {
        "id": "2_1492",
        "lat": 48.133784,
        "lon": -1.69386,
        "name": "Grand Quartier",
        "code": 1492
      },
      "arrival": 44820,
      "departure": 44820
    },
    {
      "stop": {
        "id": "2_1543",
        "lat": 48.131341,
        "lon": -1.691889,
        "name": "Léonard",
        "code": 1543
      },
      "arrival": 44880,
      "departure": 44880
    },
    {
      "stop": {
        "id": "2_1493",
        "lat": 48.127175,
        "lon": -1.693387,
        "name": "Lycée Basch",
        "code": 1493
      },
      "arrival": 44940,
      "departure": 44940
    },
    {
      "stop": {
        "id": "2_1494",
        "lat": 48.121217,
        "lon": -1.70297,
        "name": "Villejean-Université",
        "code": 1494
      },
      "arrival": 45180,
      "departure": 45180
    }
  ],
  "route": {
    "id": "2_0052",
    "textColor": "FFFFFF",
    "color": "007C77",
    "description": "Métropolitaine",
    "longName": "Saint-Gilles / Pacé \u003c\u003e Rennes (Villejean-Université) \u003c\u003e Montgermont / La Chapelle-des-Fougeretz",
    "shortName": "52",
    "type": 3,
    "agencyId": "2"
  }
}