{
  "headsign": "68 | Gévezé",
  "stopTimes": [
    {
      "stop": {
        "id": "2_1529",
        "lat": 48.12118964,
        "lon": -1.70297204,
        "name": "Villejean-Université",
        "code": 1529
      },
      "arrival": 30300,
      "departure": 30300
    },
    {
      "stop": {
        "id": "2_1495",
        "lat": 48.12663856,
        "lon": -1.69309309,
        "name": "Lycée Basch",
        "code": 1495
      },
      "arrival": 30540,
      "departure": 30540
    },
    {
      "stop": {
        "id": "2_1543",
        "lat": 48.13134643,
        "lon": -1.69183512,
        "name": "Léonard",
        "code": 1543
      },
      "arrival": 30660,
      "departure": 30660
    },
    {
      "stop": {
        "id": "2_2830",
        "lat": 48.13432722,
        "lon": -1.69446334,
        "name": "Grand Quartier",
        "code": 2830
      },
      "arrival": 30720,
      "departure": 30720
    },
    {
      "stop": {
        "id": "2_3516",
        "lat": 48.15430662,
        "lon": -1.70724683,
        "name": "Décoparc",
        "code": 3516
      },
      "arrival": 30900,
      "departure": 30900
    },
    {
      "stop": {
        "id": "2_2837",
        "lat": 48.17692758,
        "lon": -1.7220151,
        "name": "La Brosse",
        "code": 2837
      },
      "arrival": 31080,
      "departure": 31080
    },
    {
      "stop": {
        "id": "2_4503",
        "lat": 48.21863623,
        "lon": -1.78399508,
        "name": "Flume",
        "code": 4503
      },
      "arrival": 31620,
      "departure": 31620
    },
    {
      "stop": {
        "id": "2_4505",
        "lat": 48.22096598,
        "lon": -1.78811849,
        "name": "Gévezé Mairie",
        "code": 4505
      },
      "arrival": 31620,
      "departure": 31620
    },
    {
      "stop": {
        "id": "2_4511",
        "lat": 48.22397777,
        "lon": -1.79377074,
        "name": "Prés Verts",
        "code": 4511
      },
      "arrival": 31680,
      "departure": 31680
    },
    {
      "stop": {
        "id": "2_4509",
        "lat": 48.2246446,
        "lon": -1.80044931,
        "name": "Coualeuc",
        "code": 4509
      },
      "arrival": 31800,
      "departure": 31800
    },
    {
      "stop": {
        "id": "2_4507",
        "lat": 48.22178273,
        "lon": -1.80232719,
        "name": "Cheval Blanc",
        "code": 4507
      },
      "arrival": 31860,
      "departure": 31860
    }
  ],
  "route": {
    "id": "2_0068",
    "textColor": "201d21",
    "color": "d6c800",
    "description": "Métropolitaine",
    "longName": "Rennes (Villejean-Université) \u003c\u003e Gévezé",
    "shortName": "68",
    "type": 3,
    "agencyId": "2"
  }
}