{
  "headsign": "57 | Bruz Lavoisier",
  "stopTimes": [
    {
      "stop": {
        "id": "2_1501",
        "lat": 48.10936833,
        "lon": -1.6797666,
        "name": "République Pré Botté",
        "code": 1501
      },
      "arrival": 63900,
      "departure": 63900
    },
    {
      "stop": {
        "id": "2_1017",
        "lat": 48.10834873,
        "lon": -1.6801754,
        "name": "Les Halles",
        "code": 1017
      },
      "arrival": 63960,
      "departure": 63960
    },
    {
      "stop": {
        "id": "2_1018",
        "lat": 48.10604754,
        "lon": -1.68160006,
        "name": "Plélo Colombier",
        "code": 1018
      },
      "arrival": 64020,
      "departure": 64020
    },
    {
      "stop": {
        "id": "2_1019",
        "lat": 48.1051576,
        "lon": -1.68471093,
        "name": "Cité Judiciaire",
        "code": 1019
      },
      "arrival": 64140,
      "departure": 64140
    },
    {
      "stop": {
        "id": "2_1264",
        "lat": 48.10211461,
        "lon": -1.68438725,
        "name": "Pont de Nantes",
        "code": 1264
      },
      "arrival": 64200,
      "departure": 64200
    },
    {
      "stop": {
        "id": "2_1265",
        "lat": 48.0997896,
        "lon": -1.68708791,
        "name": "Foyer Rennais",
        "code": 1265
      },
      "arrival": 64260,
      "departure": 64260
    },
    {
      "stop": {
        "id": "2_1020",
        "lat": 48.09739351,
        "lon": -1.68956282,
        "name": "Mermoz",
        "code": 1020
      },
      "arrival": 64320,
      "departure": 64320
    },
    {
      "stop": {
        "id": "2_2208",
        "lat": 48.09571589,
        "lon": -1.69476004,
        "name": "Commeurec",
        "code": 2208
      },
      "arrival": 64380,
      "departure": 64380
    },
    {
      "stop": {
        "id": "2_2207",
        "lat": 48.09353291,
        "lon": -1.70134791,
        "name": "Lilas",
        "code": 2207
      },
      "arrival": 64440,
      "departure": 64440
    },
    {
      "stop": {
        "id": "2_2211",
        "lat": 48.08727159,
        "lon": -1.70734318,
        "name": "Gaité",
        "code": 2211
      },
      "arrival": 64560,
      "departure": 64560
    },
    {
      "stop": {
        "id": "2_2241",
        "lat": 48.08052746,
        "lon": -1.71255409,
        "name": "Malraux",
        "code": 2241
      },
      "arrival": 64680,
      "departure": 64680
    },
    {
      "stop": {
        "id": "2_2245",
        "lat": 48.077629,
        "lon": -1.71267231,
        "name": "Haut Bois",
        "code": 2245
      },
      "arrival": 64680,
      "departure": 64680
    },
    {
      "stop": {
        "id": "2_2233",
        "lat": 48.06738312,
        "lon": -1.71730011,
        "name": "Abbé Grimault",
        "code": 2233
      },
      "arrival": 64860,
      "departure": 64860
    },
    {
      "stop": {
        "id": "2_2243",
        "lat": 48.06692895,
        "lon": -1.72233003,
        "name": "Aire Libre Aéroport",
        "code": 2243
      },
      "arrival": 64920,
      "departure": 64920
    },
    {
      "stop": {
        "id": "2_2242",
        "lat": 48.06503505,
        "lon": -1.72459513,
        "name": "Centre Météo",
        "code": 2242
      },
      "arrival": 64980,
      "departure": 64980
    },
    {
      "stop": {
        "id": "2_2244",
        "lat": 48.05988123,
        "lon": -1.73439523,
        "name": "Parc Expo",
        "code": 2244
      },
      "arrival": 65100,
      "departure": 65100
    },
    {
      "stop": {
        "id": "2_2315",
        "lat": 48.0527925,
        "lon": -1.7383715,
        "name": "Lande du Pont",
        "code": 2315
      },
      "arrival": 65220,
      "departure": 65220
    },
    {
      "stop": {
        "id": "2_2316",
        "lat": 48.04936083,
        "lon": -1.74065996,
        "name": "Etangs",
        "code": 2316
      },
      "arrival": 65280,
      "departure": 65280
    },
    {
      "stop": {
        "id": "2_2317",
        "lat": 48.04740124,
        "lon": -1.74208422,
        "name": "Coeur de Campus",
        "code": 2317
      },
      "arrival": 65340,
      "departure": 65340
    },
    {
      "stop": {
        "id": "2_2309",
        "lat": 48.04459244,
        "lon": -1.74645711,
        "name": "Schuman",
        "code": 2309
      },
      "arrival": 65400,
      "departure": 65400
    },
    {
      "stop": {
        "id": "2_2320",
        "lat": 48.04033666,
        "lon": -1.75517612,
        "name": "Croix Madame",
        "code": 2320
      },
      "arrival": 65460,
      "departure": 65460
    },
    {
      "stop": {
        "id": "2_2321",
        "lat": 48.03121202,
        "lon": -1.75955139,
        "name": "Gavrinis",
        "code": 2321
      },
      "arrival": 65580,
      "departure": 65580
    },
    {
      "stop": {
        "id": "2_2305",
        "lat": 48.02937675,
        "lon": -1.758008,
        "name": "Vert Buisson",
        "code": 2305
      },
      "arrival": 65640,
      "departure": 65640
    },
    {
      "stop": {
        "id": "2_2323",
        "lat": 48.02564106,
        "lon": -1.76076309,
        "name": "Rabine",
        "code": 2323
      },
      "arrival": 65760,
      "departure": 65760
    },
    {
      "stop": {
        "id": "2_2324",
        "lat": 48.02463005,
        "lon": -1.7572317,
        "name": "Haut Launay",
        "code": 2324
      },
      "arrival": 65820,
      "departure": 65820
    },
    {
      "stop": {
        "id": "2_2325",
        "lat": 48.02481885,
        "lon": -1.75055599,
        "name": "Herverie",
        "code": 2325
      },
      "arrival": 65940,
      "departure": 65940
    },
    {
      "stop": {
        "id": "2_2361",
        "lat": 48.02442778,
        "lon": -1.7448362,
        "name": "Bruz Centre",
        "code": 2361
      },
      "arrival": 66000,
      "departure": 66000
    },
    {
      "stop": {
        "id": "2_2331",
        "lat": 48.0215012,
        "lon": -1.75234104,
        "name": "Noë",
        "code": 2331
      },
      "arrival": 66120,
      "departure": 66120
    },
    {
      "stop": {
        "id": "2_2332",
        "lat": 48.01951953,
        "lon": -1.74505273,
        "name": "Epalet",
        "code": 2332
      },
      "arrival": 66180,
      "departure": 66180
    },
    {
      "stop": {
        "id": "2_2333",
        "lat": 48.02094067,
        "lon": -1.73809815,
        "name": "Du Guesclin",
        "code": 2333
      },
      "arrival": 66240,
      "departure": 66240
    },
    {
      "stop": {
        "id": "2_2334",
        "lat": 48.02378685,
        "lon": -1.73611312,
        "name": "Pasteur",
        "code": 2334
      },
      "arrival": 66300,
      "departure": 66300
    },
    {
      "stop": {
        "id": "2_2335",
        "lat": 48.0262549,
        "lon": -1.73452897,
        "name": "Bobinais",
        "code": 2335
      },
      "arrival": 66300,
      "departure": 66300
    },
    {
      "stop": {
        "id": "2_2336",
        "lat": 48.03021172,
        "lon": -1.73446075,
        "name": "Champ Niguel",
        "code": 2336
      },
      "arrival": 66360,
      "departure": 66360
    },
    {
      "stop": {
        "id": "2_2337",
        "lat": 48.03296043,
        "lon": -1.73309587,
        "name": "Lavoisier",
        "code": 2337
      },
      "arrival": 66420,
      "departure": 66420
    }
  ],
  "route": {
    "id": "2_0057",
    "textColor": "FFFFFF",
    "color": "A57223",
    "description": "Métropolitaine",
    "longName": "Rennes (République) \u003c\u003e Saint-Jacques-de-la-Lande / Bruz (Centre)",
    "shortName": "57",
    "type": 3,
    "agencyId": "2"
  }
}