{
  "headsign": "44 | Joliot-Curie",
  "stopTimes": [
    {
      "stop": {
        "id": "2_1550",
        "lat": 48.109699,
        "lon": -1.677942,
        "name": "République",
        "code": 1550
      },
      "arrival": 30960,
      "departure": 30960
    },
    {
      "stop": {
        "id": "2_1552",
        "lat": 48.110624,
        "lon": -1.673506,
        "name": "Place Pasteur",
        "code": 1552
      },
      "arrival": 31140,
      "departure": 31140
    },
    {
      "stop": {
        "id": "2_1146",
        "lat": 48.111897,
        "lon": -1.671083,
        "name": "Thabor",
        "code": 1146
      },
      "arrival": 31200,
      "departure": 31200
    },
    {
      "stop": {
        "id": "2_1147",
        "lat": 48.112666,
        "lon": -1.664346,
        "name": "Saint-Vincent",
        "code": 1147
      },
      "arrival": 31440,
      "departure": 31440
    },
    {
      "stop": {
        "id": "2_1148",
        "lat": 48.113405,
        "lon": -1.661265,
        "name": "Oberthur",
        "code": 1148
      },
      "arrival": 31500,
      "departure": 31500
    },
    {
      "stop": {
        "id": "2_1149",
        "lat": 48.114248,
        "lon": -1.658666,
        "name": "Durafour",
        "code": 1149
      },
      "arrival": 31560,
      "departure": 31560
    },
    {
      "stop": {
        "id": "2_1150",
        "lat": 48.116588,
        "lon": -1.65539,
        "name": "Jeanne d\u0027Arc",
        "code": 1150
      },
      "arrival": 31680,
      "departure": 31680
    },
    {
      "stop": {
        "id": "2_1151",
        "lat": 48.118733,
        "lon": -1.651589,
        "name": "Vitré Danton",
        "code": 1151
      },
      "arrival": 31800,
      "departure": 31800
    },
    {
      "stop": {
        "id": "2_1152",
        "lat": 48.120615,
        "lon": -1.650675,
        "name": "Docteur Quentin",
        "code": 1152
      },
      "arrival": 31860,
      "departure": 31860
    },
    {
      "stop": {
        "id": "2_1638",
        "lat": 48.122545,
        "lon": -1.651088,
        "name": "Lycée Chateaubriand",
        "code": 1638
      },
      "arrival": 31920,
      "departure": 31920
    },
    {
      "stop": {
        "id": "2_1619",
        "lat": 48.125198,
        "lon": -1.652864,
        "name": "Joliot-Curie",
        "code": 1619
      },
      "arrival": 32040,
      "departure": 32040
    }
  ],
  "route": {
    "id": "2_0044",
    "textColor": "3D3C3F",
    "color": "FFDD00",
    "description": "Express urbaine",
    "longName": "République \u003c\u003e Joliot-Curie",
    "shortName": "44",
    "type": 3,
    "agencyId": "2"
  }
}