{
  "headsign": "54 | Rennes Charles de Gaulle",
  "stopTimes": [
    {
      "stop": {
        "id": "2_4201",
        "lat": 48.0519556,
        "lon": -1.79762199,
        "name": "Croix Blanche",
        "code": 4201
      },
      "arrival": 68400,
      "departure": 68400
    },
    {
      "stop": {
        "id": "2_4202",
        "lat": 48.05201225,
        "lon": -1.79070221,
        "name": "Calvaire",
        "code": 4202
      },
      "arrival": 68520,
      "departure": 68520
    },
    {
      "stop": {
        "id": "2_4210",
        "lat": 48.05473856,
        "lon": -1.7901693,
        "name": "Alfred de Musset",
        "code": 4210
      },
      "arrival": 68580,
      "departure": 68580
    },
    {
      "stop": {
        "id": "2_4204",
        "lat": 48.05399506,
        "lon": -1.78384914,
        "name": "Avenir",
        "code": 4204
      },
      "arrival": 68640,
      "departure": 68640
    },
    {
      "stop": {
        "id": "2_4205",
        "lat": 48.05814163,
        "lon": -1.77631699,
        "name": "Grippay",
        "code": 4205
      },
      "arrival": 68760,
      "departure": 68760
    },
    {
      "stop": {
        "id": "2_3851",
        "lat": 48.07460255,
        "lon": -1.85367611,
        "name": "Mordelles Pâtis",
        "code": 3851
      },
      "arrival": 69300,
      "departure": 69300
    },
    {
      "stop": {
        "id": "2_3852",
        "lat": 48.07194171,
        "lon": -1.84998802,
        "name": "Mordelles Eglise",
        "code": 3852
      },
      "arrival": 69420,
      "departure": 69420
    },
    {
      "stop": {
        "id": "2_3853",
        "lat": 48.07371137,
        "lon": -1.84642407,
        "name": "Mordelles Mairie",
        "code": 3853
      },
      "arrival": 69480,
      "departure": 69480
    },
    {
      "stop": {
        "id": "2_3854",
        "lat": 48.07584083,
        "lon": -1.8422202,
        "name": "Mordelles Lilas",
        "code": 3854
      },
      "arrival": 69540,
      "departure": 69540
    },
    {
      "stop": {
        "id": "2_3855",
        "lat": 48.07771885,
        "lon": -1.83754903,
        "name": "Gretay",
        "code": 3855
      },
      "arrival": 69600,
      "departure": 69600
    },
    {
      "stop": {
        "id": "2_2502",
        "lat": 48.1005527,
        "lon": -1.80657108,
        "name": "Lycée Monod",
        "code": 2502
      },
      "arrival": 69960,
      "departure": 69960
    },
    {
      "stop": {
        "id": "2_2503",
        "lat": 48.09895196,
        "lon": -1.80139197,
        "name": "Champs Freslons",
        "code": 2503
      },
      "arrival": 70020,
      "departure": 70020
    },
    {
      "stop": {
        "id": "2_2504",
        "lat": 48.0989712,
        "lon": -1.79693897,
        "name": "Brassens",
        "code": 2504
      },
      "arrival": 70080,
      "departure": 70080
    },
    {
      "stop": {
        "id": "2_2505",
        "lat": 48.10163022,
        "lon": -1.79451553,
        "name": "Bouleaux",
        "code": 2505
      },
      "arrival": 70140,
      "departure": 70140
    },
    {
      "stop": {
        "id": "2_2506",
        "lat": 48.09931104,
        "lon": -1.79124998,
        "name": "Genêts",
        "code": 2506
      },
      "arrival": 70200,
      "departure": 70200
    },
    {
      "stop": {
        "id": "2_2507",
        "lat": 48.09755056,
        "lon": -1.78133332,
        "name": "Barberais",
        "code": 2507
      },
      "arrival": 70320,
      "departure": 70320
    },
    {
      "stop": {
        "id": "2_2508",
        "lat": 48.09687556,
        "lon": -1.77558132,
        "name": "Les Pins",
        "code": 2508
      },
      "arrival": 70380,
      "departure": 70380
    },
    {
      "stop": {
        "id": "2_2509",
        "lat": 48.0961416,
        "lon": -1.76472044,
        "name": "Pont d\u0027Avoine",
        "code": 2509
      },
      "arrival": 70500,
      "departure": 70500
    },
    {
      "stop": {
        "id": "2_2510",
        "lat": 48.10386756,
        "lon": -1.75043717,
        "name": "Plessix Saucourt",
        "code": 2510
      },
      "arrival": 70620,
      "departure": 70620
    },
    {
      "stop": {
        "id": "2_3752",
        "lat": 48.10474061,
        "lon": -1.73906178,
        "name": "Trois Marches",
        "code": 3752
      },
      "arrival": 70740,
      "departure": 70740
    },
    {
      "stop": {
        "id": "2_1508",
        "lat": 48.10673486,
        "lon": -1.7291459,
        "name": "Berthault",
        "code": 1508
      },
      "arrival": 70800,
      "departure": 70800
    },
    {
      "stop": {
        "id": "2_1233",
        "lat": 48.10704452,
        "lon": -1.72187845,
        "name": "Lemaistre",
        "code": 1233
      },
      "arrival": 70860,
      "departure": 70860
    },
    {
      "stop": {
        "id": "2_1235",
        "lat": 48.10892663,
        "lon": -1.70977108,
        "name": "Géniaux",
        "code": 1235
      },
      "arrival": 70980,
      "departure": 70980
    },
    {
      "stop": {
        "id": "2_1238",
        "lat": 48.1086959,
        "lon": -1.69884796,
        "name": "Guilloux Lorient",
        "code": 1238
      },
      "arrival": 71100,
      "departure": 71100
    },
    {
      "stop": {
        "id": "2_1239",
        "lat": 48.10814248,
        "lon": -1.6948685,
        "name": "Chèques Postaux",
        "code": 1239
      },
      "arrival": 71160,
      "departure": 71160
    },
    {
      "stop": {
        "id": "2_1542",
        "lat": 48.10997275,
        "lon": -1.68535336,
        "name": "Pont de Bretagne",
        "code": 1542
      },
      "arrival": 71340,
      "departure": 71340
    },
    {
      "stop": {
        "id": "2_1242",
        "lat": 48.10980333,
        "lon": -1.6795219,
        "name": "République",
        "code": 1242
      },
      "arrival": 71400,
      "departure": 71400
    },
    {
      "stop": {
        "id": "2_1088",
        "lat": 48.10744897,
        "lon": -1.67491383,
        "name": "Liberté TNB",
        "code": 1088
      },
      "arrival": 71580,
      "departure": 71580
    },
    {
      "stop": {
        "id": "2_1567",
        "lat": 48.1062288,
        "lon": -1.67750174,
        "name": "Charles de Gaulle",
        "code": 1567
      },
      "arrival": 71700,
      "departure": 71700
    }
  ],
  "route": {
    "id": "2_0054",
    "textColor": "ffffff",
    "color": "cc90ba",
    "description": "Métropolitaine",
    "longName": "Rennes (Charles de Gaulle) \u003c\u003e Le Rheu / Cintré",
    "shortName": "54",
    "type": 3,
    "agencyId": "2"
  }
}