{
  "headsign": "11 | ZI Ouest",
  "stopTimes": [
    {
      "stop": {
        "id": "2_1208",
        "lat": 48.104165,
        "lon": -1.637787,
        "name": "Saint-Saëns",
        "code": 1208
      },
      "arrival": 30300,
      "departure": 30300
    },
    {
      "stop": {
        "id": "2_1209",
        "lat": 48.105033,
        "lon": -1.64458,
        "name": "Pavie",
        "code": 1209
      },
      "arrival": 30360,
      "departure": 30360
    },
    {
      "stop": {
        "id": "2_1210",
        "lat": 48.10431,
        "lon": -1.64971,
        "name": "Cimetière de l\u0027Est",
        "code": 1210
      },
      "arrival": 30420,
      "departure": 30420
    },
    {
      "stop": {
        "id": "2_1245",
        "lat": 48.103213,
        "lon": -1.652536,
        "name": "Serpette",
        "code": 1245
      },
      "arrival": 30480,
      "departure": 30480
    },
    {
      "stop": {
        "id": "2_1212",
        "lat": 48.101949,
        "lon": -1.656538,
        "name": "Mouézy",
        "code": 1212
      },
      "arrival": 30540,
      "departure": 30540
    },
    {
      "stop": {
        "id": "2_1213",
        "lat": 48.102902,
        "lon": -1.661403,
        "name": "Croix Saint-Hélier",
        "code": 1213
      },
      "arrival": 30600,
      "departure": 30600
    },
    {
      "stop": {
        "id": "2_1057",
        "lat": 48.104747,
        "lon": -1.667176,
        "name": "Laënnec",
        "code": 1057
      },
      "arrival": 30720,
      "departure": 30720
    },
    {
      "stop": {
        "id": "2_1056",
        "lat": 48.103956,
        "lon": -1.673185,
        "name": "Gares",
        "code": 1056
      },
      "arrival": 30840,
      "departure": 30840
    },
    {
      "stop": {
        "id": "2_1055",
        "lat": 48.106057,
        "lon": -1.67401,
        "name": "Champs Libres",
        "code": 1055
      },
      "arrival": 30960,
      "departure": 30960
    },
    {
      "stop": {
        "id": "2_1054",
        "lat": 48.107564,
        "lon": -1.675176,
        "name": "Liberté TNB",
        "code": 1054
      },
      "arrival": 31020,
      "departure": 31020
    },
    {
      "stop": {
        "id": "2_1214",
        "lat": 48.109932,
        "lon": -1.679644,
        "name": "République",
        "code": 1214
      },
      "arrival": 31200,
      "departure": 31200
    },
    {
      "stop": {
        "id": "2_1051",
        "lat": 48.109888,
        "lon": -1.68328,
        "name": "Place de Bretagne",
        "code": 1051
      },
      "arrival": 31260,
      "departure": 31260
    },
    {
      "stop": {
        "id": "2_1216",
        "lat": 48.109176,
        "lon": -1.690514,
        "name": "Le Mail",
        "code": 1216
      },
      "arrival": 31380,
      "departure": 31380
    },
    {
      "stop": {
        "id": "2_1217",
        "lat": 48.108252,
        "lon": -1.694511,
        "name": "Chèques Postaux",
        "code": 1217
      },
      "arrival": 31440,
      "departure": 31440
    },
    {
      "stop": {
        "id": "2_1218",
        "lat": 48.109099,
        "lon": -1.697997,
        "name": "Guilloux Lorient",
        "code": 1218
      },
      "arrival": 31500,
      "departure": 31500
    },
    {
      "stop": {
        "id": "2_1219",
        "lat": 48.108274,
        "lon": -1.703743,
        "name": "Papeteries",
        "code": 1219
      },
      "arrival": 31560,
      "departure": 31560
    },
    {
      "stop": {
        "id": "2_1220",
        "lat": 48.109162,
        "lon": -1.706366,
        "name": "Kerviler",
        "code": 1220
      },
      "arrival": 31620,
      "departure": 31620
    },
    {
      "stop": {
        "id": "2_1221",
        "lat": 48.108871,
        "lon": -1.710766,
        "name": "Géniaux",
        "code": 1221
      },
      "arrival": 31680,
      "departure": 31680
    },
    {
      "stop": {
        "id": "2_1222",
        "lat": 48.108107,
        "lon": -1.714065,
        "name": "Stade Rennais",
        "code": 1222
      },
      "arrival": 31740,
      "departure": 31740
    },
    {
      "stop": {
        "id": "2_1223",
        "lat": 48.106212,
        "lon": -1.723891,
        "name": "Le Hô",
        "code": 1223
      },
      "arrival": 31920,
      "departure": 31920
    },
    {
      "stop": {
        "id": "2_1224",
        "lat": 48.102975,
        "lon": -1.7234,
        "name": "Robinot de St-Cyr",
        "code": 1224
      },
      "arrival": 31980,
      "departure": 31980
    },
    {
      "stop": {
        "id": "2_1225",
        "lat": 48.10213,
        "lon": -1.727062,
        "name": "Jardin Moderne",
        "code": 1225
      },
      "arrival": 31980,
      "departure": 31980
    },
    {
      "stop": {
        "id": "2_1226",
        "lat": 48.101258,
        "lon": -1.731769,
        "name": "Servigné",
        "code": 1226
      },
      "arrival": 32040,
      "departure": 32040
    },
    {
      "stop": {
        "id": "2_3768",
        "lat": 48.104219,
        "lon": -1.735894,
        "name": "Marais",
        "code": 3768
      },
      "arrival": 32100,
      "departure": 32100
    },
    {
      "stop": {
        "id": "2_3753",
        "lat": 48.10575,
        "lon": -1.740014,
        "name": "Trois Marches",
        "code": 3753
      },
      "arrival": 32100,
      "departure": 32100
    },
    {
      "stop": {
        "id": "2_3751",
        "lat": 48.107431,
        "lon": -1.739281,
        "name": "ZI Ouest",
        "code": 3751
      },
      "arrival": 32160,
      "departure": 32160
    }
  ],
  "route": {
    "id": "2_0011",
    "textColor": "FFFFFF",
    "color": "DD84B1",
    "description": "Urbaine",
    "longName": "ZI Ouest / Stade Rennais \u003c\u003e Saint-Saëns / La Poterie",
    "shortName": "11",
    "type": 3,
    "agencyId": "2"
  }
}