{
  "headsign": "API | Etangs d\u0027Apigné",
  "stopTimes": [
    {
      "stop": {
        "id": "2_1501",
        "lat": 48.10936833,
        "lon": -1.6797666,
        "name": "République Pré Botté",
        "code": 1501
      },
      "arrival": 57600,
      "departure": 57600
    },
    {
      "stop": {
        "id": "2_1017",
        "lat": 48.10834873,
        "lon": -1.6801754,
        "name": "Les Halles",
        "code": 1017
      },
      "arrival": 57660,
      "departure": 57660
    },
    {
      "stop": {
        "id": "2_1018",
        "lat": 48.10604754,
        "lon": -1.68160006,
        "name": "Plélo Colombier",
        "code": 1018
      },
      "arrival": 57780,
      "departure": 57780
    },
    {
      "stop": {
        "id": "2_1402",
        "lat": 48.10558068,
        "lon": -1.68517914,
        "name": "Cité Judiciaire",
        "code": 1402
      },
      "arrival": 57840,
      "departure": 57840
    },
    {
      "stop": {
        "id": "2_1611",
        "lat": 48.10546246,
        "lon": -1.6884217,
        "name": "Inkermann (futur Redon)",
        "code": 1611
      },
      "arrival": 57900,
      "departure": 57900
    },
    {
      "stop": {
        "id": "2_1616",
        "lat": 48.10330735,
        "lon": -1.68920582,
        "name": "Saint-Conwoïon",
        "code": 1616
      },
      "arrival": 57960,
      "departure": 57960
    },
    {
      "stop": {
        "id": "2_1381",
        "lat": 48.10510864,
        "lon": -1.69650072,
        "name": "Malakoff",
        "code": 1381
      },
      "arrival": 58140,
      "departure": 58140
    },
    {
      "stop": {
        "id": "2_1398",
        "lat": 48.10518896,
        "lon": -1.69863023,
        "name": "Voltaire",
        "code": 1398
      },
      "arrival": 58200,
      "departure": 58200
    },
    {
      "stop": {
        "id": "2_1397",
        "lat": 48.10361769,
        "lon": -1.70028046,
        "name": "Dargent",
        "code": 1397
      },
      "arrival": 58260,
      "departure": 58260
    },
    {
      "stop": {
        "id": "2_1384",
        "lat": 48.10261975,
        "lon": -1.70382543,
        "name": "Champion de Cicé",
        "code": 1384
      },
      "arrival": 58320,
      "departure": 58320
    },
    {
      "stop": {
        "id": "2_1546",
        "lat": 48.1015875,
        "lon": -1.70843797,
        "name": "Cleunay Stade",
        "code": 1546
      },
      "arrival": 58440,
      "departure": 58440
    },
    {
      "stop": {
        "id": "2_1389",
        "lat": 48.10121799,
        "lon": -1.71182929,
        "name": "Clinique La Sagesse",
        "code": 1389
      },
      "arrival": 58500,
      "departure": 58500
    },
    {
      "stop": {
        "id": "2_1547",
        "lat": 48.0919831,
        "lon": -1.73781141,
        "name": "Etangs d\u0027Apigné",
        "code": 1547
      },
      "arrival": 58800,
      "departure": 58800
    }
  ],
  "route": {
    "id": "2_0803",
    "textColor": "FFFFFF",
    "color": "009C99",
    "description": "Spéciale",
    "longName": "Rennes (République) \u003c\u003e Etangs d\u0027Apigné",
    "shortName": "API",
    "type": 3,
    "agencyId": "2"
  }
}