{
  "headsign": "77 | Pacé Pâtis Roussel",
  "stopTimes": [
    {
      "stop": {
        "id": "2_1519",
        "lat": 48.121064,
        "lon": -1.702976,
        "name": "Villejean-Université",
        "code": 1519
      },
      "arrival": 59700,
      "departure": 59700
    },
    {
      "stop": {
        "id": "2_1518",
        "lat": 48.120593,
        "lon": -1.710572,
        "name": "Bourbonnais",
        "code": 1518
      },
      "arrival": 59880,
      "departure": 59880
    },
    {
      "stop": {
        "id": "2_1521",
        "lat": 48.118462,
        "lon": -1.713825,
        "name": "Berry",
        "code": 1521
      },
      "arrival": 59940,
      "departure": 59940
    },
    {
      "stop": {
        "id": "2_3113",
        "lat": 48.143401,
        "lon": -1.770386,
        "name": "Le Ponant",
        "code": 3113
      },
      "arrival": 60300,
      "departure": 60300
    },
    {
      "stop": {
        "id": "2_3114",
        "lat": 48.146022,
        "lon": -1.770492,
        "name": "Carré Dumaine",
        "code": 3114
      },
      "arrival": 60360,
      "departure": 60360
    },
    {
      "stop": {
        "id": "2_3115",
        "lat": 48.148099,
        "lon": -1.769731,
        "name": "Pacé Cimetière",
        "code": 3115
      },
      "arrival": 60420,
      "departure": 60420
    },
    {
      "stop": {
        "id": "2_3130",
        "lat": 48.151605,
        "lon": -1.770461,
        "name": "Le Brix",
        "code": 3130
      },
      "arrival": 60480,
      "departure": 60480
    },
    {
      "stop": {
        "id": "2_3131",
        "lat": 48.154401,
        "lon": -1.770358,
        "name": "Pacé Collèges",
        "code": 3131
      },
      "arrival": 60540,
      "departure": 60540
    },
    {
      "stop": {
        "id": "2_3132",
        "lat": 48.155458,
        "lon": -1.764526,
        "name": "Champalaune",
        "code": 3132
      },
      "arrival": 60600,
      "departure": 60600
    },
    {
      "stop": {
        "id": "2_3133",
        "lat": 48.157383,
        "lon": -1.765666,
        "name": "Ouessant",
        "code": 3133
      },
      "arrival": 60660,
      "departure": 60660
    },
    {
      "stop": {
        "id": "2_3125",
        "lat": 48.16049,
        "lon": -1.768011,
        "name": "Pâtis Roussel",
        "code": 3125
      },
      "arrival": 60720,
      "departure": 60720
    }
  ],
  "route": {
    "id": "2_0077",
    "textColor": "1A171B",
    "color": "FCC000",
    "description": "Métropolitaine",
    "longName": "Rennes (Villejean-Université) \u003c\u003e Pacé",
    "shortName": "77",
    "type": 3,
    "agencyId": "2"
  }
}