{
  "headsign": "50 | Rennes République",
  "stopTimes": [
    {
      "stop": {
        "id": "2_3301",
        "lat": 48.155188,
        "lon": -1.573107,
        "name": "Landelles",
        "code": 3301
      },
      "arrival": 27900,
      "departure": 27900
    },
    {
      "stop": {
        "id": "2_3322",
        "lat": 48.149328,
        "lon": -1.577527,
        "name": "Curien",
        "code": 3322
      },
      "arrival": 28080,
      "departure": 28080
    },
    {
      "stop": {
        "id": "2_3315",
        "lat": 48.153606,
        "lon": -1.579768,
        "name": "Thorigné Mairie",
        "code": 3315
      },
      "arrival": 28140,
      "departure": 28140
    },
    {
      "stop": {
        "id": "2_3314",
        "lat": 48.156034,
        "lon": -1.580608,
        "name": "Anne de Bretagne",
        "code": 3314
      },
      "arrival": 28200,
      "departure": 28200
    },
    {
      "stop": {
        "id": "2_3305",
        "lat": 48.158973,
        "lon": -1.579631,
        "name": "Bocage",
        "code": 3305
      },
      "arrival": 28260,
      "departure": 28260
    },
    {
      "stop": {
        "id": "2_3306",
        "lat": 48.164176,
        "lon": -1.579265,
        "name": "Juteauderies",
        "code": 3306
      },
      "arrival": 28320,
      "departure": 28320
    },
    {
      "stop": {
        "id": "2_3307",
        "lat": 48.160412,
        "lon": -1.586021,
        "name": "Fouillard",
        "code": 3307
      },
      "arrival": 28440,
      "departure": 28440
    },
    {
      "stop": {
        "id": "2_3309",
        "lat": 48.156271,
        "lon": -1.592376,
        "name": "Portail",
        "code": 3309
      },
      "arrival": 28500,
      "departure": 28500
    },
    {
      "stop": {
        "id": "2_2070",
        "lat": 48.145148,
        "lon": -1.608661,
        "name": "Victoire",
        "code": 2070
      },
      "arrival": 28680,
      "departure": 28680
    },
    {
      "stop": {
        "id": "2_2071",
        "lat": 48.140415,
        "lon": -1.616907,
        "name": "Calendrou",
        "code": 2071
      },
      "arrival": 28740,
      "departure": 28740
    },
    {
      "stop": {
        "id": "2_2114",
        "lat": 48.137351,
        "lon": -1.62275,
        "name": "Château de Vaux",
        "code": 2114
      },
      "arrival": 28800,
      "departure": 28800
    },
    {
      "stop": {
        "id": "2_2076",
        "lat": 48.134108,
        "lon": -1.62911,
        "name": "Lande Bouhard",
        "code": 2076
      },
      "arrival": 28860,
      "departure": 28860
    },
    {
      "stop": {
        "id": "2_1484",
        "lat": 48.131875,
        "lon": -1.635896,
        "name": "ZA Saint-Sulpice",
        "code": 1484
      },
      "arrival": 28920,
      "departure": 28920
    },
    {
      "stop": {
        "id": "2_1530",
        "lat": 48.128911,
        "lon": -1.642714,
        "name": "Pâtis Tatelin",
        "code": 1530
      },
      "arrival": 29040,
      "departure": 29040
    },
    {
      "stop": {
        "id": "2_1004",
        "lat": 48.125244,
        "lon": -1.642676,
        "name": "Donzelot",
        "code": 1004
      },
      "arrival": 29100,
      "departure": 29100
    },
    {
      "stop": {
        "id": "2_1005",
        "lat": 48.123363,
        "lon": -1.646317,
        "name": "Mirabeau",
        "code": 1005
      },
      "arrival": 29100,
      "departure": 29100
    },
    {
      "stop": {
        "id": "2_1006",
        "lat": 48.12229,
        "lon": -1.650742,
        "name": "Turmel",
        "code": 1006
      },
      "arrival": 29160,
      "departure": 29160
    },
    {
      "stop": {
        "id": "2_1111",
        "lat": 48.120189,
        "lon": -1.65077,
        "name": "Docteur Quentin",
        "code": 1111
      },
      "arrival": 29220,
      "departure": 29220
    },
    {
      "stop": {
        "id": "2_1432",
        "lat": 48.118675,
        "lon": -1.649887,
        "name": "Vitré Foulon",
        "code": 1432
      },
      "arrival": 29220,
      "departure": 29220
    },
    {
      "stop": {
        "id": "2_1513",
        "lat": 48.115378,
        "lon": -1.648495,
        "name": "Bois Perrin",
        "code": 1513
      },
      "arrival": 29280,
      "departure": 29280
    },
    {
      "stop": {
        "id": "2_1514",
        "lat": 48.113326,
        "lon": -1.647648,
        "name": "Moulin de Joué",
        "code": 1514
      },
      "arrival": 29280,
      "departure": 29280
    },
    {
      "stop": {
        "id": "2_1163",
        "lat": 48.110164,
        "lon": -1.660479,
        "name": "Robidou",
        "code": 1163
      },
      "arrival": 29460,
      "departure": 29460
    },
    {
      "stop": {
        "id": "2_1166",
        "lat": 48.109914,
        "lon": -1.675145,
        "name": "Musée Beaux Arts",
        "code": 1166
      },
      "arrival": 29640,
      "departure": 29640
    },
    {
      "stop": {
        "id": "2_1563",
        "lat": 48.109698,
        "lon": -1.67815,
        "name": "République",
        "code": 1563
      },
      "arrival": 29700,
      "departure": 29700
    }
  ],
  "route": {
    "id": "2_0050",
    "textColor": "FFFFFF",
    "color": "8DA6D2",
    "description": "Métropolitaine",
    "longName": "Rennes (République) \u003c\u003e Thorigné-Fouillard",
    "shortName": "50",
    "type": 3,
    "agencyId": "2"
  }
}