{
  "headsign": "59 | Rennes La Poterie",
  "stopTimes": [
    {
      "stop": {
        "id": "2_3401",
        "lat": 48.041337,
        "lon": -1.553405,
        "name": "Parc des Sports",
        "code": 3401
      },
      "arrival": 45900,
      "departure": 45900
    },
    {
      "stop": {
        "id": "2_3410",
        "lat": 48.040657,
        "lon": -1.550104,
        "name": "Langlois",
        "code": 3410
      },
      "arrival": 45900,
      "departure": 45900
    },
    {
      "stop": {
        "id": "2_3408",
        "lat": 48.040431,
        "lon": -1.541908,
        "name": "Chêne Centenaire",
        "code": 3408
      },
      "arrival": 46020,
      "departure": 46020
    },
    {
      "stop": {
        "id": "2_3404",
        "lat": 48.041308,
        "lon": -1.544619,
        "name": "Menault",
        "code": 3404
      },
      "arrival": 46020,
      "departure": 46020
    },
    {
      "stop": {
        "id": "2_3405",
        "lat": 48.04458,
        "lon": -1.561621,
        "name": "Eclosel",
        "code": 3405
      },
      "arrival": 46200,
      "departure": 46200
    },
    {
      "stop": {
        "id": "2_2631",
        "lat": 48.047644,
        "lon": -1.598485,
        "name": "Moulin",
        "code": 2631
      },
      "arrival": 46440,
      "departure": 46440
    },
    {
      "stop": {
        "id": "2_2630",
        "lat": 48.045052,
        "lon": -1.598931,
        "name": "Maillardière",
        "code": 2630
      },
      "arrival": 46500,
      "departure": 46500
    },
    {
      "stop": {
        "id": "2_2601",
        "lat": 48.038508,
        "lon": -1.602504,
        "name": "Croix Malinge",
        "code": 2601
      },
      "arrival": 46620,
      "departure": 46620
    },
    {
      "stop": {
        "id": "2_2602",
        "lat": 48.043401,
        "lon": -1.601647,
        "name": "Bel Air",
        "code": 2602
      },
      "arrival": 46680,
      "departure": 46680
    },
    {
      "stop": {
        "id": "2_2629",
        "lat": 48.047187,
        "lon": -1.602518,
        "name": "Vern Eglise",
        "code": 2629
      },
      "arrival": 46740,
      "departure": 46740
    },
    {
      "stop": {
        "id": "2_2604",
        "lat": 48.049558,
        "lon": -1.606153,
        "name": "Croix Rouge",
        "code": 2604
      },
      "arrival": 46800,
      "departure": 46800
    },
    {
      "stop": {
        "id": "2_2617",
        "lat": 48.049484,
        "lon": -1.611106,
        "name": "Fosse Gauchère",
        "code": 2617
      },
      "arrival": 46860,
      "departure": 46860
    },
    {
      "stop": {
        "id": "2_2606",
        "lat": 48.050629,
        "lon": -1.614982,
        "name": "Solidor",
        "code": 2606
      },
      "arrival": 46920,
      "departure": 46920
    },
    {
      "stop": {
        "id": "2_2607",
        "lat": 48.052615,
        "lon": -1.613836,
        "name": "Haute Abbaye",
        "code": 2607
      },
      "arrival": 46980,
      "departure": 46980
    },
    {
      "stop": {
        "id": "2_2608",
        "lat": 48.059275,
        "lon": -1.616638,
        "name": "Bretonnière",
        "code": 2608
      },
      "arrival": 47100,
      "departure": 47100
    },
    {
      "stop": {
        "id": "2_2609",
        "lat": 48.064138,
        "lon": -1.623074,
        "name": "Val d\u0027Orson",
        "code": 2609
      },
      "arrival": 47160,
      "departure": 47160
    },
    {
      "stop": {
        "id": "2_2610",
        "lat": 48.067768,
        "lon": -1.625701,
        "name": "Garenne",
        "code": 2610
      },
      "arrival": 47220,
      "departure": 47220
    },
    {
      "stop": {
        "id": "2_2611",
        "lat": 48.072416,
        "lon": -1.628709,
        "name": "Hallerais",
        "code": 2611
      },
      "arrival": 47280,
      "departure": 47280
    },
    {
      "stop": {
        "id": "2_3024",
        "lat": 48.07696,
        "lon": -1.631808,
        "name": "Martinière",
        "code": 3024
      },
      "arrival": 47340,
      "departure": 47340
    },
    {
      "stop": {
        "id": "2_1533",
        "lat": 48.087637,
        "lon": -1.643479,
        "name": "La Poterie",
        "code": 1533
      },
      "arrival": 47520,
      "departure": 47520
    }
  ],
  "route": {
    "id": "2_0059",
    "textColor": "1A171B",
    "color": "F19FC1",
    "description": "Métropolitaine",
    "longName": "Vern-sur-Seiche \u003c\u003e Rennes (La Poterie) / Rennes (Henri Fréville) \u003c\u003e Bruz (Gare)",
    "shortName": "59",
    "type": 3,
    "agencyId": "2"
  }
}