{
  "headsign": "65 | Rennes Villejean-Université",
  "stopTimes": [
    {
      "stop": {
        "id": "2_3617",
        "lat": 48.19376528,
        "lon": -1.83221163,
        "name": "Parthenay Fontaine",
        "code": 3617
      },
      "arrival": 23100,
      "departure": 23100
    },
    {
      "stop": {
        "id": "2_3602",
        "lat": 48.19206997,
        "lon": -1.83124343,
        "name": "Parthenay Mairie",
        "code": 3602
      },
      "arrival": 23160,
      "departure": 23160
    },
    {
      "stop": {
        "id": "2_3603",
        "lat": 48.19169643,
        "lon": -1.82725543,
        "name": "Clos des Tilleuls",
        "code": 3603
      },
      "arrival": 23220,
      "departure": 23220
    },
    {
      "stop": {
        "id": "2_3604",
        "lat": 48.19130065,
        "lon": -1.82459016,
        "name": "La Noë",
        "code": 3604
      },
      "arrival": 23220,
      "departure": 23220
    },
    {
      "stop": {
        "id": "2_3605",
        "lat": 48.19000461,
        "lon": -1.82079103,
        "name": "Placis de la Touche",
        "code": 3605
      },
      "arrival": 23220,
      "departure": 23220
    },
    {
      "stop": {
        "id": "2_3606",
        "lat": 48.1863579,
        "lon": -1.81649429,
        "name": "Le Reuvre",
        "code": 3606
      },
      "arrival": 23280,
      "departure": 23280
    },
    {
      "stop": {
        "id": "2_3145",
        "lat": 48.17999367,
        "lon": -1.8016791,
        "name": "Touche Champagne",
        "code": 3145
      },
      "arrival": 23400,
      "departure": 23400
    },
    {
      "stop": {
        "id": "2_3123",
        "lat": 48.17413905,
        "lon": -1.7893668,
        "name": "Chapitre",
        "code": 3123
      },
      "arrival": 23520,
      "departure": 23520
    },
    {
      "stop": {
        "id": "2_3142",
        "lat": 48.16738341,
        "lon": -1.78701515,
        "name": "Haute Rabine",
        "code": 3142
      },
      "arrival": 23640,
      "departure": 23640
    },
    {
      "stop": {
        "id": "2_3136",
        "lat": 48.15473272,
        "lon": -1.784426,
        "name": "Pont Amelin",
        "code": 3136
      },
      "arrival": 23760,
      "departure": 23760
    },
    {
      "stop": {
        "id": "2_3107",
        "lat": 48.15119535,
        "lon": -1.7776255,
        "name": "Renan",
        "code": 3107
      },
      "arrival": 23880,
      "departure": 23880
    },
    {
      "stop": {
        "id": "2_3108",
        "lat": 48.15091641,
        "lon": -1.77205003,
        "name": "Duchesse Anne",
        "code": 3108
      },
      "arrival": 23940,
      "departure": 23940
    },
    {
      "stop": {
        "id": "2_3109",
        "lat": 48.14815857,
        "lon": -1.76980701,
        "name": "Pacé Cimetière",
        "code": 3109
      },
      "arrival": 24000,
      "departure": 24000
    },
    {
      "stop": {
        "id": "2_3110",
        "lat": 48.1457978,
        "lon": -1.77067127,
        "name": "Carré Dumaine",
        "code": 3110
      },
      "arrival": 24060,
      "departure": 24060
    },
    {
      "stop": {
        "id": "2_3111",
        "lat": 48.14284412,
        "lon": -1.77014839,
        "name": "Le Ponant",
        "code": 3111
      },
      "arrival": 24120,
      "departure": 24120
    },
    {
      "stop": {
        "id": "2_1517",
        "lat": 48.11854026,
        "lon": -1.71363649,
        "name": "Berry",
        "code": 1517
      },
      "arrival": 24540,
      "departure": 24540
    },
    {
      "stop": {
        "id": "2_1520",
        "lat": 48.12050245,
        "lon": -1.70973991,
        "name": "Bourbonnais",
        "code": 1520
      },
      "arrival": 24600,
      "departure": 24600
    },
    {
      "stop": {
        "id": "2_1519",
        "lat": 48.12110069,
        "lon": -1.70297631,
        "name": "Villejean-Université",
        "code": 1519
      },
      "arrival": 24780,
      "departure": 24780
    }
  ],
  "route": {
    "id": "2_0065",
    "textColor": "FFFFFF",
    "color": "E36DA3",
    "description": "Métropolitaine",
    "longName": "Rennes (Villejean-Université) \u003c\u003e Pacé / Parthenay-de-Bretagne",
    "shortName": "65",
    "type": 3,
    "agencyId": "2"
  }
}