{
  "headsign": "52 | Pacé Saint-Gilles",
  "stopTimes": [
    {
      "stop": {
        "id": "2_4069",
        "lat": 48.183129,
        "lon": -1.726001,
        "name": "Besneraie",
        "code": 4069
      },
      "arrival": 73920,
      "departure": 73920
    },
    {
      "stop": {
        "id": "2_4053",
        "lat": 48.17951,
        "lon": -1.729201,
        "name": "Métairie",
        "code": 4053
      },
      "arrival": 74040,
      "departure": 74040
    },
    {
      "stop": {
        "id": "2_4054",
        "lat": 48.177108,
        "lon": -1.732207,
        "name": "Mairie",
        "code": 4054
      },
      "arrival": 74100,
      "departure": 74100
    },
    {
      "stop": {
        "id": "2_4055",
        "lat": 48.174111,
        "lon": -1.735204,
        "name": "Viennais",
        "code": 4055
      },
      "arrival": 74160,
      "departure": 74160
    },
    {
      "stop": {
        "id": "2_4056",
        "lat": 48.17016,
        "lon": -1.736188,
        "name": "Sénestrais",
        "code": 4056
      },
      "arrival": 74220,
      "departure": 74220
    },
    {
      "stop": {
        "id": "2_3500",
        "lat": 48.163969,
        "lon": -1.731752,
        "name": "Silandière",
        "code": 3500
      },
      "arrival": 74280,
      "departure": 74280
    },
    {
      "stop": {
        "id": "2_3514",
        "lat": 48.157221,
        "lon": -1.723306,
        "name": "Fougerolle",
        "code": 3514
      },
      "arrival": 74400,
      "departure": 74400
    },
    {
      "stop": {
        "id": "2_3502",
        "lat": 48.155655,
        "lon": -1.720614,
        "name": "Pierre Texier",
        "code": 3502
      },
      "arrival": 74460,
      "departure": 74460
    },
    {
      "stop": {
        "id": "2_3503",
        "lat": 48.15574,
        "lon": -1.71654,
        "name": "Montgermont Mairie",
        "code": 3503
      },
      "arrival": 74520,
      "departure": 74520
    },
    {
      "stop": {
        "id": "2_3504",
        "lat": 48.157226,
        "lon": -1.714447,
        "name": "Courtines",
        "code": 3504
      },
      "arrival": 74580,
      "departure": 74580
    },
    {
      "stop": {
        "id": "2_3505",
        "lat": 48.155304,
        "lon": -1.710895,
        "name": "Belle Epine",
        "code": 3505
      },
      "arrival": 74640,
      "departure": 74640
    },
    {
      "stop": {
        "id": "2_3506",
        "lat": 48.152987,
        "lon": -1.706581,
        "name": "Décoparc",
        "code": 3506
      },
      "arrival": 74700,
      "departure": 74700
    },
    {
      "stop": {
        "id": "2_3507",
        "lat": 48.148918,
        "lon": -1.704108,
        "name": "Vizeule",
        "code": 3507
      },
      "arrival": 74700,
      "departure": 74700
    },
    {
      "stop": {
        "id": "2_1492",
        "lat": 48.133784,
        "lon": -1.69386,
        "name": "Grand Quartier",
        "code": 1492
      },
      "arrival": 74880,
      "departure": 74880
    },
    {
      "stop": {
        "id": "2_1543",
        "lat": 48.131341,
        "lon": -1.691889,
        "name": "Léonard",
        "code": 1543
      },
      "arrival": 74940,
      "departure": 74940
    },
    {
      "stop": {
        "id": "2_1493",
        "lat": 48.127175,
        "lon": -1.693387,
        "name": "Lycée Basch",
        "code": 1493
      },
      "arrival": 75000,
      "departure": 75000
    },
    {
      "stop": {
        "id": "2_1497",
        "lat": 48.120973,
        "lon": -1.70298,
        "name": "Villejean-Université",
        "code": 1497
      },
      "arrival": 75300,
      "departure": 75300
    },
    {
      "stop": {
        "id": "2_1518",
        "lat": 48.120593,
        "lon": -1.710572,
        "name": "Bourbonnais",
        "code": 1518
      },
      "arrival": 75480,
      "departure": 75480
    },
    {
      "stop": {
        "id": "2_1521",
        "lat": 48.118462,
        "lon": -1.713825,
        "name": "Berry",
        "code": 1521
      },
      "arrival": 75540,
      "departure": 75540
    },
    {
      "stop": {
        "id": "2_3135",
        "lat": 48.141755,
        "lon": -1.771001,
        "name": "Nominoë",
        "code": 3135
      },
      "arrival": 75900,
      "departure": 75900
    },
    {
      "stop": {
        "id": "2_3105",
        "lat": 48.14765,
        "lon": -1.780916,
        "name": "Pinault",
        "code": 3105
      },
      "arrival": 76020,
      "departure": 76020
    },
    {
      "stop": {
        "id": "2_3120",
        "lat": 48.1486,
        "lon": -1.785006,
        "name": "Touche Milon",
        "code": 3120
      },
      "arrival": 76080,
      "departure": 76080
    },
    {
      "stop": {
        "id": "2_3121",
        "lat": 48.149381,
        "lon": -1.789012,
        "name": "Docteur Léon",
        "code": 3121
      },
      "arrival": 76080,
      "departure": 76080
    },
    {
      "stop": {
        "id": "2_3122",
        "lat": 48.151278,
        "lon": -1.792357,
        "name": "Pie Neuve",
        "code": 3122
      },
      "arrival": 76140,
      "departure": 76140
    },
    {
      "stop": {
        "id": "2_3710",
        "lat": 48.153626,
        "lon": -1.810538,
        "name": "Fouaye",
        "code": 3710
      },
      "arrival": 76260,
      "departure": 76260
    },
    {
      "stop": {
        "id": "2_3711",
        "lat": 48.154152,
        "lon": -1.819988,
        "name": "Vigne",
        "code": 3711
      },
      "arrival": 76320,
      "departure": 76320
    },
    {
      "stop": {
        "id": "2_3712",
        "lat": 48.150714,
        "lon": -1.824791,
        "name": "Pont aux Moines",
        "code": 3712
      },
      "arrival": 76440,
      "departure": 76440
    },
    {
      "stop": {
        "id": "2_3714",
        "lat": 48.152522,
        "lon": -1.829773,
        "name": "Saint-Gilles Centre",
        "code": 3714
      },
      "arrival": 76500,
      "departure": 76500
    },
    {
      "stop": {
        "id": "2_3724",
        "lat": 48.153843,
        "lon": -1.834042,
        "name": "Clos des Cerisiers",
        "code": 3724
      },
      "arrival": 76500,
      "departure": 76500
    },
    {
      "stop": {
        "id": "2_3723",
        "lat": 48.15406,
        "lon": -1.837815,
        "name": "Maison Neuve",
        "code": 3723
      },
      "arrival": 76560,
      "departure": 76560
    },
    {
      "stop": {
        "id": "2_3732",
        "lat": 48.14933,
        "lon": -1.839024,
        "name": "Ile des Bois",
        "code": 3732
      },
      "arrival": 76680,
      "departure": 76680
    }
  ],
  "route": {
    "id": "2_0052",
    "textColor": "FFFFFF",
    "color": "007C77",
    "description": "Métropolitaine",
    "longName": "Saint-Gilles / Pacé \u003c\u003e Rennes (Villejean-Université) \u003c\u003e Montgermont / La Chapelle-des-Fougeretz",
    "shortName": "52",
    "type": 3,
    "agencyId": "2"
  }
}