{
  "headsign": "53 | Rennes République",
  "stopTimes": [
    {
      "stop": {
        "id": "2_4267",
        "lat": 48.122595,
        "lon": -1.868366,
        "name": "Ville aux Archers",
        "code": 4267
      },
      "arrival": 52800,
      "departure": 52800
    },
    {
      "stop": {
        "id": "2_4264",
        "lat": 48.123069,
        "lon": -1.865899,
        "name": "Place de la Mairie",
        "code": 4264
      },
      "arrival": 52860,
      "departure": 52860
    },
    {
      "stop": {
        "id": "2_4252",
        "lat": 48.123011,
        "lon": -1.860726,
        "name": "Rochers",
        "code": 4252
      },
      "arrival": 52920,
      "departure": 52920
    },
    {
      "stop": {
        "id": "2_4253",
        "lat": 48.121939,
        "lon": -1.846158,
        "name": "Piardière",
        "code": 4253
      },
      "arrival": 53040,
      "departure": 53040
    },
    {
      "stop": {
        "id": "2_4254",
        "lat": 48.121285,
        "lon": -1.837645,
        "name": "Grippière",
        "code": 4254
      },
      "arrival": 53100,
      "departure": 53100
    },
    {
      "stop": {
        "id": "2_4301",
        "lat": 48.122924,
        "lon": -1.821633,
        "name": "Hautière",
        "code": 4301
      },
      "arrival": 53220,
      "departure": 53220
    },
    {
      "stop": {
        "id": "2_4303",
        "lat": 48.123875,
        "lon": -1.817721,
        "name": "L\u0027Hermitage Gare",
        "code": 4303
      },
      "arrival": 53280,
      "departure": 53280
    },
    {
      "stop": {
        "id": "2_4322",
        "lat": 48.125447,
        "lon": -1.815491,
        "name": "L\u0027Hermitage Centre",
        "code": 4322
      },
      "arrival": 53280,
      "departure": 53280
    },
    {
      "stop": {
        "id": "2_4305",
        "lat": 48.124609,
        "lon": -1.811557,
        "name": "Village",
        "code": 4305
      },
      "arrival": 53340,
      "departure": 53340
    },
    {
      "stop": {
        "id": "2_4306",
        "lat": 48.123163,
        "lon": -1.806172,
        "name": "Clairefontaine",
        "code": 4306
      },
      "arrival": 53340,
      "departure": 53340
    },
    {
      "stop": {
        "id": "2_4316",
        "lat": 48.122778,
        "lon": -1.801123,
        "name": "Noë Biche",
        "code": 4316
      },
      "arrival": 53400,
      "departure": 53400
    },
    {
      "stop": {
        "id": "2_3754",
        "lat": 48.12091,
        "lon": -1.772466,
        "name": "Haie de Terre",
        "code": 3754
      },
      "arrival": 53640,
      "departure": 53640
    },
    {
      "stop": {
        "id": "2_3755",
        "lat": 48.120211,
        "lon": -1.765417,
        "name": "Vallée",
        "code": 3755
      },
      "arrival": 53700,
      "departure": 53700
    },
    {
      "stop": {
        "id": "2_3756",
        "lat": 48.119004,
        "lon": -1.760926,
        "name": "Lion d\u0027Or",
        "code": 3756
      },
      "arrival": 53760,
      "departure": 53760
    },
    {
      "stop": {
        "id": "2_3757",
        "lat": 48.11887,
        "lon": -1.756833,
        "name": "Vezin Centre",
        "code": 3757
      },
      "arrival": 53820,
      "departure": 53820
    },
    {
      "stop": {
        "id": "2_3770",
        "lat": 48.118999,
        "lon": -1.749372,
        "name": "Champs Bleus",
        "code": 3770
      },
      "arrival": 53880,
      "departure": 53880
    },
    {
      "stop": {
        "id": "2_3758",
        "lat": 48.118334,
        "lon": -1.742441,
        "name": "Tertre",
        "code": 3758
      },
      "arrival": 53940,
      "departure": 53940
    },
    {
      "stop": {
        "id": "2_3759",
        "lat": 48.117611,
        "lon": -1.731377,
        "name": "Champ Noël",
        "code": 3759
      },
      "arrival": 54000,
      "departure": 54000
    },
    {
      "stop": {
        "id": "2_1504",
        "lat": 48.116353,
        "lon": -1.723158,
        "name": "Petit Champeaux",
        "code": 1504
      },
      "arrival": 54060,
      "departure": 54060
    },
    {
      "stop": {
        "id": "2_1503",
        "lat": 48.116133,
        "lon": -1.715924,
        "name": "Colin",
        "code": 1503
      },
      "arrival": 54120,
      "departure": 54120
    },
    {
      "stop": {
        "id": "2_1422",
        "lat": 48.116261,
        "lon": -1.711309,
        "name": "Merlin",
        "code": 1422
      },
      "arrival": 54180,
      "departure": 54180
    },
    {
      "stop": {
        "id": "2_1500",
        "lat": 48.113203,
        "lon": -1.704506,
        "name": "Agrocampus",
        "code": 1500
      },
      "arrival": 54300,
      "departure": 54300
    },
    {
      "stop": {
        "id": "2_1294",
        "lat": 48.111305,
        "lon": -1.701301,
        "name": "Marbeuf",
        "code": 1294
      },
      "arrival": 54360,
      "departure": 54360
    },
    {
      "stop": {
        "id": "2_1311",
        "lat": 48.10957,
        "lon": -1.698313,
        "name": "Guilloux",
        "code": 1311
      },
      "arrival": 54420,
      "departure": 54420
    },
    {
      "stop": {
        "id": "2_1239",
        "lat": 48.108256,
        "lon": -1.694158,
        "name": "Chèques Postaux",
        "code": 1239
      },
      "arrival": 54480,
      "departure": 54480
    },
    {
      "stop": {
        "id": "2_1542",
        "lat": 48.10992,
        "lon": -1.68535,
        "name": "Pont de Bretagne",
        "code": 1542
      },
      "arrival": 54600,
      "departure": 54600
    },
    {
      "stop": {
        "id": "2_1167",
        "lat": 48.109405,
        "lon": -1.678734,
        "name": "République Pré Botté",
        "code": 1167
      },
      "arrival": 54780,
      "departure": 54780
    }
  ],
  "route": {
    "id": "2_0053",
    "textColor": "FFFFFF",
    "color": "D20132",
    "description": "Métropolitaine",
    "longName": "Rennes (République) \u003c\u003e Vezin-le-Coquet / L\u0027Hermitage / La Chapelle-Thouarault",
    "shortName": "53",
    "type": 3,
    "agencyId": "2"
  }
}