{
  "headsign": "53 | Vezin Hermitage Chapelle-Th.",
  "stopTimes": [
    {
      "stop": {
        "id": "2_1167",
        "lat": 48.109405,
        "lon": -1.678734,
        "name": "République Pré Botté",
        "code": 1167
      },
      "arrival": 31500,
      "departure": 31500
    },
    {
      "stop": {
        "id": "2_1540",
        "lat": 48.109999,
        "lon": -1.685158,
        "name": "Pont de Bretagne",
        "code": 1540
      },
      "arrival": 31680,
      "departure": 31680
    },
    {
      "stop": {
        "id": "2_1217",
        "lat": 48.108252,
        "lon": -1.694511,
        "name": "Chèques Postaux",
        "code": 1217
      },
      "arrival": 31800,
      "departure": 31800
    },
    {
      "stop": {
        "id": "2_1293",
        "lat": 48.110001,
        "lon": -1.698679,
        "name": "Guilloux",
        "code": 1293
      },
      "arrival": 31860,
      "departure": 31860
    },
    {
      "stop": {
        "id": "2_1310",
        "lat": 48.111292,
        "lon": -1.700837,
        "name": "Marbeuf",
        "code": 1310
      },
      "arrival": 31920,
      "departure": 31920
    },
    {
      "stop": {
        "id": "2_1502",
        "lat": 48.113945,
        "lon": -1.705436,
        "name": "Agrocampus",
        "code": 1502
      },
      "arrival": 31980,
      "departure": 31980
    },
    {
      "stop": {
        "id": "2_1414",
        "lat": 48.116416,
        "lon": -1.712265,
        "name": "Merlin",
        "code": 1414
      },
      "arrival": 32040,
      "departure": 32040
    },
    {
      "stop": {
        "id": "2_1499",
        "lat": 48.1163,
        "lon": -1.716029,
        "name": "Colin",
        "code": 1499
      },
      "arrival": 32040,
      "departure": 32040
    },
    {
      "stop": {
        "id": "2_1498",
        "lat": 48.116622,
        "lon": -1.723945,
        "name": "Petit Champeaux",
        "code": 1498
      },
      "arrival": 32100,
      "departure": 32100
    },
    {
      "stop": {
        "id": "2_3760",
        "lat": 48.117765,
        "lon": -1.731221,
        "name": "Champ Noël",
        "code": 3760
      },
      "arrival": 32160,
      "departure": 32160
    },
    {
      "stop": {
        "id": "2_3761",
        "lat": 48.118418,
        "lon": -1.741401,
        "name": "Tertre",
        "code": 3761
      },
      "arrival": 32220,
      "departure": 32220
    },
    {
      "stop": {
        "id": "2_3771",
        "lat": 48.119126,
        "lon": -1.749551,
        "name": "Champs Bleus",
        "code": 3771
      },
      "arrival": 32280,
      "departure": 32280
    },
    {
      "stop": {
        "id": "2_3762",
        "lat": 48.11923,
        "lon": -1.755499,
        "name": "Vezin Centre",
        "code": 3762
      },
      "arrival": 32280,
      "departure": 32280
    },
    {
      "stop": {
        "id": "2_3763",
        "lat": 48.119239,
        "lon": -1.761273,
        "name": "Lion d\u0027Or",
        "code": 3763
      },
      "arrival": 32340,
      "departure": 32340
    },
    {
      "stop": {
        "id": "2_3764",
        "lat": 48.120402,
        "lon": -1.765585,
        "name": "Vallée",
        "code": 3764
      },
      "arrival": 32400,
      "departure": 32400
    },
    {
      "stop": {
        "id": "2_3765",
        "lat": 48.121023,
        "lon": -1.771757,
        "name": "Haie de Terre",
        "code": 3765
      },
      "arrival": 32460,
      "departure": 32460
    },
    {
      "stop": {
        "id": "2_4315",
        "lat": 48.122997,
        "lon": -1.802546,
        "name": "Noë Biche",
        "code": 4315
      },
      "arrival": 32640,
      "departure": 32640
    },
    {
      "stop": {
        "id": "2_4307",
        "lat": 48.123516,
        "lon": -1.807448,
        "name": "Clairefontaine",
        "code": 4307
      },
      "arrival": 32700,
      "departure": 32700
    },
    {
      "stop": {
        "id": "2_4308",
        "lat": 48.125058,
        "lon": -1.813014,
        "name": "Village",
        "code": 4308
      },
      "arrival": 32760,
      "departure": 32760
    },
    {
      "stop": {
        "id": "2_4304",
        "lat": 48.125578,
        "lon": -1.815962,
        "name": "L\u0027Hermitage Centre",
        "code": 4304
      },
      "arrival": 32760,
      "departure": 32760
    },
    {
      "stop": {
        "id": "2_4310",
        "lat": 48.12375,
        "lon": -1.817992,
        "name": "L\u0027Hermitage Gare",
        "code": 4310
      },
      "arrival": 32760,
      "departure": 32760
    },
    {
      "stop": {
        "id": "2_4311",
        "lat": 48.12295,
        "lon": -1.82085,
        "name": "Hautière",
        "code": 4311
      },
      "arrival": 32820,
      "departure": 32820
    },
    {
      "stop": {
        "id": "2_4255",
        "lat": 48.12143,
        "lon": -1.83765,
        "name": "Grippière",
        "code": 4255
      },
      "arrival": 32940,
      "departure": 32940
    },
    {
      "stop": {
        "id": "2_4256",
        "lat": 48.122037,
        "lon": -1.846175,
        "name": "Piardière",
        "code": 4256
      },
      "arrival": 33000,
      "departure": 33000
    },
    {
      "stop": {
        "id": "2_4257",
        "lat": 48.123122,
        "lon": -1.860835,
        "name": "Rochers",
        "code": 4257
      },
      "arrival": 33060,
      "departure": 33060
    },
    {
      "stop": {
        "id": "2_4269",
        "lat": 48.123099,
        "lon": -1.866053,
        "name": "Place de la Mairie",
        "code": 4269
      },
      "arrival": 33120,
      "departure": 33120
    },
    {
      "stop": {
        "id": "2_4267",
        "lat": 48.122595,
        "lon": -1.868366,
        "name": "Ville aux Archers",
        "code": 4267
      },
      "arrival": 33120,
      "departure": 33120
    }
  ],
  "route": {
    "id": "2_0053",
    "textColor": "FFFFFF",
    "color": "D20132",
    "description": "Métropolitaine",
    "longName": "Rennes (République) \u003c\u003e Vezin-le-Coquet / L\u0027Hermitage / La Chapelle-Thouarault",
    "shortName": "53",
    "type": 3,
    "agencyId": "2"
  }
}