{
  "headsign": "78 | Saint-Grégoire Betton Centre",
  "stopTimes": [
    {
      "stop": {
        "id": "2_1497",
        "lat": 48.12102411,
        "lon": -1.70300103,
        "name": "Villejean-Université",
        "code": 1497
      },
      "arrival": 30900,
      "departure": 30900
    },
    {
      "stop": {
        "id": "2_1495",
        "lat": 48.12663856,
        "lon": -1.69309309,
        "name": "Lycée Basch",
        "code": 1495
      },
      "arrival": 31140,
      "departure": 31140
    },
    {
      "stop": {
        "id": "2_1537",
        "lat": 48.13157496,
        "lon": -1.69170144,
        "name": "Léonard",
        "code": 1537
      },
      "arrival": 31260,
      "departure": 31260
    },
    {
      "stop": {
        "id": "2_2826",
        "lat": 48.13558496,
        "lon": -1.69298612,
        "name": "Grand Quartier",
        "code": 2826
      },
      "arrival": 31380,
      "departure": 31380
    },
    {
      "stop": {
        "id": "2_2816",
        "lat": 48.13819857,
        "lon": -1.68643094,
        "name": "La Plesse",
        "code": 2816
      },
      "arrival": 31500,
      "departure": 31500
    },
    {
      "stop": {
        "id": "2_2814",
        "lat": 48.14290311,
        "lon": -1.68658457,
        "name": "CHP Saint-Grégoire",
        "code": 2814
      },
      "arrival": 31560,
      "departure": 31560
    },
    {
      "stop": {
        "id": "2_2851",
        "lat": 48.14808225,
        "lon": -1.69689434,
        "name": "Edonia",
        "code": 2851
      },
      "arrival": 31680,
      "departure": 31680
    },
    {
      "stop": {
        "id": "2_2839",
        "lat": 48.15439383,
        "lon": -1.69667264,
        "name": "Alphasis",
        "code": 2839
      },
      "arrival": 31800,
      "departure": 31800
    },
    {
      "stop": {
        "id": "2_2849",
        "lat": 48.15441903,
        "lon": -1.69247634,
        "name": "Paul-Emile Victor",
        "code": 2849
      },
      "arrival": 31860,
      "departure": 31860
    },
    {
      "stop": {
        "id": "2_2847",
        "lat": 48.15183122,
        "lon": -1.6845098,
        "name": "Forge",
        "code": 2847
      },
      "arrival": 32040,
      "departure": 32040
    },
    {
      "stop": {
        "id": "2_2832",
        "lat": 48.15462598,
        "lon": -1.67885041,
        "name": "Holywell",
        "code": 2832
      },
      "arrival": 32160,
      "departure": 32160
    },
    {
      "stop": {
        "id": "2_2834",
        "lat": 48.15986552,
        "lon": -1.67719977,
        "name": "Jean-Paul II",
        "code": 2834
      },
      "arrival": 32280,
      "departure": 32280
    },
    {
      "stop": {
        "id": "2_2453",
        "lat": 48.17546606,
        "lon": -1.66229478,
        "name": "Chaperonnais",
        "code": 2453
      },
      "arrival": 32460,
      "departure": 32460
    },
    {
      "stop": {
        "id": "2_2457",
        "lat": 48.17902581,
        "lon": -1.66056625,
        "name": "Pont Brand",
        "code": 2457
      },
      "arrival": 32520,
      "departure": 32520
    },
    {
      "stop": {
        "id": "2_2455",
        "lat": 48.18329101,
        "lon": -1.65464232,
        "name": "Renaudais",
        "code": 2455
      },
      "arrival": 32640,
      "departure": 32640
    },
    {
      "stop": {
        "id": "2_2441",
        "lat": 48.18495407,
        "lon": -1.65000002,
        "name": "Mézières",
        "code": 2441
      },
      "arrival": 32700,
      "departure": 32700
    },
    {
      "stop": {
        "id": "2_2449",
        "lat": 48.18368939,
        "lon": -1.64641107,
        "name": "Trégor",
        "code": 2449
      },
      "arrival": 32760,
      "departure": 32760
    },
    {
      "stop": {
        "id": "2_2405",
        "lat": 48.18191274,
        "lon": -1.64173916,
        "name": "Betton Mairie",
        "code": 2405
      },
      "arrival": 32820,
      "departure": 32820
    },
    {
      "stop": {
        "id": "2_2437",
        "lat": 48.18157224,
        "lon": -1.63928389,
        "name": "Betton Centre",
        "code": 2437
      },
      "arrival": 32880,
      "departure": 32880
    }
  ],
  "route": {
    "id": "2_0078",
    "textColor": "FFFFFF",
    "color": "E3006A",
    "description": "Métropolitaine",
    "longName": "Rennes (Villejean-Université) \u003c\u003e Saint-Grégoire / Betton (Centre)",
    "shortName": "78",
    "type": 3,
    "agencyId": "2"
  }
}