{
  "headsign": "74 | Orgères Moc Souris",
  "stopTimes": [
    {
      "stop": {
        "id": "2_1534",
        "lat": 48.08831453,
        "lon": -1.67444337,
        "name": "Henri Fréville",
        "code": 1534
      },
      "arrival": 66300,
      "departure": 66300
    },
    {
      "stop": {
        "id": "2_4357",
        "lat": 48.01706279,
        "lon": -1.66474597,
        "name": "Croix du Pigeonnet",
        "code": 4357
      },
      "arrival": 67020,
      "departure": 67020
    },
    {
      "stop": {
        "id": "2_3249",
        "lat": 48.01492798,
        "lon": -1.66396872,
        "name": "Orgerblon",
        "code": 3249
      },
      "arrival": 67020,
      "departure": 67020
    },
    {
      "stop": {
        "id": "2_3216",
        "lat": 48.00913379,
        "lon": -1.66637462,
        "name": "Plardière",
        "code": 3216
      },
      "arrival": 67080,
      "departure": 67080
    },
    {
      "stop": {
        "id": "2_3217",
        "lat": 48.00045136,
        "lon": -1.66706223,
        "name": "Levant",
        "code": 3217
      },
      "arrival": 67200,
      "departure": 67200
    },
    {
      "stop": {
        "id": "2_3218",
        "lat": 47.99689445,
        "lon": -1.66900508,
        "name": "Groupe Scolaire",
        "code": 3218
      },
      "arrival": 67260,
      "departure": 67260
    },
    {
      "stop": {
        "id": "2_3219",
        "lat": 47.99494128,
        "lon": -1.67090261,
        "name": "Coteau",
        "code": 3219
      },
      "arrival": 67320,
      "departure": 67320
    },
    {
      "stop": {
        "id": "2_3220",
        "lat": 47.99225072,
        "lon": -1.66789719,
        "name": "Surcouf",
        "code": 3220
      },
      "arrival": 67380,
      "departure": 67380
    },
    {
      "stop": {
        "id": "2_3221",
        "lat": 47.99372623,
        "lon": -1.6652472,
        "name": "Chateaubriand",
        "code": 3221
      },
      "arrival": 67500,
      "departure": 67500
    },
    {
      "stop": {
        "id": "2_3204",
        "lat": 47.98326977,
        "lon": -1.66000223,
        "name": "Télégraphe",
        "code": 3204
      },
      "arrival": 67740,
      "departure": 67740
    },
    {
      "stop": {
        "id": "2_3205",
        "lat": 47.9761171,
        "lon": -1.65714416,
        "name": "Petite Rochelle",
        "code": 3205
      },
      "arrival": 67860,
      "departure": 67860
    },
    {
      "stop": {
        "id": "2_3206",
        "lat": 47.97543073,
        "lon": -1.65239827,
        "name": "Frogerais",
        "code": 3206
      },
      "arrival": 67860,
      "departure": 67860
    },
    {
      "stop": {
        "id": "2_3207",
        "lat": 47.96965314,
        "lon": -1.6457694,
        "name": "Fort Joual",
        "code": 3207
      },
      "arrival": 67980,
      "departure": 67980
    },
    {
      "stop": {
        "id": "2_3811",
        "lat": 47.95954125,
        "lon": -1.63703108,
        "name": "Sept Fours",
        "code": 3811
      },
      "arrival": 68160,
      "departure": 68160
    },
    {
      "stop": {
        "id": "2_3813",
        "lat": 47.96011491,
        "lon": -1.63140399,
        "name": "Moc Souris",
        "code": 3813
      },
      "arrival": 68220,
      "departure": 68220
    }
  ],
  "route": {
    "id": "2_0074",
    "textColor": "201D21",
    "color": "F6C200",
    "description": "Métropolitaine",
    "longName": "Rennes (Henri Fréville) \u003c\u003e Orgères / Bourgbarré",
    "shortName": "74",
    "type": 3,
    "agencyId": "2"
  }
}