{
  "headsign": "54 | Rennes Charles de Gaulle",
  "stopTimes": [
    {
      "stop": {
        "id": "2_4652",
        "lat": 48.105043,
        "lon": -1.872646,
        "name": "Chêne Vert",
        "code": 4652
      },
      "arrival": 30480,
      "departure": 30480
    },
    {
      "stop": {
        "id": "2_4653",
        "lat": 48.103336,
        "lon": -1.869545,
        "name": "Saint-Melaine",
        "code": 4653
      },
      "arrival": 30540,
      "departure": 30540
    },
    {
      "stop": {
        "id": "2_2501",
        "lat": 48.102436,
        "lon": -1.832289,
        "name": "Noë Diolé",
        "code": 2501
      },
      "arrival": 30720,
      "departure": 30720
    },
    {
      "stop": {
        "id": "2_2502",
        "lat": 48.100526,
        "lon": -1.806596,
        "name": "Lycée Monod",
        "code": 2502
      },
      "arrival": 30900,
      "departure": 30900
    },
    {
      "stop": {
        "id": "2_2503",
        "lat": 48.098908,
        "lon": -1.801395,
        "name": "Champs Freslons",
        "code": 2503
      },
      "arrival": 30960,
      "departure": 30960
    },
    {
      "stop": {
        "id": "2_2504",
        "lat": 48.098973,
        "lon": -1.796821,
        "name": "Brassens",
        "code": 2504
      },
      "arrival": 31020,
      "departure": 31020
    },
    {
      "stop": {
        "id": "2_2505",
        "lat": 48.101535,
        "lon": -1.794453,
        "name": "Bouleaux",
        "code": 2505
      },
      "arrival": 31080,
      "departure": 31080
    },
    {
      "stop": {
        "id": "2_2506",
        "lat": 48.099251,
        "lon": -1.791133,
        "name": "Genêts",
        "code": 2506
      },
      "arrival": 31140,
      "departure": 31140
    },
    {
      "stop": {
        "id": "2_2507",
        "lat": 48.097502,
        "lon": -1.781275,
        "name": "Barberais",
        "code": 2507
      },
      "arrival": 31260,
      "departure": 31260
    },
    {
      "stop": {
        "id": "2_2508",
        "lat": 48.096835,
        "lon": -1.77559,
        "name": "Les Pins",
        "code": 2508
      },
      "arrival": 31320,
      "departure": 31320
    },
    {
      "stop": {
        "id": "2_2509",
        "lat": 48.096139,
        "lon": -1.764573,
        "name": "Pont d\u0027Avoine",
        "code": 2509
      },
      "arrival": 31440,
      "departure": 31440
    },
    {
      "stop": {
        "id": "2_2510",
        "lat": 48.10389,
        "lon": -1.75034,
        "name": "Plessix Saucourt",
        "code": 2510
      },
      "arrival": 31560,
      "departure": 31560
    },
    {
      "stop": {
        "id": "2_3752",
        "lat": 48.104704,
        "lon": -1.739009,
        "name": "Trois Marches",
        "code": 3752
      },
      "arrival": 31680,
      "departure": 31680
    },
    {
      "stop": {
        "id": "2_1508",
        "lat": 48.106693,
        "lon": -1.729127,
        "name": "Berthault",
        "code": 1508
      },
      "arrival": 31800,
      "departure": 31800
    },
    {
      "stop": {
        "id": "2_1233",
        "lat": 48.107021,
        "lon": -1.72162,
        "name": "Lemaistre",
        "code": 1233
      },
      "arrival": 31860,
      "departure": 31860
    },
    {
      "stop": {
        "id": "2_1235",
        "lat": 48.108898,
        "lon": -1.709658,
        "name": "Géniaux",
        "code": 1235
      },
      "arrival": 31980,
      "departure": 31980
    },
    {
      "stop": {
        "id": "2_1238",
        "lat": 48.108687,
        "lon": -1.698735,
        "name": "Guilloux Lorient",
        "code": 1238
      },
      "arrival": 32100,
      "departure": 32100
    },
    {
      "stop": {
        "id": "2_1239",
        "lat": 48.108256,
        "lon": -1.694158,
        "name": "Chèques Postaux",
        "code": 1239
      },
      "arrival": 32160,
      "departure": 32160
    },
    {
      "stop": {
        "id": "2_1542",
        "lat": 48.10992,
        "lon": -1.68535,
        "name": "Pont de Bretagne",
        "code": 1542
      },
      "arrival": 32340,
      "departure": 32340
    },
    {
      "stop": {
        "id": "2_1242",
        "lat": 48.109758,
        "lon": -1.679532,
        "name": "République",
        "code": 1242
      },
      "arrival": 32400,
      "departure": 32400
    },
    {
      "stop": {
        "id": "2_1088",
        "lat": 48.107377,
        "lon": -1.674981,
        "name": "Liberté TNB",
        "code": 1088
      },
      "arrival": 32520,
      "departure": 32520
    },
    {
      "stop": {
        "id": "2_1567",
        "lat": 48.106213,
        "lon": -1.677425,
        "name": "Charles de Gaulle",
        "code": 1567
      },
      "arrival": 32640,
      "departure": 32640
    }
  ],
  "route": {
    "id": "2_0054",
    "textColor": "FFFFFF",
    "color": "CD93BD",
    "description": "Métropolitaine",
    "longName": "Rennes (Charles de Gaulle) \u003c\u003e Le Rheu / Cintré",
    "shortName": "54",
    "type": 3,
    "agencyId": "2"
  }
}