{
  "headsign": "201 | Rennes Lycée Assomption",
  "stopTimes": [
    {
      "stop": {
        "id": "2_3301",
        "lat": 48.155188,
        "lon": -1.573107,
        "name": "Landelles",
        "code": 3301
      },
      "arrival": 30120,
      "departure": 30120
    },
    {
      "stop": {
        "id": "2_3322",
        "lat": 48.149328,
        "lon": -1.577527,
        "name": "Curien",
        "code": 3322
      },
      "arrival": 30240,
      "departure": 30240
    },
    {
      "stop": {
        "id": "2_3315",
        "lat": 48.153606,
        "lon": -1.579768,
        "name": "Thorigné Mairie",
        "code": 3315
      },
      "arrival": 30360,
      "departure": 30360
    },
    {
      "stop": {
        "id": "2_3314",
        "lat": 48.156034,
        "lon": -1.580608,
        "name": "Anne de Bretagne",
        "code": 3314
      },
      "arrival": 30420,
      "departure": 30420
    },
    {
      "stop": {
        "id": "2_3305",
        "lat": 48.158973,
        "lon": -1.579631,
        "name": "Bocage",
        "code": 3305
      },
      "arrival": 30480,
      "departure": 30480
    },
    {
      "stop": {
        "id": "2_3306",
        "lat": 48.164176,
        "lon": -1.579265,
        "name": "Juteauderies",
        "code": 3306
      },
      "arrival": 30600,
      "departure": 30600
    },
    {
      "stop": {
        "id": "2_3307",
        "lat": 48.160412,
        "lon": -1.586021,
        "name": "Fouillard",
        "code": 3307
      },
      "arrival": 30720,
      "departure": 30720
    },
    {
      "stop": {
        "id": "2_3309",
        "lat": 48.156271,
        "lon": -1.592376,
        "name": "Portail",
        "code": 3309
      },
      "arrival": 30780,
      "departure": 30780
    },
    {
      "stop": {
        "id": "2_2070",
        "lat": 48.145148,
        "lon": -1.608661,
        "name": "Victoire",
        "code": 2070
      },
      "arrival": 30960,
      "departure": 30960
    },
    {
      "stop": {
        "id": "2_2071",
        "lat": 48.140415,
        "lon": -1.616907,
        "name": "Calendrou",
        "code": 2071
      },
      "arrival": 31020,
      "departure": 31020
    },
    {
      "stop": {
        "id": "2_2076",
        "lat": 48.134108,
        "lon": -1.62911,
        "name": "Lande Bouhard",
        "code": 2076
      },
      "arrival": 31200,
      "departure": 31200
    },
    {
      "stop": {
        "id": "2_1409",
        "lat": 48.126831,
        "lon": -1.653313,
        "name": "Joliot-Curie",
        "code": 1409
      },
      "arrival": 31500,
      "departure": 31500
    },
    {
      "stop": {
        "id": "2_1614",
        "lat": 48.121972,
        "lon": -1.656489,
        "name": "Assomption",
        "code": 1614
      },
      "arrival": 31800,
      "departure": 31800
    }
  ],
  "route": {
    "id": "2_0201",
    "textColor": "FFFFFF",
    "color": "E30613",
    "description": "Complémentaire",
    "longName": "Thorigné-Fouillard (Landelles) \u003c\u003e Rennes (Lycée Assomption)",
    "shortName": "201",
    "type": 3,
    "agencyId": "2"
  }
}