{
  "headsign": "74 | Orgères Moc Souris",
  "stopTimes": [
    {
      "stop": {
        "id": "2_1534",
        "lat": 48.08831454,
        "lon": -1.67444337,
        "name": "Henri Fréville",
        "code": 1534
      },
      "arrival": 62700,
      "departure": 62700
    },
    {
      "stop": {
        "id": "2_4357",
        "lat": 48.01706446,
        "lon": -1.66466568,
        "name": "Croix du Pigeonnet",
        "code": 4357
      },
      "arrival": 63540,
      "departure": 63540
    },
    {
      "stop": {
        "id": "2_3249",
        "lat": 48.01492989,
        "lon": -1.66394359,
        "name": "Orgerblon",
        "code": 3249
      },
      "arrival": 63540,
      "departure": 63540
    },
    {
      "stop": {
        "id": "2_3216",
        "lat": 48.00912373,
        "lon": -1.66637371,
        "name": "Plardière",
        "code": 3216
      },
      "arrival": 63600,
      "departure": 63600
    },
    {
      "stop": {
        "id": "2_3217",
        "lat": 48.00045137,
        "lon": -1.66706223,
        "name": "Levant",
        "code": 3217
      },
      "arrival": 63720,
      "departure": 63720
    },
    {
      "stop": {
        "id": "2_3218",
        "lat": 47.99689445,
        "lon": -1.66900508,
        "name": "Groupe Scolaire",
        "code": 3218
      },
      "arrival": 63780,
      "departure": 63780
    },
    {
      "stop": {
        "id": "2_3219",
        "lat": 47.99494129,
        "lon": -1.67090261,
        "name": "Coteau",
        "code": 3219
      },
      "arrival": 63840,
      "departure": 63840
    },
    {
      "stop": {
        "id": "2_3220",
        "lat": 47.99225073,
        "lon": -1.66789719,
        "name": "Surcouf",
        "code": 3220
      },
      "arrival": 63900,
      "departure": 63900
    },
    {
      "stop": {
        "id": "2_3221",
        "lat": 47.99372624,
        "lon": -1.6652472,
        "name": "Chateaubriand",
        "code": 3221
      },
      "arrival": 64020,
      "departure": 64020
    },
    {
      "stop": {
        "id": "2_3204",
        "lat": 47.98326978,
        "lon": -1.66000223,
        "name": "Télégraphe",
        "code": 3204
      },
      "arrival": 64140,
      "departure": 64140
    },
    {
      "stop": {
        "id": "2_3205",
        "lat": 47.97611711,
        "lon": -1.65714416,
        "name": "Petite Rochelle",
        "code": 3205
      },
      "arrival": 64260,
      "departure": 64260
    },
    {
      "stop": {
        "id": "2_3206",
        "lat": 47.97543073,
        "lon": -1.65239827,
        "name": "Frogerais",
        "code": 3206
      },
      "arrival": 64260,
      "departure": 64260
    },
    {
      "stop": {
        "id": "2_3207",
        "lat": 47.96965315,
        "lon": -1.6457694,
        "name": "Fort Joual",
        "code": 3207
      },
      "arrival": 64380,
      "departure": 64380
    },
    {
      "stop": {
        "id": "2_3811",
        "lat": 47.95954125,
        "lon": -1.63703108,
        "name": "Sept Fours",
        "code": 3811
      },
      "arrival": 64500,
      "departure": 64500
    },
    {
      "stop": {
        "id": "2_3810",
        "lat": 47.95999343,
        "lon": -1.63242683,
        "name": "Moc Souris",
        "code": 3810
      },
      "arrival": 64560,
      "departure": 64560
    }
  ],
  "route": {
    "id": "2_0074",
    "textColor": "1A171B",
    "color": "FCC000",
    "description": "Métropolitaine",
    "longName": "Rennes (Henri Fréville) \u003c\u003e Orgères / Bourgbarré",
    "shortName": "74",
    "type": 3,
    "agencyId": "2"
  }
}