{
  "headsign": "54 | Rennes Charles de Gaulle",
  "stopTimes": [
    {
      "stop": {
        "id": "2_4652",
        "lat": 48.105043,
        "lon": -1.872646,
        "name": "Chêne Vert",
        "code": 4652
      },
      "arrival": 66000,
      "departure": 66000
    },
    {
      "stop": {
        "id": "2_4653",
        "lat": 48.103336,
        "lon": -1.869545,
        "name": "Saint-Melaine",
        "code": 4653
      },
      "arrival": 66060,
      "departure": 66060
    },
    {
      "stop": {
        "id": "2_2501",
        "lat": 48.102436,
        "lon": -1.832289,
        "name": "Noë Diolé",
        "code": 2501
      },
      "arrival": 66240,
      "departure": 66240
    },
    {
      "stop": {
        "id": "2_2502",
        "lat": 48.100526,
        "lon": -1.806596,
        "name": "Lycée Monod",
        "code": 2502
      },
      "arrival": 66420,
      "departure": 66420
    },
    {
      "stop": {
        "id": "2_2503",
        "lat": 48.098908,
        "lon": -1.801395,
        "name": "Champs Freslons",
        "code": 2503
      },
      "arrival": 66480,
      "departure": 66480
    },
    {
      "stop": {
        "id": "2_2504",
        "lat": 48.098973,
        "lon": -1.796821,
        "name": "Brassens",
        "code": 2504
      },
      "arrival": 66540,
      "departure": 66540
    },
    {
      "stop": {
        "id": "2_2505",
        "lat": 48.101535,
        "lon": -1.794453,
        "name": "Bouleaux",
        "code": 2505
      },
      "arrival": 66600,
      "departure": 66600
    },
    {
      "stop": {
        "id": "2_2506",
        "lat": 48.099251,
        "lon": -1.791133,
        "name": "Genêts",
        "code": 2506
      },
      "arrival": 66660,
      "departure": 66660
    },
    {
      "stop": {
        "id": "2_2507",
        "lat": 48.097502,
        "lon": -1.781275,
        "name": "Barberais",
        "code": 2507
      },
      "arrival": 66720,
      "departure": 66720
    },
    {
      "stop": {
        "id": "2_2508",
        "lat": 48.096835,
        "lon": -1.77559,
        "name": "Les Pins",
        "code": 2508
      },
      "arrival": 66780,
      "departure": 66780
    },
    {
      "stop": {
        "id": "2_2509",
        "lat": 48.096139,
        "lon": -1.764573,
        "name": "Pont d\u0027Avoine",
        "code": 2509
      },
      "arrival": 66900,
      "departure": 66900
    },
    {
      "stop": {
        "id": "2_2510",
        "lat": 48.10389,
        "lon": -1.75034,
        "name": "Plessix Saucourt",
        "code": 2510
      },
      "arrival": 67080,
      "departure": 67080
    },
    {
      "stop": {
        "id": "2_3752",
        "lat": 48.104704,
        "lon": -1.739009,
        "name": "Trois Marches",
        "code": 3752
      },
      "arrival": 67200,
      "departure": 67200
    },
    {
      "stop": {
        "id": "2_1508",
        "lat": 48.106693,
        "lon": -1.729127,
        "name": "Berthault",
        "code": 1508
      },
      "arrival": 67320,
      "departure": 67320
    },
    {
      "stop": {
        "id": "2_1233",
        "lat": 48.107021,
        "lon": -1.72162,
        "name": "Lemaistre",
        "code": 1233
      },
      "arrival": 67380,
      "departure": 67380
    },
    {
      "stop": {
        "id": "2_1235",
        "lat": 48.108898,
        "lon": -1.709658,
        "name": "Géniaux",
        "code": 1235
      },
      "arrival": 67500,
      "departure": 67500
    },
    {
      "stop": {
        "id": "2_1238",
        "lat": 48.108687,
        "lon": -1.698735,
        "name": "Guilloux Lorient",
        "code": 1238
      },
      "arrival": 67620,
      "departure": 67620
    },
    {
      "stop": {
        "id": "2_1239",
        "lat": 48.108256,
        "lon": -1.694158,
        "name": "Chèques Postaux",
        "code": 1239
      },
      "arrival": 67680,
      "departure": 67680
    },
    {
      "stop": {
        "id": "2_1542",
        "lat": 48.10992,
        "lon": -1.68535,
        "name": "Pont de Bretagne",
        "code": 1542
      },
      "arrival": 67860,
      "departure": 67860
    },
    {
      "stop": {
        "id": "2_1242",
        "lat": 48.109758,
        "lon": -1.679532,
        "name": "République",
        "code": 1242
      },
      "arrival": 67920,
      "departure": 67920
    },
    {
      "stop": {
        "id": "2_1088",
        "lat": 48.107377,
        "lon": -1.674981,
        "name": "Liberté TNB",
        "code": 1088
      },
      "arrival": 68100,
      "departure": 68100
    },
    {
      "stop": {
        "id": "2_1567",
        "lat": 48.106213,
        "lon": -1.677425,
        "name": "Charles de Gaulle",
        "code": 1567
      },
      "arrival": 68220,
      "departure": 68220
    }
  ],
  "route": {
    "id": "2_0054",
    "textColor": "FFFFFF",
    "color": "CD93BD",
    "description": "Métropolitaine",
    "longName": "Rennes (Charles de Gaulle) \u003c\u003e Le Rheu / Cintré",
    "shortName": "54",
    "type": 3,
    "agencyId": "2"
  }
}