{
  "headsign": "202 | Betton Chevaigné",
  "stopTimes": [
    {
      "stop": {
        "id": "2_1033",
        "lat": 48.12128,
        "lon": -1.655029,
        "name": "Assomption",
        "code": 1033
      },
      "arrival": 64980,
      "departure": 64980
    },
    {
      "stop": {
        "id": "2_1638",
        "lat": 48.122545,
        "lon": -1.651088,
        "name": "Lycée Chateaubriand",
        "code": 1638
      },
      "arrival": 65100,
      "departure": 65100
    },
    {
      "stop": {
        "id": "2_1619",
        "lat": 48.125198,
        "lon": -1.652864,
        "name": "Joliot-Curie",
        "code": 1619
      },
      "arrival": 65220,
      "departure": 65220
    },
    {
      "stop": {
        "id": "2_1491",
        "lat": 48.13892,
        "lon": -1.658273,
        "name": "Saint-Laurent",
        "code": 1491
      },
      "arrival": 65520,
      "departure": 65520
    },
    {
      "stop": {
        "id": "2_2829",
        "lat": 48.149378,
        "lon": -1.656411,
        "name": "Maison Blanche",
        "code": 2829
      },
      "arrival": 65640,
      "departure": 65640
    },
    {
      "stop": {
        "id": "2_2412",
        "lat": 48.162059,
        "lon": -1.647356,
        "name": "Betton Vallée",
        "code": 2412
      },
      "arrival": 65760,
      "departure": 65760
    },
    {
      "stop": {
        "id": "2_2413",
        "lat": 48.171155,
        "lon": -1.641673,
        "name": "Enseigne Abbaye",
        "code": 2413
      },
      "arrival": 65880,
      "departure": 65880
    },
    {
      "stop": {
        "id": "2_2414",
        "lat": 48.172685,
        "lon": -1.637284,
        "name": "Housset",
        "code": 2414
      },
      "arrival": 65940,
      "departure": 65940
    },
    {
      "stop": {
        "id": "2_2415",
        "lat": 48.176867,
        "lon": -1.637055,
        "name": "Marronniers",
        "code": 2415
      },
      "arrival": 66000,
      "departure": 66000
    },
    {
      "stop": {
        "id": "2_2416",
        "lat": 48.180198,
        "lon": -1.634708,
        "name": "Haye Renaud Gare",
        "code": 2416
      },
      "arrival": 66120,
      "departure": 66120
    },
    {
      "stop": {
        "id": "2_2437",
        "lat": 48.181703,
        "lon": -1.639251,
        "name": "Betton Centre",
        "code": 2437
      },
      "arrival": 66180,
      "departure": 66180
    },
    {
      "stop": {
        "id": "2_2418",
        "lat": 48.181986,
        "lon": -1.641399,
        "name": "Betton Mairie",
        "code": 2418
      },
      "arrival": 66240,
      "departure": 66240
    },
    {
      "stop": {
        "id": "2_2419",
        "lat": 48.183195,
        "lon": -1.646546,
        "name": "Trégor",
        "code": 2419
      },
      "arrival": 66300,
      "departure": 66300
    },
    {
      "stop": {
        "id": "2_2420",
        "lat": 48.180579,
        "lon": -1.652229,
        "name": "Brocéliande",
        "code": 2420
      },
      "arrival": 66420,
      "departure": 66420
    },
    {
      "stop": {
        "id": "2_2421",
        "lat": 48.179175,
        "lon": -1.65123,
        "name": "Omblais",
        "code": 2421
      },
      "arrival": 66480,
      "departure": 66480
    },
    {
      "stop": {
        "id": "2_2401",
        "lat": 48.177029,
        "lon": -1.651134,
        "name": "Champ Devant",
        "code": 2401
      },
      "arrival": 66540,
      "departure": 66540
    },
    {
      "stop": {
        "id": "2_2435",
        "lat": 48.18312,
        "lon": -1.637107,
        "name": "Mozart",
        "code": 2435
      },
      "arrival": 66840,
      "departure": 66840
    },
    {
      "stop": {
        "id": "2_2434",
        "lat": 48.186441,
        "lon": -1.633092,
        "name": "J. Sébastien Bach",
        "code": 2434
      },
      "arrival": 66900,
      "departure": 66900
    },
    {
      "stop": {
        "id": "2_2458",
        "lat": 48.190991,
        "lon": -1.628981,
        "name": "Gentilhommière",
        "code": 2458
      },
      "arrival": 67020,
      "departure": 67020
    },
    {
      "stop": {
        "id": "2_4610",
        "lat": 48.199223,
        "lon": -1.627788,
        "name": "Chopinais",
        "code": 4610
      },
      "arrival": 67200,
      "departure": 67200
    },
    {
      "stop": {
        "id": "2_4608",
        "lat": 48.207963,
        "lon": -1.630549,
        "name": "Chevaigné Gare",
        "code": 4608
      },
      "arrival": 67320,
      "departure": 67320
    },
    {
      "stop": {
        "id": "2_4601",
        "lat": 48.211782,
        "lon": -1.630337,
        "name": "Chevaigné Mairie",
        "code": 4601
      },
      "arrival": 67440,
      "departure": 67440
    },
    {
      "stop": {
        "id": "2_4602",
        "lat": 48.214316,
        "lon": -1.628818,
        "name": "Fonderies",
        "code": 4602
      },
      "arrival": 67500,
      "departure": 67500
    },
    {
      "stop": {
        "id": "2_4603",
        "lat": 48.210932,
        "lon": -1.626041,
        "name": "Pommiers",
        "code": 4603
      },
      "arrival": 67560,
      "departure": 67560
    }
  ],
  "route": {
    "id": "2_0202",
    "textColor": "FFFFFF",
    "color": "009FE3",
    "description": "Complémentaire",
    "longName": "Chevaigné (Pommiers) \u003c\u003e Rennes (Lycée Assomption)",
    "shortName": "202",
    "type": 3,
    "agencyId": "2"
  }
}