{
  "headsign": "77 | Rennes Villejean-Université",
  "stopTimes": [
    {
      "stop": {
        "id": "2_3125",
        "lat": 48.16049,
        "lon": -1.768011,
        "name": "Pâtis Roussel",
        "code": 3125
      },
      "arrival": 69600,
      "departure": 69600
    },
    {
      "stop": {
        "id": "2_3126",
        "lat": 48.15725,
        "lon": -1.765795,
        "name": "Ouessant",
        "code": 3126
      },
      "arrival": 69660,
      "departure": 69660
    },
    {
      "stop": {
        "id": "2_3127",
        "lat": 48.155532,
        "lon": -1.764696,
        "name": "Champalaune",
        "code": 3127
      },
      "arrival": 69720,
      "departure": 69720
    },
    {
      "stop": {
        "id": "2_3128",
        "lat": 48.154019,
        "lon": -1.771157,
        "name": "Pacé Collèges",
        "code": 3128
      },
      "arrival": 69840,
      "departure": 69840
    },
    {
      "stop": {
        "id": "2_3129",
        "lat": 48.150694,
        "lon": -1.770839,
        "name": "Le Brix",
        "code": 3129
      },
      "arrival": 69900,
      "departure": 69900
    },
    {
      "stop": {
        "id": "2_3109",
        "lat": 48.148142,
        "lon": -1.769909,
        "name": "Pacé Cimetière",
        "code": 3109
      },
      "arrival": 69960,
      "departure": 69960
    },
    {
      "stop": {
        "id": "2_3110",
        "lat": 48.145758,
        "lon": -1.770753,
        "name": "Carré Dumaine",
        "code": 3110
      },
      "arrival": 70020,
      "departure": 70020
    },
    {
      "stop": {
        "id": "2_3111",
        "lat": 48.142756,
        "lon": -1.770101,
        "name": "Le Ponant",
        "code": 3111
      },
      "arrival": 70080,
      "departure": 70080
    },
    {
      "stop": {
        "id": "2_3112",
        "lat": 48.141059,
        "lon": -1.767294,
        "name": "Opéra",
        "code": 3112
      },
      "arrival": 70260,
      "departure": 70260
    },
    {
      "stop": {
        "id": "2_3139",
        "lat": 48.140153,
        "lon": -1.763318,
        "name": "Rive Ouest",
        "code": 3139
      },
      "arrival": 70260,
      "departure": 70260
    },
    {
      "stop": {
        "id": "2_3144",
        "lat": 48.141054,
        "lon": -1.766273,
        "name": "Opéra",
        "code": 3144
      },
      "arrival": 70320,
      "departure": 70320
    },
    {
      "stop": {
        "id": "2_1517",
        "lat": 48.118565,
        "lon": -1.713574,
        "name": "Berry",
        "code": 1517
      },
      "arrival": 70860,
      "departure": 70860
    },
    {
      "stop": {
        "id": "2_1520",
        "lat": 48.120473,
        "lon": -1.709574,
        "name": "Bourbonnais",
        "code": 1520
      },
      "arrival": 70920,
      "departure": 70920
    },
    {
      "stop": {
        "id": "2_1519",
        "lat": 48.121064,
        "lon": -1.702976,
        "name": "Villejean-Université",
        "code": 1519
      },
      "arrival": 71100,
      "departure": 71100
    }
  ],
  "route": {
    "id": "2_0077",
    "textColor": "1A171B",
    "color": "FCC000",
    "description": "Métropolitaine",
    "longName": "Rennes (Villejean-Université) \u003c\u003e Pacé",
    "shortName": "77",
    "type": 3,
    "agencyId": "2"
  }
}