{
  "headsign": "33 | Saint-Jacques Gautrais",
  "stopTimes": [
    {
      "stop": {
        "id": "2_3016",
        "lat": 48.093514,
        "lon": -1.607562,
        "name": "Cucé",
        "code": 3016
      },
      "arrival": 58800,
      "departure": 58800
    },
    {
      "stop": {
        "id": "2_3023",
        "lat": 48.092596,
        "lon": -1.612945,
        "name": "IDEFS",
        "code": 3023
      },
      "arrival": 58920,
      "departure": 58920
    },
    {
      "stop": {
        "id": "2_3004",
        "lat": 48.090327,
        "lon": -1.615976,
        "name": "Hallouvry",
        "code": 3004
      },
      "arrival": 58980,
      "departure": 58980
    },
    {
      "stop": {
        "id": "2_3005",
        "lat": 48.088293,
        "lon": -1.61698,
        "name": "Chantepie Eglise",
        "code": 3005
      },
      "arrival": 58980,
      "departure": 58980
    },
    {
      "stop": {
        "id": "2_3006",
        "lat": 48.08848,
        "lon": -1.6192,
        "name": "Chantepie Mairie",
        "code": 3006
      },
      "arrival": 59040,
      "departure": 59040
    },
    {
      "stop": {
        "id": "2_3007",
        "lat": 48.090504,
        "lon": -1.623943,
        "name": "Loges",
        "code": 3007
      },
      "arrival": 59100,
      "departure": 59100
    },
    {
      "stop": {
        "id": "2_3018",
        "lat": 48.085481,
        "lon": -1.627229,
        "name": "Rocade Sud",
        "code": 3018
      },
      "arrival": 59220,
      "departure": 59220
    },
    {
      "stop": {
        "id": "2_3019",
        "lat": 48.080508,
        "lon": -1.630849,
        "name": "Val Blanc",
        "code": 3019
      },
      "arrival": 59340,
      "departure": 59340
    },
    {
      "stop": {
        "id": "2_1343",
        "lat": 48.087643,
        "lon": -1.645966,
        "name": "La Poterie",
        "code": 1343
      },
      "arrival": 59580,
      "departure": 59580
    },
    {
      "stop": {
        "id": "2_1344",
        "lat": 48.0877,
        "lon": -1.650088,
        "name": "Galicie",
        "code": 1344
      },
      "arrival": 59640,
      "departure": 59640
    },
    {
      "stop": {
        "id": "2_1440",
        "lat": 48.087647,
        "lon": -1.653923,
        "name": "Le Blosne",
        "code": 1440
      },
      "arrival": 59700,
      "departure": 59700
    },
    {
      "stop": {
        "id": "2_1346",
        "lat": 48.084724,
        "lon": -1.655211,
        "name": "Hôpital Sud",
        "code": 1346
      },
      "arrival": 59820,
      "departure": 59820
    },
    {
      "stop": {
        "id": "2_1347",
        "lat": 48.084769,
        "lon": -1.657925,
        "name": "Torigné",
        "code": 1347
      },
      "arrival": 59880,
      "departure": 59880
    },
    {
      "stop": {
        "id": "2_1441",
        "lat": 48.08608,
        "lon": -1.660855,
        "name": "Triangle",
        "code": 1441
      },
      "arrival": 59940,
      "departure": 59940
    },
    {
      "stop": {
        "id": "2_1443",
        "lat": 48.091624,
        "lon": -1.662448,
        "name": "Binquenais Collège",
        "code": 1443
      },
      "arrival": 60120,
      "departure": 60120
    },
    {
      "stop": {
        "id": "2_1442",
        "lat": 48.091639,
        "lon": -1.66733,
        "name": "Binquenais",
        "code": 1442
      },
      "arrival": 60240,
      "departure": 60240
    },
    {
      "stop": {
        "id": "2_1444",
        "lat": 48.093622,
        "lon": -1.66964,
        "name": "Combes",
        "code": 1444
      },
      "arrival": 60300,
      "departure": 60300
    },
    {
      "stop": {
        "id": "2_1445",
        "lat": 48.093147,
        "lon": -1.674668,
        "name": "Clemenceau",
        "code": 1445
      },
      "arrival": 60420,
      "departure": 60420
    },
    {
      "stop": {
        "id": "2_1446",
        "lat": 48.090338,
        "lon": -1.674969,
        "name": "Argonautes",
        "code": 1446
      },
      "arrival": 60480,
      "departure": 60480
    },
    {
      "stop": {
        "id": "2_1447",
        "lat": 48.08721,
        "lon": -1.675075,
        "name": "Henri Fréville",
        "code": 1447
      },
      "arrival": 60600,
      "departure": 60600
    },
    {
      "stop": {
        "id": "2_1622",
        "lat": 48.084157,
        "lon": -1.679166,
        "name": "Alma",
        "code": 1622
      },
      "arrival": 60780,
      "departure": 60780
    },
    {
      "stop": {
        "id": "2_1134",
        "lat": 48.085207,
        "lon": -1.682259,
        "name": "Canada",
        "code": 1134
      },
      "arrival": 60840,
      "departure": 60840
    },
    {
      "stop": {
        "id": "2_1449",
        "lat": 48.086865,
        "lon": -1.683079,
        "name": "Norvège",
        "code": 1449
      },
      "arrival": 60900,
      "departure": 60900
    },
    {
      "stop": {
        "id": "2_1450",
        "lat": 48.08669,
        "lon": -1.688453,
        "name": "Coubertin",
        "code": 1450
      },
      "arrival": 60960,
      "departure": 60960
    },
    {
      "stop": {
        "id": "2_1451",
        "lat": 48.086857,
        "lon": -1.691262,
        "name": "Lycée Bréquigny",
        "code": 1451
      },
      "arrival": 61020,
      "departure": 61020
    },
    {
      "stop": {
        "id": "2_1452",
        "lat": 48.089851,
        "lon": -1.690987,
        "name": "Bréquigny Piscine",
        "code": 1452
      },
      "arrival": 61080,
      "departure": 61080
    },
    {
      "stop": {
        "id": "2_2217",
        "lat": 48.090645,
        "lon": -1.695013,
        "name": "25 Fusillés",
        "code": 2217
      },
      "arrival": 61140,
      "departure": 61140
    },
    {
      "stop": {
        "id": "2_2229",
        "lat": 48.089432,
        "lon": -1.697947,
        "name": "Croix Verte",
        "code": 2229
      },
      "arrival": 61260,
      "departure": 61260
    },
    {
      "stop": {
        "id": "2_2226",
        "lat": 48.086645,
        "lon": -1.701446,
        "name": "Rablais Allende",
        "code": 2226
      },
      "arrival": 61320,
      "departure": 61320
    },
    {
      "stop": {
        "id": "2_2231",
        "lat": 48.086974,
        "lon": -1.706633,
        "name": "Gaité",
        "code": 2231
      },
      "arrival": 61440,
      "departure": 61440
    },
    {
      "stop": {
        "id": "2_2212",
        "lat": 48.084407,
        "lon": -1.709256,
        "name": "Roger Dodin",
        "code": 2212
      },
      "arrival": 61500,
      "departure": 61500
    },
    {
      "stop": {
        "id": "2_2264",
        "lat": 48.082821,
        "lon": -1.713051,
        "name": "Jean Jaurès",
        "code": 2264
      },
      "arrival": 61560,
      "departure": 61560
    },
    {
      "stop": {
        "id": "2_2213",
        "lat": 48.082491,
        "lon": -1.715453,
        "name": "Jean Marin",
        "code": 2213
      },
      "arrival": 61620,
      "departure": 61620
    },
    {
      "stop": {
        "id": "2_2203",
        "lat": 48.07942,
        "lon": -1.71571,
        "name": "Médiathèque",
        "code": 2203
      },
      "arrival": 61680,
      "departure": 61680
    },
    {
      "stop": {
        "id": "2_2215",
        "lat": 48.076909,
        "lon": -1.715921,
        "name": "Collège Jean Moulin",
        "code": 2215
      },
      "arrival": 61740,
      "departure": 61740
    },
    {
      "stop": {
        "id": "2_2224",
        "lat": 48.075073,
        "lon": -1.71604,
        "name": "Morinais",
        "code": 2224
      },
      "arrival": 61800,
      "departure": 61800
    },
    {
      "stop": {
        "id": "2_2233",
        "lat": 48.067424,
        "lon": -1.717305,
        "name": "Abbé Grimault",
        "code": 2233
      },
      "arrival": 61980,
      "departure": 61980
    },
    {
      "stop": {
        "id": "2_2222",
        "lat": 48.066422,
        "lon": -1.720279,
        "name": "Pommerais",
        "code": 2222
      },
      "arrival": 62040,
      "departure": 62040
    },
    {
      "stop": {
        "id": "2_2235",
        "lat": 48.062865,
        "lon": -1.720702,
        "name": "Rossel",
        "code": 2235
      },
      "arrival": 62100,
      "departure": 62100
    },
    {
      "stop": {
        "id": "2_2265",
        "lat": 48.061616,
        "lon": -1.724012,
        "name": "Gautrais",
        "code": 2265
      },
      "arrival": 62160,
      "departure": 62160
    }
  ],
  "route": {
    "id": "2_0033",
    "textColor": "E2001A",
    "color": "FFF164",
    "description": "Inter-quartiers",
    "longName": "Saint-Jacques-de-la-Lande (Gautrais) / Bréquigny \u003c\u003e La Poterie / Chantepie (Cucé)",
    "shortName": "33",
    "type": 3,
    "agencyId": "2"
  }
}